{"type": "FeatureCollection", "features": [{"type": "Feature", "geometry": {"type": "Point", "coordinates": [-92.5217349, 32.2581291]}, "properties": {"name": "Group Camp", "tourism": "camp_site", "osm_id": 411879403}}, {"type": "Feature", "geometry": {"type": "Point", "coordinates": [-93.968167, 31.772583]}, "properties": {"name": "Boles Field Campground", "operator": "USFS", "source": "www.fs.usda.gov", "tourism": "camp_site", "uuid": "sonora_20130614", "osm_id": 2344725082}}, {"type": "Feature", "geometry": {"type": "Point", "coordinates": [-93.9327, 31.7708]}, "properties": {"name": "Haley's Ferry Boat Ramp", "operator": "USFS", "source": "www.fs.usda.gov", "tourism": "camp_site", "uuid": "sonora_20130614", "osm_id": 2344725090}}, {"type": "Feature", "geometry": {"type": "Point", "coordinates": [-93.695194, 31.31]}, "properties": {"name": "Indian Mounds Recreation Area", "operator": "USFS", "source": "www.fs.usda.gov", "tourism": "camp_site", "uuid": "sonora_20130614", "osm_id": 2344725091}}, {"type": "Feature", "geometry": {"type": "Point", "coordinates": [-93.8249, 31.6822]}, "properties": {"name": "Ragtown", "operator": "USFS", "source": "www.fs.usda.gov", "tourism": "camp_site", "uuid": "sonora_20130614", "osm_id": 2344725095}}, {"type": "Feature", "geometry": {"type": "Point", "coordinates": [-93.831742, 31.473003]}, "properties": {"name": "Red Hills Lake", "operator": "USFS", "source": "www.fs.usda.gov", "tourism": "camp_site", "uuid": "sonora_20130614", "osm_id": 2344725097}}, {"type": "Feature", "geometry": {"type": "Point", "coordinates": [-93.733361, 31.211167]}, "properties": {"name": "Willow Oak", "operator": "USFS", "source": "www.fs.usda.gov", "tourism": "camp_site", "uuid": "sonora_20130614", "osm_id": 2344725100}}, {"type": "Feature", "geometry": {"type": "Point", "coordinates": [-92.275616, 30.8120878]}, "properties": {"name": "Campsite 2", "tourism": "camp_site", "osm_id": 2408982192}}, {"type": "Feature", "geometry": {"type": "Point", "coordinates": [-92.2782499, 30.8142831]}, "properties": {"name": "Campsite 3", "tourism": "camp_site", "osm_id": 2409074338}}, {"type": "Feature", "geometry": {"type": "Point", "coordinates": [-92.2809294, 30.8398608]}, "properties": {"name": "Campsite 5", "tourism": "camp_site", "osm_id": 2409074457}}, {"type": "Feature", "geometry": {"type": "Point", "coordinates": [-92.2785932, 30.8156468]}, "properties": {"name": "Campsite 4", "tourism": "camp_site", "osm_id": 2409074711}}, {"type": "Feature", "geometry": {"type": "Point", "coordinates": [-92.2589461, 30.7828066]}, "properties": {"name": "Campsite 6", "tourism": "camp_site", "osm_id": 2409093881}}, {"type": "Feature", "geometry": {"type": "Point", "coordinates": [-92.2698868, 30.770427]}, "properties": {"name": "Campsite 1", "tourism": "camp_site", "osm_id": 2409151287}}, {"type": "Feature", "geometry": {"type": "Point", "coordinates": [-89.7075049, 30.3021307]}, "properties": {"name": "WMA camp site (free)", "tourism": "camp_site", "osm_id": 2853059361}}, {"type": "Feature", "geometry": {"type": "Point", "coordinates": [-93.0940536, 31.4450424]}, "properties": {"internet_access": "no", "name": "Kisatchie Bayou Campground", "operator": "US Forest Service", "tourism": "camp_site", "website": "https://www.fs.usda.gov/recarea/kisatchie/null/recarea/?recid=34803&actid=29", "wheelchair": "no", "osm_id": 3119632580}}, {"type": "Feature", "geometry": {"type": "Point", "coordinates": [-93.1346407, 31.4856707]}, "properties": {"name": "Lotus Camp", "operator": "US Forest Service", "tourism": "camp_site", "website": "https://www.fs.usda.gov/recarea/kisatchie/recreation/camping-cabins/recarea/?recid=34805&actid=29", "osm_id": 3121503499}}, {"type": "Feature", "geometry": {"type": "Point", "coordinates": [-93.1437248, 31.497885]}, "properties": {"name": "Red Bluff Camp", "operator": "US Forest Service", "tourism": "camp_site", "website": "https://www.fs.usda.gov/recarea/kisatchie/recreation/camping-cabins/recarea/?recid=34809&actid=29", "osm_id": 3121503500}}, {"type": "Feature", "geometry": {"type": "Point", "coordinates": [-91.4155884, 30.6898616]}, "properties": {"name": "Jim's Place", "tourism": "camp_site", "osm_id": 3489274159}}, {"type": "Feature", "geometry": {"type": "Point", "coordinates": [-89.4048928, 30.269938]}, "properties": {"tourism": "camp_site", "osm_id": 3489274160}}, {"type": "Feature", "geometry": {"type": "Point", "coordinates": [-93.0874293, 32.776817]}, "properties": {"name": "Valhalla - Motorcycle only", "phone": "+1 318-927-1008", "tourism": "camp_site", "osm_id": 3756478077}}, {"type": "Feature", "geometry": {"type": "Point", "coordinates": [-89.7576006, 30.2418866]}, "properties": {"name": "Pine Crest RV Park", "tourism": "caravan_site", "osm_id": 4134190737}}, {"type": "Feature", "geometry": {"type": "Point", "coordinates": [-92.9991921, 31.4756409]}, "properties": {"name": "Longleaf Vista Recreation Area", "tourism": "camp_site", "osm_id": 4248013529}}, {"type": "Feature", "geometry": {"type": "Point", "coordinates": [-90.3741876, 30.5627083]}, "properties": {"name:en": "Camp living water", "tourism": "camp_site", "osm_id": 4382331490}}, {"type": "Feature", "geometry": {"type": "Point", "coordinates": [-89.0220447, 31.7937303]}, "properties": {"addr:city": "Sandersville", "addr:housenumber": "925", "addr:postcode": "39477", "addr:state": "MS", "addr:street": "North Front Street", "contact:website": "http://www.gofishrvpark.com/", "internet_access": "wlan", "name": "Go Fish R. V. Park", "pets": "yes", "phone": "+1 601-470-4443", "power_supply": "yes", "source": "survey 2015-11-28;Mapillary", "tourism": "caravan_site", "website": "http://www.gofishrvpark.com/", "osm_id": 4635066386}}, {"type": "Feature", "geometry": {"type": "Point", "coordinates": [-93.1164102, 30.2959921]}, "properties": {"name": "White Oak", "name:en": "White Oak", "tourism": "camp_site", "osm_id": 5036196321}}, {"type": "Feature", "geometry": {"type": "Point", "coordinates": [-93.2306321, 32.6477045]}, "properties": {"tourism": "caravan_site", "osm_id": 5364782386}}, {"type": "Feature", "geometry": {"type": "Point", "coordinates": [-89.9868186, 30.6946845]}, "properties": {"addr:city": "Bogalusa", "addr:housenumber": "12101", "addr:postcode": "70427", "addr:state": "LA", "addr:street": "George Jenkins Rd E", "name": "Berry Creek Cabins", "phone": "+1-985-730-4395", "tourism": "camp_site", "website": "http://www.berrycreekcabins.com", "osm_id": 5722850050}}, {"type": "Feature", "geometry": {"type": "Point", "coordinates": [-90.2789986, 29.9801719]}, "properties": {"addr:city": "Kenner", "addr:housenumber": "176", "addr:postcode": "70062", "addr:state": "LA", "addr:street": "West Airline Highway", "name": "Airline Trailers of Kenner", "opening_hours": "Mo-Fr 08:00-18:00; Sa,Su 00:00-24:00", "phone": "+1 504-259-6051", "tourism": "caravan_site", "website": "https://www.airlinetrailersofkenner.com/", "osm_id": 6033467009}}, {"type": "Feature", "geometry": {"type": "Point", "coordinates": [-91.5375291, 29.5737484]}, "properties": {"caravans": "yes", "drinking_water": "yes", "name": "Burn\u2019s Point Lane", "tents": "yes", "tourism": "camp_site", "osm_id": 6313203485}}, {"type": "Feature", "geometry": {"type": "Point", "coordinates": [-92.7804194, 31.8987579]}, "properties": {"tourism": "camp_site", "osm_id": 6363191104}}, {"type": "Feature", "geometry": {"type": "Point", "coordinates": [-92.8966499, 31.9880421]}, "properties": {"tourism": "camp_site", "osm_id": 6369552204}}, {"type": "Feature", "geometry": {"type": "Point", "coordinates": [-92.8966134, 31.9880315]}, "properties": {"tourism": "camp_site", "osm_id": 6369552205}}, {"type": "Feature", "geometry": {"type": "Point", "coordinates": [-93.2912964, 32.6748197]}, "properties": {"access": "customers", "internet_access": "no", "name": "Upper Caney Campground", "operator": "Caney Lakes", "tourism": "camp_site", "osm_id": 6535519144}}, {"type": "Feature", "geometry": {"type": "Point", "coordinates": [-93.2351809, 30.3016753]}, "properties": {"addr:city": "Lake Charles", "addr:housenumber": "1986", "addr:postcode": "70611", "addr:state": "LA", "addr:street": "Sam Houston Jones Parkway (LA 378)", "contact:facebook": "https://www.facebook.com/Paradise-RV-Park-306565712875540", "name": "Paradise RV Park", "opening_hours": "Mo-Su 08:00-22:00", "phone": "+1-337-905-8616", "start_date": "2015", "tourism": "caravan_site", "website": "https://www.paradise-rvpark.com/", "osm_id": 6588823552}}, {"type": "Feature", "geometry": {"type": "Point", "coordinates": [-92.3115165, 30.8552856]}, "properties": {"access": "private", "addr:city": "St Landry", "addr:housenumber": "1771", "addr:postcode": "71367", "addr:state": "LA", "addr:street": "Mountain Bayou Road", "internet_access": "no", "name": "Lost Bayou Scout Camp", "operator": "Evangeline Area Council - Scouts BSA", "tourism": "camp_site", "osm_id": 6956078370}}, {"type": "Feature", "geometry": {"type": "Point", "coordinates": [-93.2528349, 30.2851501]}, "properties": {"name": "Lloyd's RV Park", "tourism": "caravan_site", "osm_id": 6981751303}}, {"type": "Feature", "geometry": {"type": "Point", "coordinates": [-89.8106332, 32.3310095]}, "properties": {"addr:city": "Pelahatchie", "addr:housenumber": "143", "addr:postcode": "39145", "addr:street": "Campground Road", "internet_access": "wlan", "name": "Yogi On The Lake Jellystone Park", "note": "Recreational activities include swimming pools, water slides, outdoor theater, seasonal haunted trail and mini golf.", "phone": "+1 601 854 6859", "toilets": "yes", "tourism": "caravan_site", "website": "https://www.jellystonems.com", "wheelchair": "limited", "osm_id": 7636810285}}, {"type": "Feature", "geometry": {"type": "Point", "coordinates": [-90.323275, 32.5142636]}, "properties": {"addr:city": "Flora", "addr:state": "MS", "capacity": "15", "charge": "22 USD", "fee": "yes", "name": "Mississippi Petrified Forest", "phone": "+1-601-879-8189", "power_supply": "yes", "tourism": "camp_site", "osm_id": 7874303648}}, {"type": "Feature", "geometry": {"type": "Point", "coordinates": [-90.409358, 30.0209165]}, "properties": {"access": "permit", "addr:city": "Norco", "addr:state": "LA", "backcountry": "yes", "name": "Bonnet Carre Spillway - COE", "operator": "Corp of Engineers", "reservation": "required", "tourism": "camp_site", "website": "https://www.scpparksandrec.com/facilities/spillway-rental", "osm_id": 7875813399}}, {"type": "Feature", "geometry": {"type": "Point", "coordinates": [-89.9009393, 29.8615284]}, "properties": {"addr:city": "Braithwaite", "addr:state": "LA", "capacity": "51", "charge": "28 USD", "fee": "yes", "name": "St. Bernard State Park Campground", "phone": "+1 504-682-2101", "power_supply": "yes", "reservation": "yes", "sanitary_dump_station": "yes", "shower": "yes", "tents": "yes", "tourism": "camp_site", "osm_id": 7875813400}}, {"type": "Feature", "geometry": {"type": "Point", "coordinates": [-89.4539916, 29.3560995]}, "properties": {"addr:city": "Buras-Triumph", "addr:state": "LA", "backcountry": "yes", "capacity": "4", "drinking_water": "no", "name": "Fort Jackson Park", "toilets": "no", "tourism": "camp_site", "osm_id": 7875813401}}, {"type": "Feature", "geometry": {"type": "Point", "coordinates": [-90.1445662, 32.3283308]}, "properties": {"addr:city": "Jackson", "addr:state": "MS", "capacity": "36", "charge": "22 USD", "fee": "yes", "name": "Lefleur's Bluff State Park", "power_supply": "yes", "reservation": "yes", "shower": "yes", "tourism": "camp_site", "osm_id": 7888578704}}, {"type": "Feature", "geometry": {"type": "Point", "coordinates": [-90.7987222, 32.089135]}, "properties": {"addr:city": "Port Gibson", "addr:state": "MS", "fee": "no", "name": "Rocky Springs", "opening_hours:covid19": "self-contained camping only", "operator": "Natchez Trace NP - Rocky Springs", "toilets": "yes", "tourism": "camp_site", "osm_id": 7907160271}}, {"type": "Feature", "geometry": {"type": "Point", "coordinates": [-90.1475876, 30.773275]}, "properties": {"addr:city": "Franklinton", "addr:state": "LA", "capacity": "100", "fee": "yes", "name": "Bogue Chitto SP - Bottomland", "phone": "+1-985-839-5707", "power_supply": "yes", "reservation": "yes", "tourism": "camp_site", "osm_id": 7933397220}}, {"type": "Feature", "geometry": {"type": "Point", "coordinates": [-89.1165649, 31.051202]}, "properties": {"capacity": "4", "name": "Moody's Landing - USFS", "tourism": "camp_site", "osm_id": 7933397221}}, {"type": "Feature", "geometry": {"type": "Point", "coordinates": [-89.4594141, 30.9173625]}, "properties": {"access": "private", "name": "King's Arrow Ranch", "tourism": "camp_site", "osm_id": 7948462909}}, {"type": "Feature", "geometry": {"type": "Point", "coordinates": [-89.4549376, 30.9124465]}, "properties": {"access": "private", "name": "King's Arrow Ranch", "tourism": "camp_site", "osm_id": 7948462914}}, {"type": "Feature", "geometry": {"type": "Point", "coordinates": [-92.9681429, 31.7536235]}, "properties": {"addr:city": "Natchitoches", "addr:housenumber": "3185", "addr:postcode": "71457", "addr:state": "LA", "addr:street": "Highway 477", "capacity": "28", "description": "Small RV Park located along the Red River. Full service marina with fuel dock. Grocery Store and restaurant. 9 cottages for rent.", "email": "Manager@midway-rv.com", "image": "https://imageprocessor.digital.vistaprint.com/crop/153,0,213x213/maxWidth/1000/https://uploads.documents.cimpress.io/v1/uploads/f0d5ccea-1fc8-4dc8-b164-cc65a362e32f~110/original?tenant=vbu-digital", "internet_access": "wlan", "internet_access:fee": "no", "name": "Midway RV Park & Marina", "power_supply": "yes", "sanitary_dump_station": "yes", "tourism": "caravan_site", "website": "https://midway-rv.com/", "osm_id": 8465520233}}, {"type": "Feature", "geometry": {"type": "Point", "coordinates": [-93.6378895, 31.4248016]}, "properties": {"addr:housenumber": "145", "addr:street": "Connie Lane", "name": "Lost Anchor RV Park", "tourism": "caravan_site", "osm_id": 8995749056}}, {"type": "Feature", "geometry": {"type": "Point", "coordinates": [-90.5454591, 30.1660293]}, "properties": {"access": "yes", "backcountry": "yes", "fee": "no", "operator": "Louisiana Department of Wildlife and Fisheries", "tourism": "camp_site", "osm_id": 9095914441}}, {"type": "Feature", "geometry": {"type": "Point", "coordinates": [-90.7497783, 30.1888507]}, "properties": {"access": "yes", "backcountry": "yes", "fee": "no", "operator": "Louisiana Department of Wildlife and Fisheries", "tourism": "camp_site", "osm_id": 9095914734}}, {"type": "Feature", "geometry": {"type": "Point", "coordinates": [-91.337008, 29.4481405]}, "properties": {"access": "yes", "backcountry": "yes", "fee": "no", "operator": "Louisiana Department of Wildlife and Fisheries", "tourism": "camp_site", "osm_id": 9102642789}}, {"type": "Feature", "geometry": {"type": "Point", "coordinates": [-93.0499821, 31.5198957]}, "properties": {"camp_site": "basic", "fee": "no", "tourism": "camp_site", "osm_id": 9464966095}}, {"type": "Feature", "geometry": {"type": "Point", "coordinates": [-90.9791699, 29.6744882]}, "properties": {"name": "Tiger Oaks RV Park", "tourism": "caravan_site", "osm_id": 9742512858}}, {"type": "Feature", "geometry": {"type": "Point", "coordinates": [-93.4929042, 32.9489806]}, "properties": {"tourism": "camp_site", "osm_id": 9934924519}}, {"type": "Feature", "geometry": {"type": "Point", "coordinates": [-93.4989524, 32.9437783]}, "properties": {"tourism": "camp_site", "osm_id": 9934924520}}, {"type": "Feature", "geometry": {"type": "Point", "coordinates": [-93.9944395, 31.9678749]}, "properties": {"name": "Shady S RV Park", "tourism": "caravan_site", "osm_id": 9962471768}}, {"type": "Feature", "geometry": {"type": "Point", "coordinates": [-91.5891648, 30.7340261]}, "properties": {"addr:street": "641 LA-1, Morganza, LA 70759", "name": "Maxey Care RV Park", "phone": "+1-225-694-3929", "tourism": "caravan_site", "website": "https://maxeycarervpark.yolasite.com/", "osm_id": 10826904247}}, {"type": "Feature", "geometry": {"type": "Point", "coordinates": [-93.9618259, 32.4430605]}, "properties": {"addr:housenumber": "9010", "addr:postcode": "71033", "addr:street": "Greenwood Road", "name": "Southern Living RV Park", "phone": "+1-318-938-1808", "tourism": "caravan_site", "website": "https://southernlivingrvpark.net", "osm_id": 11106996605}}, {"type": "Feature", "geometry": {"type": "Point", "coordinates": [-93.0146081, 31.0217889]}, "properties": {"access": "yes", "camp_site": "basic", "tents": "yes", "tourism": "camp_site", "osm_id": 11674149314}}, {"type": "Feature", "geometry": {"type": "Point", "coordinates": [-92.9358909, 30.2334493]}, "properties": {"tourism": "caravan_site", "osm_id": 12147949876}}, {"type": "Feature", "geometry": {"type": "Point", "coordinates": [-92.9514427, 30.249781]}, "properties": {"tourism": "caravan_site", "osm_id": 12147949877}}, {"type": "Feature", "geometry": {"type": "Point", "coordinates": [-92.9545857, 30.2420573]}, "properties": {"tourism": "caravan_site", "osm_id": 12147949881}}, {"type": "Feature", "geometry": {"type": "Point", "coordinates": [-92.0038261, 30.087234]}, "properties": {"tourism": "caravan_site", "osm_id": 12148499093}}, {"type": "Feature", "geometry": {"type": "Point", "coordinates": [-91.4345385, 31.5561902]}, "properties": {"tourism": "caravan_site", "osm_id": 12556771789}}, {"type": "Feature", "geometry": {"type": "Point", "coordinates": [-89.1587072, 32.7294577]}, "properties": {"tourism": "caravan_site", "osm_id": 12596131102}}, {"type": "Feature", "geometry": {"type": "Point", "coordinates": [-90.0529411, 29.8412171]}, "properties": {"tourism": "caravan_site", "osm_id": 12648064915}}, {"type": "Feature", "geometry": {"type": "Point", "coordinates": [-89.7258227, 29.5149057]}, "properties": {"tourism": "caravan_site", "osm_id": 12648078054}}, {"type": "Feature", "geometry": {"type": "Point", "coordinates": [-89.7136103, 29.4984502]}, "properties": {"tourism": "caravan_site", "osm_id": 12648078059}}, {"type": "Feature", "geometry": {"type": "Point", "coordinates": [-90.8490064, 30.8881595]}, "properties": {"access": "yes", "addr:city": "Clinton", "addr:housenumber": "19099", "addr:postcode": "70722", "addr:state": "LA", "addr:street": "Hwy 10", "camp_site": "cabins", "name": "The Point Bar, LLC", "operator": "Richard Davis", "tourism": "camp_site", "osm_id": 12758377710}}, {"type": "Feature", "geometry": {"type": "Point", "coordinates": [-91.4222735, 31.3500545]}, "properties": {"addr:city": "Sibley", "addr:country": "US", "addr:state": "MS", "name": "St Catherine Creek National Wildlife Refuge Campground", "operator": "St Catherine Creek National Wildlife Refuge", "source": "https://catalog.data.gov/dataset/national-wildlife-refuge-campgrounds", "tourism": "camp_site", "website": "https://www.fws.gov/refuge/St_Catherine_Creek/", "osm_id": 12926110908}}, {"type": "Feature", "geometry": {"type": "Point", "coordinates": [-90.1448913, 32.3288909]}, "properties": {"ref": "25", "tourism": "camp_site", "osm_id": 13048502878}}, {"type": "Feature", "geometry": {"type": "Point", "coordinates": [-90.1451985, 32.3287588]}, "properties": {"ref": "20", "tourism": "camp_site", "osm_id": 13048502879}}, {"type": "Feature", "geometry": {"type": "Point", "coordinates": [-90.1452587, 32.3288232]}, "properties": {"ref": "22", "tourism": "camp_site", "osm_id": 13048502880}}, {"type": "Feature", "geometry": {"type": "Point", "coordinates": [-90.1458347, 32.3289935]}, "properties": {"ref": "17", "tourism": "camp_site", "osm_id": 13048502881}}, {"type": "Feature", "geometry": {"type": "Point", "coordinates": [-90.1458523, 32.3288471]}, "properties": {"ref": "18", "tourism": "camp_site", "osm_id": 13048502882}}, {"type": "Feature", "geometry": {"type": "Point", "coordinates": [-90.1448756, 32.3293535]}, "properties": {"ref": "11", "tourism": "camp_site", "osm_id": 13048502883}}, {"type": "Feature", "geometry": {"type": "Point", "coordinates": [-90.1454216, 32.3287869]}, "properties": {"ref": "21", "tourism": "camp_site", "osm_id": 13048502884}}, {"type": "Feature", "geometry": {"type": "Point", "coordinates": [-90.1455047, 32.3287201]}, "properties": {"ref": "19", "tourism": "camp_site", "osm_id": 13048502885}}, {"type": "Feature", "geometry": {"type": "Point", "coordinates": [-90.1438841, 32.3286622]}, "properties": {"ref": "28", "tourism": "camp_site", "osm_id": 13048502886}}, {"type": "Feature", "geometry": {"type": "Point", "coordinates": [-90.1439875, 32.3285951]}, "properties": {"ref": "29", "tourism": "camp_site", "osm_id": 13048502887}}, {"type": "Feature", "geometry": {"type": "Point", "coordinates": [-90.144301, 32.3288275]}, "properties": {"ref": "27", "tourism": "camp_site", "osm_id": 13048502888}}, {"type": "Feature", "geometry": {"type": "Point", "coordinates": [-90.1445159, 32.3288994]}, "properties": {"ref": "26", "tourism": "camp_site", "osm_id": 13048502889}}, {"type": "Feature", "geometry": {"type": "Point", "coordinates": [-90.1447169, 32.3288556]}, "properties": {"ref": "24", "tourism": "camp_site", "osm_id": 13048502890}}, {"type": "Feature", "geometry": {"type": "Point", "coordinates": [-90.144932, 32.3288034]}, "properties": {"ref": "23", "tourism": "camp_site", "osm_id": 13048502891}}, {"type": "Feature", "geometry": {"type": "Point", "coordinates": [-90.145639, 32.3291708]}, "properties": {"ref": "16", "tourism": "camp_site", "osm_id": 13048502892}}, {"type": "Feature", "geometry": {"type": "Point", "coordinates": [-90.1455202, 32.3292446]}, "properties": {"ref": "15", "tourism": "camp_site", "osm_id": 13048502893}}, {"type": "Feature", "geometry": {"type": "Point", "coordinates": [-90.1453266, 32.3293481]}, "properties": {"ref": "14", "tourism": "camp_site", "osm_id": 13048502894}}, {"type": "Feature", "geometry": {"type": "Point", "coordinates": [-90.1451129, 32.3292956]}, "properties": {"ref": "13", "tourism": "camp_site", "osm_id": 13048502895}}, {"type": "Feature", "geometry": {"type": "Point", "coordinates": [-90.1446586, 32.3292243]}, "properties": {"ref": "8", "tourism": "camp_site", "osm_id": 13048502896}}, {"type": "Feature", "geometry": {"type": "Point", "coordinates": [-90.1448777, 32.3292681]}, "properties": {"ref": "10", "tourism": "camp_site", "osm_id": 13048502897}}, {"type": "Feature", "geometry": {"type": "Point", "coordinates": [-90.1443036, 32.329239]}, "properties": {"ref": "7", "tourism": "camp_site", "osm_id": 13048502898}}, {"type": "Feature", "geometry": {"type": "Point", "coordinates": [-90.1438189, 32.3289919]}, "properties": {"ref": "4", "tourism": "camp_site", "osm_id": 13048502899}}, {"type": "Feature", "geometry": {"type": "Point", "coordinates": [-90.1437099, 32.328864]}, "properties": {"ref": "2", "tourism": "camp_site", "osm_id": 13048502900}}, {"type": "Feature", "geometry": {"type": "Point", "coordinates": [-90.1439551, 32.3290976]}, "properties": {"ref": "6", "tourism": "camp_site", "osm_id": 13048554801}}, {"type": "Feature", "geometry": {"type": "Point", "coordinates": [-90.1441581, 32.3291038]}, "properties": {"ref": "5", "tourism": "camp_site", "osm_id": 13048554802}}, {"type": "Feature", "geometry": {"type": "Point", "coordinates": [-90.1439458, 32.3289698]}, "properties": {"ref": "3", "tourism": "camp_site", "osm_id": 13048554803}}, {"type": "Feature", "geometry": {"type": "Point", "coordinates": [-90.1438456, 32.3285704]}, "properties": {"ref": "30", "tourism": "camp_site", "osm_id": 13048554804}}, {"type": "Feature", "geometry": {"type": "Point", "coordinates": [-90.1436794, 32.3287453]}, "properties": {"ref": "1", "tourism": "camp_site", "osm_id": 13048554805}}, {"type": "Feature", "geometry": {"type": "Point", "coordinates": [-90.1450613, 32.3293863]}, "properties": {"ref": "12", "tourism": "camp_site", "osm_id": 13048554806}}, {"type": "Feature", "geometry": {"type": "Point", "coordinates": [-90.1446428, 32.3293274]}, "properties": {"ref": "9", "tourism": "camp_site", "osm_id": 13048554807}}, {"type": "Feature", "geometry": {"type": "Point", "coordinates": [-89.2475414, 31.1469414]}, "properties": {"ref": "55", "tourism": "camp_site", "osm_id": 13048644334}}, {"type": "Feature", "geometry": {"type": "Point", "coordinates": [-89.2474216, 31.1467903]}, "properties": {"ref": "54", "tourism": "camp_site", "osm_id": 13048644335}}, {"type": "Feature", "geometry": {"type": "Point", "coordinates": [-89.2460906, 31.1431789]}, "properties": {"ref": "5", "tourism": "camp_site", "osm_id": 13048644336}}, {"type": "Feature", "geometry": {"type": "Point", "coordinates": [-89.2480204, 31.1466647]}, "properties": {"ref": "61", "tourism": "camp_site", "osm_id": 13048644337}}, {"type": "Feature", "geometry": {"type": "Point", "coordinates": [-89.2438909, 31.1408257]}, "properties": {"ref": "106", "tourism": "camp_site", "osm_id": 13048644338}}, {"type": "Feature", "geometry": {"type": "Point", "coordinates": [-89.2439762, 31.1407904]}, "properties": {"ref": "107", "tourism": "camp_site", "osm_id": 13048644339}}, {"type": "Feature", "geometry": {"type": "Point", "coordinates": [-89.2440459, 31.1407605]}, "properties": {"ref": "108", "tourism": "camp_site", "osm_id": 13048644340}}, {"type": "Feature", "geometry": {"type": "Point", "coordinates": [-89.2478315, 31.1464688]}, "properties": {"ref": "826", "tourism": "camp_site", "osm_id": 13048644341}}, {"type": "Feature", "geometry": {"type": "Point", "coordinates": [-89.2455153, 31.1439966]}, "properties": {"ref": "822", "tourism": "camp_site", "osm_id": 13048644342}}, {"type": "Feature", "geometry": {"type": "Point", "coordinates": [-89.2436901, 31.140803]}, "properties": {"ref": "105", "tourism": "camp_site", "osm_id": 13048644343}}, {"type": "Feature", "geometry": {"type": "Point", "coordinates": [-89.2437239, 31.1408745]}, "properties": {"ref": "104", "tourism": "camp_site", "osm_id": 13048644344}}, {"type": "Feature", "geometry": {"type": "Point", "coordinates": [-89.2437555, 31.1409536]}, "properties": {"ref": "103", "tourism": "camp_site", "osm_id": 13048644345}}, {"type": "Feature", "geometry": {"type": "Point", "coordinates": [-89.2437749, 31.1410077]}, "properties": {"ref": "102", "tourism": "camp_site", "osm_id": 13048644346}}, {"type": "Feature", "geometry": {"type": "Point", "coordinates": [-89.2437913, 31.1410723]}, "properties": {"ref": "101", "tourism": "camp_site", "osm_id": 13048644347}}, {"type": "Feature", "geometry": {"type": "Point", "coordinates": [-89.2438095, 31.1411254]}, "properties": {"ref": "100", "tourism": "camp_site", "osm_id": 13048644348}}, {"type": "Feature", "geometry": {"type": "Point", "coordinates": [-89.2438206, 31.1411877]}, "properties": {"ref": "99", "tourism": "camp_site", "osm_id": 13048644349}}, {"type": "Feature", "geometry": {"type": "Point", "coordinates": [-89.2438309, 31.1412428]}, "properties": {"ref": "98", "tourism": "camp_site", "osm_id": 13048644350}}, {"type": "Feature", "geometry": {"type": "Point", "coordinates": [-89.2438386, 31.1412917]}, "properties": {"ref": "97", "tourism": "camp_site", "osm_id": 13048644351}}, {"type": "Feature", "geometry": {"type": "Point", "coordinates": [-89.2438597, 31.1413685]}, "properties": {"ref": "96", "tourism": "camp_site", "osm_id": 13048644352}}, {"type": "Feature", "geometry": {"type": "Point", "coordinates": [-89.2438849, 31.1414511]}, "properties": {"ref": "95", "tourism": "camp_site", "osm_id": 13048644353}}, {"type": "Feature", "geometry": {"type": "Point", "coordinates": [-89.2438935, 31.1414882]}, "properties": {"ref": "94", "tourism": "camp_site", "osm_id": 13048644354}}, {"type": "Feature", "geometry": {"type": "Point", "coordinates": [-89.2439158, 31.1415357]}, "properties": {"ref": "93", "tourism": "camp_site", "osm_id": 13048644355}}, {"type": "Feature", "geometry": {"type": "Point", "coordinates": [-89.2439356, 31.1415826]}, "properties": {"ref": "92", "tourism": "camp_site", "osm_id": 13048644356}}, {"type": "Feature", "geometry": {"type": "Point", "coordinates": [-89.2439539, 31.1416253]}, "properties": {"ref": "91", "tourism": "camp_site", "osm_id": 13048644357}}, {"type": "Feature", "geometry": {"type": "Point", "coordinates": [-89.2439797, 31.1416732]}, "properties": {"ref": "90", "tourism": "camp_site", "osm_id": 13048644358}}, {"type": "Feature", "geometry": {"type": "Point", "coordinates": [-89.2440053, 31.1417217]}, "properties": {"ref": "89", "tourism": "camp_site", "osm_id": 13048644359}}, {"type": "Feature", "geometry": {"type": "Point", "coordinates": [-89.2440287, 31.1417679]}, "properties": {"ref": "88", "tourism": "camp_site", "osm_id": 13048644360}}, {"type": "Feature", "geometry": {"type": "Point", "coordinates": [-89.2440547, 31.1418112]}, "properties": {"ref": "87", "tourism": "camp_site", "osm_id": 13048644361}}, {"type": "Feature", "geometry": {"type": "Point", "coordinates": [-89.2452636, 31.1497914]}, "properties": {"ref": "115", "tourism": "camp_site", "osm_id": 13048644362}}, {"type": "Feature", "geometry": {"type": "Point", "coordinates": [-89.2452926, 31.1496373]}, "properties": {"ref": "118", "tourism": "camp_site", "osm_id": 13048644363}}, {"type": "Feature", "geometry": {"type": "Point", "coordinates": [-89.2451934, 31.1495977]}, "properties": {"ref": "117", "tourism": "camp_site", "osm_id": 13048644364}}, {"type": "Feature", "geometry": {"type": "Point", "coordinates": [-89.2452187, 31.1494826]}, "properties": {"ref": "120", "tourism": "camp_site", "osm_id": 13048644365}}, {"type": "Feature", "geometry": {"type": "Point", "coordinates": [-89.2451418, 31.1493493]}, "properties": {"ref": "122", "tourism": "camp_site", "osm_id": 13048644366}}, {"type": "Feature", "geometry": {"type": "Point", "coordinates": [-89.2450957, 31.1494125]}, "properties": {"ref": "119", "tourism": "camp_site", "osm_id": 13048644367}}, {"type": "Feature", "geometry": {"type": "Point", "coordinates": [-89.2449616, 31.149234]}, "properties": {"ref": "121", "tourism": "camp_site", "osm_id": 13048644368}}, {"type": "Feature", "geometry": {"type": "Point", "coordinates": [-89.2450349, 31.1491419]}, "properties": {"ref": "123", "tourism": "camp_site", "osm_id": 13048644369}}, {"type": "Feature", "geometry": {"type": "Point", "coordinates": [-89.2447059, 31.149196]}, "properties": {"ref": "124", "tourism": "camp_site", "osm_id": 13048644370}}, {"type": "Feature", "geometry": {"type": "Point", "coordinates": [-89.2447221, 31.1492592]}, "properties": {"ref": "125", "tourism": "camp_site", "osm_id": 13048644371}}, {"type": "Feature", "geometry": {"type": "Point", "coordinates": [-89.2454449, 31.1499436]}, "properties": {"ref": "116", "tourism": "camp_site", "osm_id": 13048644372}}, {"type": "Feature", "geometry": {"type": "Point", "coordinates": [-89.2453204, 31.1500437]}, "properties": {"ref": "114", "tourism": "camp_site", "osm_id": 13048644373}}, {"type": "Feature", "geometry": {"type": "Point", "coordinates": [-89.2451666, 31.1501327]}, "properties": {"ref": "112", "tourism": "camp_site", "osm_id": 13048644374}}, {"type": "Feature", "geometry": {"type": "Point", "coordinates": [-89.2452022, 31.1500389]}, "properties": {"ref": "113", "tourism": "camp_site", "osm_id": 13048644375}}, {"type": "Feature", "geometry": {"type": "Point", "coordinates": [-89.2449187, 31.1500151]}, "properties": {"ref": "111", "tourism": "camp_site", "osm_id": 13048644376}}, {"type": "Feature", "geometry": {"type": "Point", "coordinates": [-89.2448067, 31.1497396]}, "properties": {"ref": "110", "tourism": "camp_site", "osm_id": 13048644377}}, {"type": "Feature", "geometry": {"type": "Point", "coordinates": [-89.2447149, 31.1495092]}, "properties": {"ref": "109", "tourism": "camp_site", "osm_id": 13048644378}}, {"type": "Feature", "geometry": {"type": "Point", "coordinates": [-89.2441203, 31.1485333]}, "properties": {"ref": "84", "tourism": "camp_site", "osm_id": 13048644379}}, {"type": "Feature", "geometry": {"type": "Point", "coordinates": [-89.2439982, 31.1484972]}, "properties": {"ref": "85", "tourism": "camp_site", "osm_id": 13048644380}}, {"type": "Feature", "geometry": {"type": "Point", "coordinates": [-89.2439635, 31.1483914]}, "properties": {"ref": "86", "tourism": "camp_site", "osm_id": 13048644381}}, {"type": "Feature", "geometry": {"type": "Point", "coordinates": [-89.244306, 31.1484512]}, "properties": {"ref": "83", "tourism": "camp_site", "osm_id": 13048644382}}, {"type": "Feature", "geometry": {"type": "Point", "coordinates": [-89.2444497, 31.1483591]}, "properties": {"ref": "82", "tourism": "camp_site", "osm_id": 13048644383}}, {"type": "Feature", "geometry": {"type": "Point", "coordinates": [-89.2446243, 31.1482843]}, "properties": {"ref": "81", "tourism": "camp_site", "osm_id": 13048644384}}, {"type": "Feature", "geometry": {"type": "Point", "coordinates": [-89.244753, 31.1482146]}, "properties": {"ref": "80", "tourism": "camp_site", "osm_id": 13048644385}}, {"type": "Feature", "geometry": {"type": "Point", "coordinates": [-89.244995, 31.1480942]}, "properties": {"ref": "79", "tourism": "camp_site", "osm_id": 13048644386}}, {"type": "Feature", "geometry": {"type": "Point", "coordinates": [-89.2452148, 31.1479437]}, "properties": {"ref": "76", "tourism": "camp_site", "osm_id": 13048644387}}, {"type": "Feature", "geometry": {"type": "Point", "coordinates": [-89.2451667, 31.1478545]}, "properties": {"ref": "77", "tourism": "camp_site", "osm_id": 13048644388}}, {"type": "Feature", "geometry": {"type": "Point", "coordinates": [-89.2450918, 31.1479045]}, "properties": {"ref": "78", "tourism": "camp_site", "osm_id": 13048644389}}, {"type": "Feature", "geometry": {"type": "Point", "coordinates": [-89.2454236, 31.1477507]}, "properties": {"ref": "75", "tourism": "camp_site", "osm_id": 13048644390}}, {"type": "Feature", "geometry": {"type": "Point", "coordinates": [-89.245534, 31.1476374]}, "properties": {"ref": "74", "tourism": "camp_site", "osm_id": 13048644391}}, {"type": "Feature", "geometry": {"type": "Point", "coordinates": [-89.2456896, 31.1474825]}, "properties": {"ref": "73", "tourism": "camp_site", "osm_id": 13048644392}}, {"type": "Feature", "geometry": {"type": "Point", "coordinates": [-89.2458021, 31.1473443]}, "properties": {"ref": "72", "tourism": "camp_site", "osm_id": 13048644393}}, {"type": "Feature", "geometry": {"type": "Point", "coordinates": [-89.2459416, 31.1471416]}, "properties": {"ref": "70", "tourism": "camp_site", "osm_id": 13048644394}}, {"type": "Feature", "geometry": {"type": "Point", "coordinates": [-89.246019, 31.1470221]}, "properties": {"ref": "68", "tourism": "camp_site", "osm_id": 13048644395}}, {"type": "Feature", "geometry": {"type": "Point", "coordinates": [-89.245862, 31.1471197]}, "properties": {"ref": "71", "tourism": "camp_site", "osm_id": 13048644396}}, {"type": "Feature", "geometry": {"type": "Point", "coordinates": [-89.2459547, 31.1469603]}, "properties": {"ref": "69", "tourism": "camp_site", "osm_id": 13048644397}}, {"type": "Feature", "geometry": {"type": "Point", "coordinates": [-89.2460947, 31.1467841]}, "properties": {"ref": "67", "tourism": "camp_site", "osm_id": 13048644398}}, {"type": "Feature", "geometry": {"type": "Point", "coordinates": [-89.2462377, 31.1467977]}, "properties": {"ref": "66", "tourism": "camp_site", "osm_id": 13048644399}}, {"type": "Feature", "geometry": {"type": "Point", "coordinates": [-89.2462309, 31.146699]}, "properties": {"ref": "65", "tourism": "camp_site", "osm_id": 13048644400}}, {"type": "Feature", "geometry": {"type": "Point", "coordinates": [-89.2465833, 31.1467637]}, "properties": {"ref": "64", "tourism": "camp_site", "osm_id": 13048653701}}, {"type": "Feature", "geometry": {"type": "Point", "coordinates": [-89.2477938, 31.1470148]}, "properties": {"ref": "56", "tourism": "camp_site", "osm_id": 13048653702}}, {"type": "Feature", "geometry": {"type": "Point", "coordinates": [-89.2480317, 31.14656]}, "properties": {"ref": "63", "tourism": "camp_site", "osm_id": 13048653703}}, {"type": "Feature", "geometry": {"type": "Point", "coordinates": [-89.2478643, 31.1469559]}, "properties": {"ref": "58", "tourism": "camp_site", "osm_id": 13048653704}}, {"type": "Feature", "geometry": {"type": "Point", "coordinates": [-89.247946, 31.1470103]}, "properties": {"ref": "57", "tourism": "camp_site", "osm_id": 13048653705}}, {"type": "Feature", "geometry": {"type": "Point", "coordinates": [-89.2480411, 31.1468636]}, "properties": {"ref": "59", "tourism": "camp_site", "osm_id": 13048653706}}, {"type": "Feature", "geometry": {"type": "Point", "coordinates": [-89.248095, 31.1466429]}, "properties": {"ref": "60", "tourism": "camp_site", "osm_id": 13048653707}}, {"type": "Feature", "geometry": {"type": "Point", "coordinates": [-89.2481192, 31.1463731]}, "properties": {"ref": "62", "tourism": "camp_site", "osm_id": 13048653708}}, {"type": "Feature", "geometry": {"type": "Point", "coordinates": [-89.2474032, 31.1454564]}, "properties": {"ref": "43", "tourism": "camp_site", "osm_id": 13048653709}}, {"type": "Feature", "geometry": {"type": "Point", "coordinates": [-89.2473163, 31.1454498]}, "properties": {"ref": "48", "tourism": "camp_site", "osm_id": 13048653710}}, {"type": "Feature", "geometry": {"type": "Point", "coordinates": [-89.2474182, 31.1456162]}, "properties": {"ref": "50", "tourism": "camp_site", "osm_id": 13048653711}}, {"type": "Feature", "geometry": {"type": "Point", "coordinates": [-89.2475162, 31.1456362]}, "properties": {"ref": "45", "tourism": "camp_site", "osm_id": 13048653712}}, {"type": "Feature", "geometry": {"type": "Point", "coordinates": [-89.2476241, 31.1458012]}, "properties": {"ref": "47", "tourism": "camp_site", "osm_id": 13048653713}}, {"type": "Feature", "geometry": {"type": "Point", "coordinates": [-89.2477131, 31.1460445]}, "properties": {"ref": "53", "tourism": "camp_site", "osm_id": 13048653714}}, {"type": "Feature", "geometry": {"type": "Point", "coordinates": [-89.2477816, 31.145979]}, "properties": {"ref": "49", "tourism": "camp_site", "osm_id": 13048653715}}, {"type": "Feature", "geometry": {"type": "Point", "coordinates": [-89.2475441, 31.1458317]}, "properties": {"ref": "51", "tourism": "camp_site", "osm_id": 13048653716}}, {"type": "Feature", "geometry": {"type": "Point", "coordinates": [-89.2473685, 31.1450887]}, "properties": {"ref": "44", "tourism": "camp_site", "osm_id": 13048653717}}, {"type": "Feature", "geometry": {"type": "Point", "coordinates": [-89.2475543, 31.1450591]}, "properties": {"ref": "42", "tourism": "camp_site", "osm_id": 13048653718}}, {"type": "Feature", "geometry": {"type": "Point", "coordinates": [-89.247584, 31.1451318]}, "properties": {"ref": "39", "tourism": "camp_site", "osm_id": 13048653719}}, {"type": "Feature", "geometry": {"type": "Point", "coordinates": [-89.2473554, 31.1452941]}, "properties": {"ref": "41", "tourism": "camp_site", "osm_id": 13048653720}}, {"type": "Feature", "geometry": {"type": "Point", "coordinates": [-89.2472813, 31.1452624]}, "properties": {"ref": "46", "tourism": "camp_site", "osm_id": 13048653721}}, {"type": "Feature", "geometry": {"type": "Point", "coordinates": [-89.2477132, 31.1450905]}, "properties": {"ref": "40", "tourism": "camp_site", "osm_id": 13048653722}}, {"type": "Feature", "geometry": {"type": "Point", "coordinates": [-89.247731, 31.1452345]}, "properties": {"ref": "37", "tourism": "camp_site", "osm_id": 13048653723}}, {"type": "Feature", "geometry": {"type": "Point", "coordinates": [-89.2478412, 31.145232]}, "properties": {"ref": "38", "tourism": "camp_site", "osm_id": 13048653724}}, {"type": "Feature", "geometry": {"type": "Point", "coordinates": [-89.2478512, 31.1453781]}, "properties": {"ref": "35", "tourism": "camp_site", "osm_id": 13048653725}}, {"type": "Feature", "geometry": {"type": "Point", "coordinates": [-89.2479231, 31.1453623]}, "properties": {"ref": "36", "tourism": "camp_site", "osm_id": 13048653726}}, {"type": "Feature", "geometry": {"type": "Point", "coordinates": [-89.2480247, 31.145563]}, "properties": {"ref": "34", "tourism": "camp_site", "osm_id": 13048653727}}, {"type": "Feature", "geometry": {"type": "Point", "coordinates": [-89.2479537, 31.1456105]}, "properties": {"ref": "33", "tourism": "camp_site", "osm_id": 13048653728}}, {"type": "Feature", "geometry": {"type": "Point", "coordinates": [-89.2480728, 31.1457301]}, "properties": {"ref": "32", "tourism": "camp_site", "osm_id": 13048653729}}, {"type": "Feature", "geometry": {"type": "Point", "coordinates": [-89.2479983, 31.1457854]}, "properties": {"ref": "31", "tourism": "camp_site", "osm_id": 13048653730}}, {"type": "Feature", "geometry": {"type": "Point", "coordinates": [-89.2481298, 31.145946]}, "properties": {"ref": "30", "tourism": "camp_site", "osm_id": 13048653731}}, {"type": "Feature", "geometry": {"type": "Point", "coordinates": [-89.2458014, 31.1440435]}, "properties": {"ref": "12", "tourism": "camp_site", "osm_id": 13048653732}}, {"type": "Feature", "geometry": {"type": "Point", "coordinates": [-89.2457889, 31.1442321]}, "properties": {"ref": "13", "tourism": "camp_site", "osm_id": 13048653733}}, {"type": "Feature", "geometry": {"type": "Point", "coordinates": [-89.2458179, 31.1446847]}, "properties": {"ref": "14", "tourism": "camp_site", "osm_id": 13048653734}}, {"type": "Feature", "geometry": {"type": "Point", "coordinates": [-89.2461909, 31.1446132]}, "properties": {"ref": "20", "tourism": "camp_site", "osm_id": 13048653735}}, {"type": "Feature", "geometry": {"type": "Point", "coordinates": [-89.2461633, 31.1447147]}, "properties": {"ref": "19", "tourism": "camp_site", "osm_id": 13048653736}}, {"type": "Feature", "geometry": {"type": "Point", "coordinates": [-89.2459854, 31.1448702]}, "properties": {"ref": "18", "tourism": "camp_site", "osm_id": 13048653737}}, {"type": "Feature", "geometry": {"type": "Point", "coordinates": [-89.2458211, 31.1449801]}, "properties": {"ref": "17", "tourism": "camp_site", "osm_id": 13048653738}}, {"type": "Feature", "geometry": {"type": "Point", "coordinates": [-89.2457045, 31.1449585]}, "properties": {"ref": "16", "tourism": "camp_site", "osm_id": 13048653739}}, {"type": "Feature", "geometry": {"type": "Point", "coordinates": [-89.2456666, 31.1448742]}, "properties": {"ref": "15", "tourism": "camp_site", "osm_id": 13048653740}}, {"type": "Feature", "geometry": {"type": "Point", "coordinates": [-89.2459556, 31.1435785]}, "properties": {"ref": "8", "tourism": "camp_site", "osm_id": 13048653741}}, {"type": "Feature", "geometry": {"type": "Point", "coordinates": [-89.2460734, 31.1433691]}, "properties": {"ref": "6", "tourism": "camp_site", "osm_id": 13048653742}}, {"type": "Feature", "geometry": {"type": "Point", "coordinates": [-89.2462317, 31.1431304]}, "properties": {"ref": "4", "tourism": "camp_site", "osm_id": 13048653743}}, {"type": "Feature", "geometry": {"type": "Point", "coordinates": [-89.2463599, 31.144573]}, "properties": {"ref": "21", "tourism": "camp_site", "osm_id": 13048653744}}, {"type": "Feature", "geometry": {"type": "Point", "coordinates": [-89.2468775, 31.1443714]}, "properties": {"ref": "22", "tourism": "camp_site", "osm_id": 13048653745}}, {"type": "Feature", "geometry": {"type": "Point", "coordinates": [-89.2470148, 31.1441364]}, "properties": {"ref": "24", "tourism": "camp_site", "osm_id": 13048653746}}, {"type": "Feature", "geometry": {"type": "Point", "coordinates": [-89.2470106, 31.1442587]}, "properties": {"ref": "23", "tourism": "camp_site", "osm_id": 13048653747}}, {"type": "Feature", "geometry": {"type": "Point", "coordinates": [-89.2469228, 31.1439371]}, "properties": {"ref": "25", "tourism": "camp_site", "osm_id": 13048653748}}, {"type": "Feature", "geometry": {"type": "Point", "coordinates": [-89.2467795, 31.1438699]}, "properties": {"ref": "29", "tourism": "camp_site", "osm_id": 13048653749}}, {"type": "Feature", "geometry": {"type": "Point", "coordinates": [-89.2466664, 31.1442288]}, "properties": {"ref": "28", "tourism": "camp_site", "osm_id": 13048653750}}, {"type": "Feature", "geometry": {"type": "Point", "coordinates": [-89.2461662, 31.1443781]}, "properties": {"ref": "26", "tourism": "camp_site", "osm_id": 13048653751}}, {"type": "Feature", "geometry": {"type": "Point", "coordinates": [-89.2464163, 31.1443168]}, "properties": {"ref": "27", "tourism": "camp_site", "osm_id": 13048653752}}, {"type": "Feature", "geometry": {"type": "Point", "coordinates": [-89.2458244, 31.1436135]}, "properties": {"ref": "9", "tourism": "camp_site", "osm_id": 13048653753}}, {"type": "Feature", "geometry": {"type": "Point", "coordinates": [-89.2458907, 31.1437311]}, "properties": {"ref": "10", "tourism": "camp_site", "osm_id": 13048653754}}, {"type": "Feature", "geometry": {"type": "Point", "coordinates": [-89.2457497, 31.1437904]}, "properties": {"ref": "11", "tourism": "camp_site", "osm_id": 13048653755}}, {"type": "Feature", "geometry": {"type": "Point", "coordinates": [-89.2461824, 31.1430316]}, "properties": {"ref": "3", "tourism": "camp_site", "osm_id": 13048653756}}, {"type": "Feature", "geometry": {"type": "Point", "coordinates": [-89.2466998, 31.1430284]}, "properties": {"ref": "1", "tourism": "camp_site", "osm_id": 13048653757}}, {"type": "Feature", "geometry": {"type": "Point", "coordinates": [-89.2463791, 31.1428734]}, "properties": {"ref": "2", "tourism": "camp_site", "osm_id": 13048653758}}, {"type": "Feature", "geometry": {"type": "Point", "coordinates": [-89.2459596, 31.1434073]}, "properties": {"ref": "7", "tourism": "camp_site", "osm_id": 13048653759}}, {"type": "Feature", "geometry": {"type": "Point", "coordinates": [-89.2464027, 31.148988]}, "properties": {"cabins": "no", "caravans": "no", "motorhome": "no", "ref": "10;5", "tents": "yes", "tourism": "camp_site", "osm_id": 13048662314}}, {"type": "Feature", "geometry": {"type": "Point", "coordinates": [-89.2462775, 31.1490524]}, "properties": {"cabins": "no", "caravans": "no", "motorhome": "no", "ref": "9", "tents": "yes", "tourism": "camp_site", "osm_id": 13048662315}}, {"type": "Feature", "geometry": {"type": "Point", "coordinates": [-89.2461774, 31.1491356]}, "properties": {"cabins": "no", "caravans": "no", "motorhome": "no", "ref": "8", "tents": "yes", "tourism": "camp_site", "osm_id": 13048662316}}, {"type": "Feature", "geometry": {"type": "Point", "coordinates": [-89.2460672, 31.149228]}, "properties": {"cabins": "no", "caravans": "no", "motorhome": "no", "ref": "7", "tents": "yes", "tourism": "camp_site", "osm_id": 13048662317}}, {"type": "Feature", "geometry": {"type": "Point", "coordinates": [-89.245968, 31.1493289]}, "properties": {"cabins": "no", "caravans": "no", "motorhome": "no", "ref": "6", "tents": "yes", "tourism": "camp_site", "osm_id": 13048662318}}, {"type": "Feature", "geometry": {"type": "Point", "coordinates": [-89.2463859, 31.1492865]}, "properties": {"cabins": "no", "caravans": "no", "motorhome": "no", "ref": "14", "tents": "yes", "tourism": "camp_site", "osm_id": 13048662319}}, {"type": "Feature", "geometry": {"type": "Point", "coordinates": [-89.2463055, 31.1493792]}, "properties": {"cabins": "no", "caravans": "no", "motorhome": "no", "ref": "13", "tents": "yes", "tourism": "camp_site", "osm_id": 13048662320}}, {"type": "Feature", "geometry": {"type": "Point", "coordinates": [-89.2462314, 31.1494541]}, "properties": {"cabins": "no", "caravans": "no", "motorhome": "no", "ref": "12", "tents": "yes", "tourism": "camp_site", "osm_id": 13048662321}}, {"type": "Feature", "geometry": {"type": "Point", "coordinates": [-89.2461501, 31.1495273]}, "properties": {"cabins": "no", "caravans": "no", "motorhome": "no", "ref": "11", "tents": "yes", "tourism": "camp_site", "osm_id": 13048662322}}, {"type": "Feature", "geometry": {"type": "Point", "coordinates": [-89.2460908, 31.1489857]}, "properties": {"cabins": "no", "caravans": "no", "motorhome": "no", "ref": "4", "tents": "yes", "tourism": "camp_site", "osm_id": 13048662324}}, {"type": "Feature", "geometry": {"type": "Point", "coordinates": [-89.2459938, 31.1490532]}, "properties": {"cabins": "no", "caravans": "no", "motorhome": "no", "ref": "3", "tents": "yes", "tourism": "camp_site", "osm_id": 13048662325}}, {"type": "Feature", "geometry": {"type": "Point", "coordinates": [-89.2459086, 31.1490908]}, "properties": {"cabins": "no", "caravans": "no", "motorhome": "no", "ref": "2", "tents": "yes", "tourism": "camp_site", "osm_id": 13048662326}}, {"type": "Feature", "geometry": {"type": "Point", "coordinates": [-89.245818, 31.149155]}, "properties": {"cabins": "no", "caravans": "no", "motorhome": "no", "ref": "1", "tents": "yes", "tourism": "camp_site", "osm_id": 13048662327}}, {"type": "Feature", "geometry": {"type": "Point", "coordinates": [-89.1256718, 30.5819327]}, "properties": {"tourism": "caravan_site", "osm_id": 13156775391}}, {"type": "Feature", "geometry": {"type": "Point", "coordinates": [-89.0248027, 30.4018717]}, "properties": {"tourism": "caravan_site", "osm_id": 13156936424}}, {"type": "Feature", "geometry": {"type": "Point", "coordinates": [-89.1041894, 30.3833256]}, "properties": {"tourism": "caravan_site", "osm_id": 13156936588}}, {"type": "Feature", "geometry": {"type": "Point", "coordinates": [-90.1037607, 29.8853951]}, "properties": {"tourism": "caravan_site", "osm_id": 13241077475}}, {"type": "Feature", "geometry": {"type": "Point", "coordinates": [-93.9654954, 30.1314824]}, "properties": {"tourism": "caravan_site", "osm_id": 13324985331}}, {"type": "Feature", "geometry": {"type": "Point", "coordinates": [-93.9465449, 29.9124046]}, "properties": {"tourism": "caravan_site", "osm_id": 13324985500}}, {"type": "Feature", "geometry": {"type": "Point", "coordinates": [-93.9339298, 29.9007941]}, "properties": {"tourism": "caravan_site", "osm_id": 13324985501}}, {"type": "Feature", "geometry": {"type": "Point", "coordinates": [-93.1933166, 31.4930702]}, "properties": {"access": "yes", "camp_site": "standard", "name": "Dogwood Camp", "tourism": "camp_site", "osm_id": 13342682687}}, {"type": "Feature", "geometry": {"type": "Point", "coordinates": [-91.2843721, 30.3205732]}, "properties": {"tourism": "caravan_site", "osm_id": 13343341774}}, {"type": "Feature", "geometry": {"type": "Point", "coordinates": [-93.3763045, 30.1729129]}, "properties": {"addr:city": "Sulphur", "addr:housenumber": "5106", "addr:postcode": "70665", "addr:state": "LA", "addr:street": "Highway 27 South", "capacity:caravans": "60", "name": "South Park RV Park", "phone": "+1-337-215-2775", "power_supply": "yes", "tourism": "caravan_site", "osm_id": 13398777384}}, {"type": "Feature", "geometry": {"type": "Point", "coordinates": [-93.1060021, 31.1762234]}, "properties": {"tourism": "caravan_site", "osm_id": 13448905646}}, {"type": "Feature", "geometry": {"type": "Point", "coordinates": [-93.2837352, 30.9426782]}, "properties": {"tourism": "caravan_site", "osm_id": 13448905954}}, {"type": "Feature", "geometry": {"type": "Point", "coordinates": [-90.4911625, 29.8105776]}, "properties": {"NHD:ComID": "143853409", "NHD:FCode": "46600", "NHD:FDate": "2005/12/05", "NHD:FTYPE": "SwampMarsh", "NHD:RESOLUTION": "High", "name": "Cajun On The Bayou", "source": "NHD", "tourism": "caravan_site", "osm_id": 43831697}}, {"type": "Feature", "geometry": {"type": "Point", "coordinates": [-90.1638009, 29.8877972]}, "properties": {"caravans": "yes", "drinking_water": "yes", "fee": "yes", "internet_access": "wlan", "name": "Bayou Segnette State Park Campground", "phone": "+1-833-609-0686", "power_supply": "yes", "tents": "yes", "tourism": "camp_site", "website": "http://reservelastateparks.com", "osm_id": 119486210}}, {"type": "Feature", "geometry": {"type": "Point", "coordinates": [-90.1628975, 29.892696]}, "properties": {"name": "Group Camping Area", "tourism": "camp_site", "osm_id": 119487772}}, {"type": "Feature", "geometry": {"type": "Point", "coordinates": [-93.5294503, 32.5542039]}, "properties": {"landuse": "recreation_ground", "name": "Hiltop Campgrounds", "phone": "+1-318-949-8486", "tourism": "camp_site", "osm_id": 372105458}}, {"type": "Feature", "geometry": {"type": "Point", "coordinates": [-89.7273963, 32.6310304]}, "properties": {"source": "bing;USGS", "tourism": "caravan_site", "osm_id": 442398226}}, {"type": "Feature", "geometry": {"type": "Point", "coordinates": [-92.1103298, 30.245395]}, "properties": {"addr:city": "Scott", "addr:housenumber": "537", "addr:place": "KOA Lafayette", "addr:postcode": "70583", "addr:state": "LA", "addr:street": "Apollo Road", "alt_name": "KOA Campground", "brand": "KOA", "brand:wikidata": "Q16988635", "name": "Lafayette KOA", "phone": "+1 337-235-2739", "short_name": "KOA", "tourism": "caravan_site", "osm_id": 482118355}}, {"type": "Feature", "geometry": {"type": "Point", "coordinates": [-90.0388806, 30.3404628]}, "properties": {"internet_access": "yes", "internet_access:fee": "no", "name": "Fontainebleau Campground", "operator": "Fontainebleau State Park", "sanitary_dump_station": "customers", "stars": "4", "tourism": "camp_site", "wheelchair": "yes", "osm_id": 482565876}}, {"type": "Feature", "geometry": {"type": "Point", "coordinates": [-91.4913196, 32.4823332]}, "properties": {"name": "Poverty Point Reservoir State Park Campground", "tourism": "camp_site", "osm_id": 489054238}}, {"type": "Feature", "geometry": {"type": "Point", "coordinates": [-93.0153139, 30.2477978]}, "properties": {"tourism": "caravan_site", "osm_id": 513349773}}, {"type": "Feature", "geometry": {"type": "Point", "coordinates": [-93.3358803, 32.5922078]}, "properties": {"name": "Hallmark Village", "tourism": "caravan_site", "osm_id": 552248053}}, {"type": "Feature", "geometry": {"type": "Point", "coordinates": [-93.335006, 32.5930905]}, "properties": {"tourism": "caravan_site", "osm_id": 552489390}}, {"type": "Feature", "geometry": {"type": "Point", "coordinates": [-93.3238069, 32.6014609]}, "properties": {"name": "Lakeside RV Park", "tourism": "caravan_site", "osm_id": 552489443}}, {"type": "Feature", "geometry": {"type": "Point", "coordinates": [-93.2301324, 32.6465288]}, "properties": {"tourism": "caravan_site", "osm_id": 556132419}}, {"type": "Feature", "geometry": {"type": "Point", "coordinates": [-92.6971918, 31.4934199]}, "properties": {"name": "Louisiana Mudfest", "tourism": "caravan_site", "osm_id": 564134734}}, {"type": "Feature", "geometry": {"type": "Point", "coordinates": [-91.8469308, 29.9710399]}, "properties": {"tourism": "caravan_site", "osm_id": 575619733}}, {"type": "Feature", "geometry": {"type": "Point", "coordinates": [-93.8788655, 32.4437017]}, "properties": {"landuse": "recreation_ground", "name": "Shreveport/Bossier City KOA", "tourism": "caravan_site", "osm_id": 611875248}}, {"type": "Feature", "geometry": {"type": "Point", "coordinates": [-89.146492, 31.3607334]}, "properties": {"addr:city": "Petal", "addr:housenumber": "1870", "addr:postcode": "39465", "addr:state": "MS", "addr:street": "MS 42", "contact:website": "https://www.wagonwheelms.com/", "landuse": "commercial", "name": "Wagon Wheel Motel & RV Park", "opening_hours": "24/7", "payment:american_express": "yes", "payment:cash": "yes", "payment:discover_card": "yes", "payment:mastercard": "yes", "payment:visa": "yes", "phone": "+1-601-582-8477", "tourism": "motel;caravan_site", "website": "https://www.wagonwheelms.com/", "osm_id": 621310697}}, {"type": "Feature", "geometry": {"type": "Point", "coordinates": [-90.3492059, 30.5212915]}, "properties": {"leisure": "park", "name": "Yogi bear Jellystone Park Campground", "tourism": "camp_site", "osm_id": 627645500}}, {"type": "Feature", "geometry": {"type": "Point", "coordinates": [-91.8234649, 29.9579886]}, "properties": {"addr:city": "New Iberia", "addr:housenumber": "3004", "addr:postcode": "70560", "addr:state": "LA", "addr:street": "Weeks Island Road", "name": "Chase's RV Park", "phone": "+1-337-365-9865", "tourism": "caravan_site", "osm_id": 630293789}}, {"type": "Feature", "geometry": {"type": "Point", "coordinates": [-91.8584413, 30.0236721]}, "properties": {"name": "Isle of Iberia", "phone": "+1 337-256-8681", "tourism": "caravan_site", "website": "http://www.cajunrvera.com/", "osm_id": 630293813}}, {"type": "Feature", "geometry": {"type": "Point", "coordinates": [-92.5512868, 30.0826791]}, "properties": {"name": "Riceville Campground", "tourism": "camp_site", "osm_id": 642337709}}, {"type": "Feature", "geometry": {"type": "Point", "coordinates": [-92.7825816, 31.9008572]}, "properties": {"access": "yes", "fee": "yes", "internet_access": "no", "name": "Gum Springs Horse Campground", "tourism": "camp_site", "osm_id": 663655441}}, {"type": "Feature", "geometry": {"type": "Point", "coordinates": [-92.9006524, 31.9942584]}, "properties": {"access": "yes", "capacity": "15", "fee": "no", "internet_access": "no", "name": "Test Site 420", "operator": "SunFox LLC.", "tourism": "camp_site", "osm_id": 680229182}}, {"type": "Feature", "geometry": {"type": "Point", "coordinates": [-92.8966116, 31.9880508]}, "properties": {"name": "Antler point Camsite", "tourism": "camp_site", "osm_id": 680266700}}, {"type": "Feature", "geometry": {"type": "Point", "coordinates": [-92.7787471, 31.8978108]}, "properties": {"tourism": "camp_site", "osm_id": 681877042}}, {"type": "Feature", "geometry": {"type": "Point", "coordinates": [-91.216144, 31.5968909]}, "properties": {"caravans": "yes", "charge": "24 USD", "drinking_water": "yes", "fee": "yes", "name": "Natchez State Park Campground", "phone": "+1-601-442-2658", "power_supply": "yes", "shower": "yes", "tents": "yes", "tourism": "camp_site", "osm_id": 683740031}}, {"type": "Feature", "geometry": {"type": "Point", "coordinates": [-90.7987545, 32.0888961]}, "properties": {"capacity": "22", "caravans": "yes", "drinking_water": "yes", "name": "Rocky Springs Campground, milepost 54.8", "operator": "National Park Service", "phone": "+1-800-305-7417", "power_supply": "no", "tents": "yes", "toilets": "yes", "tourism": "camp_site", "osm_id": 683746121}}, {"type": "Feature", "geometry": {"type": "Point", "coordinates": [-93.1490367, 30.2805679]}, "properties": {"addr:city": "Lake Charles", "addr:housenumber": "4200", "addr:postcode": "70615", "addr:street": "Luke Powers Rd.", "landuse": "trailer_park", "name": "Little Lake Charles RV Resort", "tourism": "caravan_site", "osm_id": 686206716}}, {"type": "Feature", "geometry": {"type": "Point", "coordinates": [-89.7900293, 29.7680329]}, "properties": {"tourism": "caravan_site", "osm_id": 704392979}}, {"type": "Feature", "geometry": {"type": "Point", "coordinates": [-93.7245395, 32.5107631]}, "properties": {"capacity": "32", "name": "Diamond Jacks RV Park", "power_supply": "yes", "tourism": "caravan_site", "osm_id": 705658148}}, {"type": "Feature", "geometry": {"type": "Point", "coordinates": [-92.3206366, 30.4276681]}, "properties": {"internet_access": "wlan", "power_supply": "yes", "sanitary_dump_station": "yes", "tourism": "caravan_site", "osm_id": 744175012}}, {"type": "Feature", "geometry": {"type": "Point", "coordinates": [-90.2344854, 29.9713888]}, "properties": {"alt_name": "KOA Campground", "brand": "KOA", "brand:wikidata": "Q16988635", "name": "KOA Kampground", "short_name": "KOA", "tourism": "caravan_site", "osm_id": 802013064}}, {"type": "Feature", "geometry": {"type": "Point", "coordinates": [-91.7134622, 30.5150766]}, "properties": {"tourism": "camp_site", "osm_id": 807272613}}, {"type": "Feature", "geometry": {"type": "Point", "coordinates": [-91.7303386, 30.457702]}, "properties": {"tourism": "camp_site", "osm_id": 807276268}}, {"type": "Feature", "geometry": {"type": "Point", "coordinates": [-90.9900548, 30.3374288]}, "properties": {"addr:city": "Prairieville", "addr:housenumber": "17867", "addr:postcode": "70769", "addr:state": "LA", "addr:street": "Airline Highway", "tourism": "caravan_site", "osm_id": 830542747}}, {"type": "Feature", "geometry": {"type": "Point", "coordinates": [-92.0326277, 32.4897063]}, "properties": {"tourism": "caravan_site", "osm_id": 833680691}}, {"type": "Feature", "geometry": {"type": "Point", "coordinates": [-90.9622527, 30.4474395]}, "properties": {"addr:city": "Denham Springs", "addr:housenumber": "7628", "addr:postcode": "70726", "addr:state": "LA", "addr:street": "Vincent Road", "brand": "KOA", "brand:wikidata": "Q16988635", "internet_access": "wlan", "name": "Baton Rouge KOA Holiday", "phone": "+1 225 664 7281", "short_name": "KOA", "tourism": "caravan_site", "osm_id": 864835014}}, {"type": "Feature", "geometry": {"type": "Point", "coordinates": [-91.1366306, 30.4165048]}, "properties": {"addr:housenumber": "3145", "addr:street": "Old Forge Drive", "operator": "College Drive Mini Storage", "phone": "+1-225-927-6111", "tourism": "caravan_site", "osm_id": 881006552}}, {"type": "Feature", "geometry": {"type": "Point", "coordinates": [-89.3698698, 31.4104734]}, "properties": {"operator": "Pep's Point Water Park", "tourism": "caravan_site", "osm_id": 888511183}}, {"type": "Feature", "geometry": {"type": "Point", "coordinates": [-89.407433, 31.4197224]}, "properties": {"addr:housenumber": "7836", "addr:street": "US 49", "name": "Shady Cove RV Park", "phone": "+1-601-268-1077", "tourism": "caravan_site", "osm_id": 900479173}}, {"type": "Feature", "geometry": {"type": "Point", "coordinates": [-90.9634359, 32.0142507]}, "properties": {"addr:city": "Port Gibson", "addr:housenumber": "1125", "addr:postcode": "39150", "addr:state": "MS", "addr:street": "Grand-Gulf Road", "tourism": "caravan_site", "osm_id": 900764908}}, {"type": "Feature", "geometry": {"type": "Point", "coordinates": [-90.1387118, 30.5763963]}, "properties": {"name": "Land-O-Pines Family Campground", "tourism": "camp_site", "osm_id": 923176354}}, {"type": "Feature", "geometry": {"type": "Point", "coordinates": [-89.7587868, 30.2393642]}, "properties": {"name": "Pine Crest RV Park and Campground", "tourism": "caravan_site", "osm_id": 923181487}}, {"type": "Feature", "geometry": {"type": "Point", "coordinates": [-89.3404451, 31.6877893]}, "properties": {"addr:city": "Soso", "addr:housenumber": "2", "addr:postcode": "39480", "addr:state": "MS", "addr:street": "Big Creek Water Park", "alt_name": "Big Creek Water Park", "amenity": "camping", "contact:website": "http://www.phwd.net/big/big.html", "fee": "yes", "name": "Big Creek", "opening_hours": "closed", "operator": "Pat Harrison Waterway District", "phone": "+1 601-763-8555", "tourism": "camp_site", "website": "http://www.phwd.net/big/big.html", "osm_id": 927267658}}, {"type": "Feature", "geometry": {"type": "Point", "coordinates": [-89.9260443, 32.5030944]}, "properties": {"addr:city": "Brandon", "addr:housenumber": "4248", "addr:postcode": "39047", "addr:state": "MS", "addr:street": "Hwy 43 North", "charge": "28 USD", "fee": "yes", "laundry_service": "coin", "name": "Goshen Springs Campground", "phone": "+1-877-829-2751", "reservation": "yes", "tourism": "camp_site", "osm_id": 928978551}}, {"type": "Feature", "geometry": {"type": "Point", "coordinates": [-93.0210245, 30.2307368]}, "properties": {"name": "Blue Heron RV Park", "tourism": "caravan_site", "osm_id": 930379342}}, {"type": "Feature", "geometry": {"type": "Point", "coordinates": [-93.6166478, 32.510243]}, "properties": {"addr:city": "Barksdale Air Force Base", "addr:housenumber": "6341", "addr:postcode": "71110", "addr:state": "LA", "addr:street": "Range Road", "caravans": "yes", "fee": "yes", "name": "Fam Camp", "payment:cash": "yes", "payment:credit_cards": "yes", "payment:debit_cards": "yes", "shower": "yes", "static_caravans": "yes", "tourism": "camp_site", "osm_id": 979391001}}, {"type": "Feature", "geometry": {"type": "Point", "coordinates": [-92.4711195, 31.1198556]}, "properties": {"access": "yes", "name": "Indian Creek Recreation Area", "operator": "Louisiana Department of Wildlife and Fisheries", "tourism": "camp_site", "osm_id": 984087704}}, {"type": "Feature", "geometry": {"type": "Point", "coordinates": [-91.3033676, 30.8034321]}, "properties": {"addr:city": "St Francisville", "addr:housenumber": "11907", "addr:state": "LA", "addr:street": "LA 965", "amenity": "public_bath", "amenity_1": "laundry", "capacity": "42", "internet_access": "wlan", "internet_access:fee": "customers", "name": "Peaceful Pines RV Park", "phone": "+1 225-635-4903", "power_supply": "yes", "reservation": "required", "sanitary_dump_station": "yes", "tourism": "caravan_site", "website": "https://www.peacefulpinesrvpark.com/", "osm_id": 991053122}}, {"type": "Feature", "geometry": {"type": "Point", "coordinates": [-89.1338289, 30.7935909]}, "properties": {"name": "Perk Beach RV Park", "tourism": "caravan_site", "osm_id": 997253354}}, {"type": "Feature", "geometry": {"type": "Point", "coordinates": [-90.5356458, 30.4804041]}, "properties": {"addr:city": "Hammond", "addr:housenumber": "43037", "addr:postcode": "70403", "addr:state": "LA", "addr:street": "N Billville Rd", "name": "Punkin Lakeside RV park", "tourism": "caravan_site", "osm_id": 1032771718}}, {"type": "Feature", "geometry": {"type": "Point", "coordinates": [-91.8453759, 32.9083818]}, "properties": {"tourism": "camp_site", "osm_id": 1067918419}}, {"type": "Feature", "geometry": {"type": "Point", "coordinates": [-90.7036123, 29.4043063]}, "properties": {"tourism": "caravan_site", "osm_id": 1072444337}}, {"type": "Feature", "geometry": {"type": "Point", "coordinates": [-90.7163484, 29.3804711]}, "properties": {"tourism": "caravan_site", "osm_id": 1072444741}}, {"type": "Feature", "geometry": {"type": "Point", "coordinates": [-90.732042, 29.3528682]}, "properties": {"tourism": "caravan_site", "osm_id": 1072444823}}, {"type": "Feature", "geometry": {"type": "Point", "coordinates": [-90.327898, 29.4673167]}, "properties": {"name": "Southern Marsh RV Park", "tourism": "caravan_site", "osm_id": 1072530041}}, {"type": "Feature", "geometry": {"type": "Point", "coordinates": [-89.1502194, 32.7600634]}, "properties": {"tourism": "caravan_site", "osm_id": 1076332941}}, {"type": "Feature", "geometry": {"type": "Point", "coordinates": [-91.4947868, 32.4368732]}, "properties": {"tourism": "caravan_site", "osm_id": 1087333157}}, {"type": "Feature", "geometry": {"type": "Point", "coordinates": [-89.1341477, 30.7904861]}, "properties": {"tourism": "caravan_site", "osm_id": 1107193378}}, {"type": "Feature", "geometry": {"type": "Point", "coordinates": [-93.6789092, 30.1995345]}, "properties": {"name": "Nibletts Park", "tourism": "caravan_site", "osm_id": 1118302504}}, {"type": "Feature", "geometry": {"type": "Point", "coordinates": [-89.9161893, 32.5072655]}, "properties": {"access": "private", "club": "outdoor", "name": "Cane Creek Outdoor CLub", "tourism": "caravan_site", "osm_id": 1184085801}}, {"type": "Feature", "geometry": {"type": "Point", "coordinates": [-89.9337459, 32.505296]}, "properties": {"name": "Sunset RV Park", "tourism": "camp_site", "osm_id": 1184086303}}, {"type": "Feature", "geometry": {"type": "Point", "coordinates": [-90.9212917, 32.2382687]}, "properties": {"name": "Rivertown Rose Campground", "tourism": "camp_site", "osm_id": 1184372114}}, {"type": "Feature", "geometry": {"type": "Point", "coordinates": [-90.8958602, 32.2998638]}, "properties": {"name": "Quilly's Magnolia RV Park", "tourism": "caravan_site", "osm_id": 1184372758}}, {"type": "Feature", "geometry": {"type": "Point", "coordinates": [-90.8957074, 32.3153837]}, "properties": {"addr:city": "Vicksburg", "addr:housenumber": "725", "addr:postcode": "39183", "addr:state": "MS", "addr:street": "Lucy Bryson Street", "name": "Ameristar RV Park", "tourism": "caravan_site", "osm_id": 1184374213}}, {"type": "Feature", "geometry": {"type": "Point", "coordinates": [-90.6282668, 32.3685484]}, "properties": {"name": "Askew's Landing RV Campground", "tourism": "camp_site", "osm_id": 1184551546}}, {"type": "Feature", "geometry": {"type": "Point", "coordinates": [-89.3148206, 31.1903083]}, "properties": {"addr:city": "Hattiesburg", "addr:country": "US", "addr:housenumber": "67", "addr:postcode": "39401", "addr:state": "MS", "addr:street": "Lomas Road", "cabins": "yes", "capacity:cabins": "6", "contact:website": "https://www.mselks.com/elks-camp", "group_only": "yes", "name": "Mississippi Elks Camp", "operator": "Elks Lodge", "tourism": "camp_site", "osm_id": 1184855391}}, {"type": "Feature", "geometry": {"type": "Point", "coordinates": [-91.2859984, 31.5733485]}, "properties": {"addr:city": "Natchez", "addr:housenumber": "91", "addr:postcode": "39120", "addr:state": "MS", "addr:street": "Old U.S. 84", "addr:unit": "1", "name": "Lee Estates RV Park", "opening_hours": "Mo-Su 09:00-17:00", "phone": "+1-601-431-4424", "tourism": "caravan_site", "website": "https://www.leervpark.com/", "osm_id": 1186108452}}, {"type": "Feature", "geometry": {"type": "Point", "coordinates": [-90.0837202, 32.6090448]}, "properties": {"name": "Movietown RV Park", "tourism": "caravan_site", "osm_id": 1187716215}}, {"type": "Feature", "geometry": {"type": "Point", "coordinates": [-90.0776578, 32.5900177]}, "properties": {"tourism": "caravan_site", "osm_id": 1187716825}}, {"type": "Feature", "geometry": {"type": "Point", "coordinates": [-90.450204, 30.0451648]}, "properties": {"tourism": "caravan_site", "osm_id": 1192959014}}, {"type": "Feature", "geometry": {"type": "Point", "coordinates": [-92.4106897, 31.4650415]}, "properties": {"tourism": "caravan_site", "osm_id": 1208655756}}, {"type": "Feature", "geometry": {"type": "Point", "coordinates": [-93.340108, 32.5946282]}, "properties": {"name": "Cinnamon Creek RV Park", "tourism": "caravan_site", "osm_id": 1223837944}}, {"type": "Feature", "geometry": {"type": "Point", "coordinates": [-93.2573684, 30.2930543]}, "properties": {"access": "yes", "capacity:caravans": "29", "caravans": "yes", "fee": "yes", "operator": "Sam Houston Jones State Park", "static_caravans": "no", "tents": "no", "tourism": "camp_site", "osm_id": 1254161301}}, {"type": "Feature", "geometry": {"type": "Point", "coordinates": [-93.107955, 31.0080058]}, "properties": {"name": "Hunter Camp", "tourism": "camp_site", "osm_id": 1255800932}}, {"type": "Feature", "geometry": {"type": "Point", "coordinates": [-90.0575562, 29.982176]}, "properties": {"amenity": "parking", "caravan_site": "motorhome_stopover", "fee": "no", "tourism": "caravan_site", "osm_id": 1329236909}}, {"type": "Feature", "geometry": {"type": "Point", "coordinates": [-90.0343795, 30.0251589]}, "properties": {"tourism": "caravan_site", "osm_id": 1331259576}}, {"type": "Feature", "geometry": {"type": "Point", "coordinates": [-92.4249516, 30.543414]}, "properties": {"tourism": "camp_site", "osm_id": 1339064586}}, {"type": "Feature", "geometry": {"type": "Point", "coordinates": [-93.9030599, 32.6154745]}, "properties": {"addr:city": "Shreveport", "addr:housenumber": "8095", "addr:postcode": "71107-9260", "addr:state": "LA", "addr:street": "Old Mooringsport Road", "name": "Country Haven RV Park", "tourism": "caravan_site", "osm_id": 1343213934}}, {"type": "Feature", "geometry": {"type": "Point", "coordinates": [-91.9321525, 30.1408581]}, "properties": {"addr:city": "Broussard", "addr:housenumber": "651", "addr:postcode": "70518", "addr:state": "LA", "addr:street": "St Nazaire Road", "name": "Parkside RV Park", "tourism": "caravan_site", "website": "https://parksidervpark.com/", "osm_id": 1344951646}}, {"type": "Feature", "geometry": {"type": "Point", "coordinates": [-93.3522702, 30.2119331]}, "properties": {"landuse": "residential", "residential": "trailer_park", "tourism": "caravan_site", "osm_id": 1355844477}}, {"type": "Feature", "geometry": {"type": "Point", "coordinates": [-93.3834257, 30.2072747]}, "properties": {"addr:city": "Sulphur", "addr:housenumber": "400", "addr:postcode": "70665", "addr:state": "LA", "addr:street": "W M Perkins Road", "email": "info@maplewoodparkplace.com", "landuse": "residential", "name": "Maplewood Place Park", "phone": "+1 337-888-3002", "tourism": "caravan_site", "website": "https://www.maplewoodplacepark.com", "osm_id": 1355844485}}, {"type": "Feature", "geometry": {"type": "Point", "coordinates": [-93.3673404, 30.2178846]}, "properties": {"addr:city": "Sulphur", "addr:housenumber": "1202", "addr:postcode": "70663", "addr:state": "LA", "addr:street": "Henning Drive", "name": "Wingate RV Park", "phone": "+1 337-563-1820", "tourism": "caravan_site", "website": "https://www.wingatervpark.com", "osm_id": 1360928130}}, {"type": "Feature", "geometry": {"type": "Point", "coordinates": [-93.3730169, 30.2190796]}, "properties": {"addr:city": "Sulphur", "addr:housenumber": "2111", "addr:postcode": "70663", "addr:state": "LA", "addr:street": "Trailer Street", "contact:facebook": "https://www.facebook.com/sulphurpalmsrv/", "landuse": "residential", "name": "Sulphur Palms RV and Mobile Home Park", "phone": "+1 337-515-3673", "residential": "trailer_park", "tourism": "caravan_site", "osm_id": 1361056114}}, {"type": "Feature", "geometry": {"type": "Point", "coordinates": [-93.3663615, 30.2192701]}, "properties": {"addr:city": "Sulphur", "addr:housenumber": "2000", "addr:postcode": "70663", "addr:state": "LA", "addr:street": "Invader Street", "name": "2000 Mount Drive", "operator": "Mount Rental", "tourism": "caravan_site", "osm_id": 1361302575}}, {"type": "Feature", "geometry": {"type": "Point", "coordinates": [-93.3679501, 30.2188929]}, "properties": {"addr:city": "Sulphur", "addr:housenumber": "1111", "addr:postcode": "70663", "addr:state": "LA", "addr:street": "Henning Drive", "internet_access": "wlan", "internet_access:fee": "no", "name": "Mount RV & Mobile Home Park", "phone": "+1 337-499-7577", "tourism": "caravan_site", "website": "https://www.mountrvpark.com", "osm_id": 1361302577}}, {"type": "Feature", "geometry": {"type": "Point", "coordinates": [-89.1056549, 30.4864962]}, "properties": {"addr:city": "Gulfport", "addr:housenumber": "14031", "addr:postcode": "39503", "addr:state": "MS", "addr:street": "US 49", "brand": "KOA", "brand:wikidata": "Q16988635", "internet_access": "wlan", "name": "KOA Holiday", "power_supply": "yes", "tourism": "caravan_site", "website": "https://koa.com/campgrounds/gulfport/", "osm_id": 1366705124}}, {"type": "Feature", "geometry": {"type": "Point", "coordinates": [-91.9487472, 30.5448849]}, "properties": {"tourism": "caravan_site", "osm_id": 1372215482}}, {"type": "Feature", "geometry": {"type": "Point", "coordinates": [-91.1367693, 31.8718312]}, "properties": {"tourism": "caravan_site", "osm_id": 1374856208}}, {"type": "Feature", "geometry": {"type": "Point", "coordinates": [-92.6556203, 32.7014543]}, "properties": {"addr:city": "Dubach", "addr:housenumber": "126", "addr:postcode": "71235", "addr:state": "LA", "addr:street": "Smith Street", "name": "Dubach RV Park", "tourism": "caravan_site", "osm_id": 1381824866}}, {"type": "Feature", "geometry": {"type": "Point", "coordinates": [-93.3795353, 32.5891854]}, "properties": {"internet_access": "no", "name": "Farmer's Branch RV Park", "power_supply": "yes", "sanitary_dump_station": "yes", "tourism": "caravan_site", "osm_id": 1384151527}}, {"type": "Feature", "geometry": {"type": "Point", "coordinates": [-93.256838, 30.2814229]}, "properties": {"name": "Whispering Meadow RV Park", "tourism": "caravan_site", "osm_id": 1418750953}}, {"type": "Feature", "geometry": {"type": "Point", "coordinates": [-91.1856712, 29.7235512]}, "properties": {"tourism": "caravan_site", "osm_id": 1425827516}}, {"type": "Feature", "geometry": {"type": "Point", "coordinates": [-91.1884291, 29.7191217]}, "properties": {"tourism": "caravan_site", "osm_id": 1425950385}}, {"type": "Feature", "geometry": {"type": "Point", "coordinates": [-91.1898416, 29.7227008]}, "properties": {"access": "customers", "camp_site": "standard", "caravans": "no", "charge": "24 USD", "fee": "yes", "operator": "Lake End Park", "static_caravans": "no", "tents": "yes", "tourism": "camp_site", "website": "https://lakeendpark.net/rates/", "osm_id": 1425950438}}, {"type": "Feature", "geometry": {"type": "Point", "coordinates": [-92.6117241, 32.5817817]}, "properties": {"tourism": "caravan_site", "osm_id": 1429406241}}, {"type": "Feature", "geometry": {"type": "Point", "coordinates": [-90.0771157, 29.9846417]}, "properties": {"tourism": "caravan_site", "osm_id": 1444298199}}, {"type": "Feature", "geometry": {"type": "Point", "coordinates": [-91.818644, 30.3257389]}, "properties": {"name": "Buddy Site", "tourism": "camp_site", "osm_id": 1445567975}}, {"type": "Feature", "geometry": {"type": "Point", "coordinates": [-91.818449, 30.3257454]}, "properties": {"name": "Buddy Site", "tourism": "camp_site", "osm_id": 1445567976}}, {"type": "Feature", "geometry": {"type": "Point", "coordinates": [-91.8182557, 30.3256437]}, "properties": {"name": "Buddy Site", "tourism": "camp_site", "osm_id": 1445567977}}, {"type": "Feature", "geometry": {"type": "Point", "coordinates": [-91.8180603, 30.325754]}, "properties": {"name": "Buddy Site", "tourism": "camp_site", "osm_id": 1445567978}}, {"type": "Feature", "geometry": {"type": "Point", "coordinates": [-91.8178401, 30.3257545]}, "properties": {"name": "Buddy Site", "tourism": "camp_site", "osm_id": 1445567979}}, {"type": "Feature", "geometry": {"type": "Point", "coordinates": [-91.8178367, 30.325307]}, "properties": {"name": "Buddy Site", "tourism": "camp_site", "osm_id": 1445567980}}, {"type": "Feature", "geometry": {"type": "Point", "coordinates": [-91.8182534, 30.3251494]}, "properties": {"name": "Buddy Site", "tourism": "camp_site", "osm_id": 1445567981}}, {"type": "Feature", "geometry": {"type": "Point", "coordinates": [-91.8182488, 30.3248002]}, "properties": {"name": "Buddy Site", "tourism": "camp_site", "osm_id": 1445567982}}, {"type": "Feature", "geometry": {"type": "Point", "coordinates": [-91.8178378, 30.3247004]}, "properties": {"name": "Buddy Site", "tourism": "camp_site", "osm_id": 1445567983}}, {"type": "Feature", "geometry": {"type": "Point", "coordinates": [-91.8183394, 30.3248329]}, "properties": {"name": "Deluxe Pull-Thru Campsites", "tourism": "camp_site", "osm_id": 1445611211}}, {"type": "Feature", "geometry": {"type": "Point", "coordinates": [-91.8235849, 30.3237377]}, "properties": {"name": "Buddy Site", "tourism": "camp_site", "osm_id": 1445620621}}, {"type": "Feature", "geometry": {"type": "Point", "coordinates": [-91.8234628, 30.3239346]}, "properties": {"name": "Buddy Site", "tourism": "camp_site", "osm_id": 1445620622}}, {"type": "Feature", "geometry": {"type": "Point", "coordinates": [-91.8217192, 30.3238252]}, "properties": {"name": "Buddy Site", "tourism": "camp_site", "osm_id": 1445841463}}, {"type": "Feature", "geometry": {"type": "Point", "coordinates": [-91.8214117, 30.3241607]}, "properties": {"name": "BUddy Site", "tourism": "camp_site", "osm_id": 1445841464}}, {"type": "Feature", "geometry": {"type": "Point", "coordinates": [-91.8212669, 30.3247043]}, "properties": {"name": "Buddy Site (Covered)", "tourism": "camp_site", "osm_id": 1445841476}}, {"type": "Feature", "geometry": {"type": "Point", "coordinates": [-91.8216613, 30.3255754]}, "properties": {"name": "Buddy Site", "tourism": "camp_site", "osm_id": 1445841479}}, {"type": "Feature", "geometry": {"type": "Point", "coordinates": [-91.822084, 30.325807]}, "properties": {"name": "Buddy Site", "tourism": "camp_site", "osm_id": 1445841483}}, {"type": "Feature", "geometry": {"type": "Point", "coordinates": [-91.8210458, 30.3247762]}, "properties": {"name": "Buddy Site", "tourism": "camp_site", "osm_id": 1445841487}}, {"type": "Feature", "geometry": {"type": "Point", "coordinates": [-91.8233244, 30.3235477]}, "properties": {"name": "Buddy Site", "tourism": "camp_site", "osm_id": 1446006334}}, {"type": "Feature", "geometry": {"type": "Point", "coordinates": [-91.8235831, 30.3258467]}, "properties": {"name": "Buddy Site", "tourism": "camp_site", "osm_id": 1446006354}}, {"type": "Feature", "geometry": {"type": "Point", "coordinates": [-91.8238406, 30.3259037]}, "properties": {"name": "Buddy Site", "tourism": "camp_site", "osm_id": 1446006355}}, {"type": "Feature", "geometry": {"type": "Point", "coordinates": [-91.8239392, 30.3256624]}, "properties": {"name": "Buddy Site", "tourism": "camp_site", "osm_id": 1446015393}}, {"type": "Feature", "geometry": {"type": "Point", "coordinates": [-91.8241364, 30.3256489]}, "properties": {"name": "Buddy Site", "tourism": "camp_site", "osm_id": 1446015394}}, {"type": "Feature", "geometry": {"type": "Point", "coordinates": [-91.824481, 30.325673]}, "properties": {"name": "Buddy Site", "tourism": "camp_site", "osm_id": 1446015395}}, {"type": "Feature", "geometry": {"type": "Point", "coordinates": [-91.823959, 30.3245758]}, "properties": {"name": "Buddy Site", "tourism": "camp_site", "osm_id": 1446015396}}, {"type": "Feature", "geometry": {"type": "Point", "coordinates": [-91.8240638, 30.3245727]}, "properties": {"name": "Premium Pull-Thru Campsites", "tourism": "camp_site", "osm_id": 1446277577}}, {"type": "Feature", "geometry": {"type": "Point", "coordinates": [-91.8233083, 30.3242812]}, "properties": {"name": "Water View Premium Campsites", "tourism": "camp_site", "osm_id": 1446277578}}, {"type": "Feature", "geometry": {"type": "Point", "coordinates": [-91.8216284, 30.3244709]}, "properties": {"name": "Water View Premium Campsites", "tourism": "camp_site", "osm_id": 1446277579}}, {"type": "Feature", "geometry": {"type": "Point", "coordinates": [-91.9429148, 30.0958779]}, "properties": {"tourism": "caravan_site", "osm_id": 1450069649}}, {"type": "Feature", "geometry": {"type": "Point", "coordinates": [-92.1953984, 30.244677]}, "properties": {"tourism": "caravan_site", "osm_id": 1450074208}}, {"type": "Feature", "geometry": {"type": "Point", "coordinates": [-93.1150775, 30.2391096]}, "properties": {"addr:city": "Lake Charles", "addr:housenumber": "6336", "addr:postcode": "70615", "addr:state": "Louisiana", "addr:street": "East Opelousas Street", "name": "Five Oaks RV Park", "tourism": "caravan_site", "osm_id": 1454009904}}, {"type": "Feature", "geometry": {"type": "Point", "coordinates": [-93.1387489, 30.2341952]}, "properties": {"addr:city": "Lake Charles", "addr:housenumber": "5501", "addr:postcode": "70615", "addr:state": "Louisiana", "addr:street": "US Highway 90", "name": "Cooling Springs RV Resort", "tourism": "caravan_site", "osm_id": 1462190885}}, {"type": "Feature", "geometry": {"type": "Point", "coordinates": [-92.6321339, 32.5047048]}, "properties": {"addr:city": "Ruston", "addr:housenumber": "404", "addr:postcode": "71270", "addr:state": "LA", "addr:street": "Leon Barmore Way", "capacity:caravans": "90", "internet_access": "wlan", "name": "Piney Hills RV Park", "power_supply": "yes", "toilets": "yes", "tourism": "caravan_site", "website": "https://www.pineyhillsrvpark.com", "osm_id": 1464189560}}, {"type": "Feature", "geometry": {"type": "Point", "coordinates": [-92.6355628, 32.5076949]}, "properties": {"addr:city": "Ruston", "addr:housenumber": "1803", "addr:postcode": "71270", "addr:state": "LA", "addr:street": "Champions Way", "capacity:caravans": "10", "internet_access": "wlan", "name": "Piney Hills RV Park", "sanitary_dump_station": "yes", "toilets": "yes", "tourism": "caravan_site", "osm_id": 1464189563}}, {"type": "Feature", "geometry": {"type": "Point", "coordinates": [-89.1363733, 30.8758172]}, "properties": {"boundary": "camp_site", "fee": "yes", "name": "Flint Creek Water Park Campground", "power_supply": "yes", "tourism": "camp_site", "type": "boundary", "osm_id": 7681389}}, {"type": "Feature", "geometry": {"type": "Point", "coordinates": [-90.0410025, 32.3878581]}, "properties": {"name": "Timberlake Campground", "tourism": "camp_site", "type": "multipolygon", "osm_id": 16059530}}]}