{"type": "FeatureCollection", "features": [{"type": "Feature", "geometry": {"type": "Point", "coordinates": [-79.107358, 38.746458]}, "properties": {"capacity": "9", "description": "Nestled along a Shenandoah Mountain drainage in Pendleton County, WV, Camp Run provides an opportunity for primitive 1950\u2019s style camping that is popular with hunters.", "fee": "no", "internet_access": "no", "name": "Camp Run Campground", "operator": "US Forest Service, George Washington & Jefferson National Forests, North River Ranger District", "phone": "+1-540-432-0187", "tourism": "camp_site", "website": "https://www.fs.usda.gov/recarea/gwj/recarea/?recid=73635", "osm_id": 155774317}}, {"type": "Feature", "geometry": {"type": "Point", "coordinates": [-76.7205226, 38.7931703]}, "properties": {"access": "yes", "backcountry": "yes", "camp_site": "basic", "caravans": "no", "charge": "$20 in-county / $26 out-of-county", "ele": "1", "fee": "yes", "gnis:feature_id": "597606", "name": "Iron Pot Landing", "operator": "Maryland-National Capital Park and Planning Commission, Department of Parks and Recreation, Prince George\u2019s County", "static_caravans": "no", "tents": "yes", "tourism": "camp_site", "osm_id": 157555495}}, {"type": "Feature", "geometry": {"type": "Point", "coordinates": [-75.1040711, 38.6262233]}, "properties": {"ele": "1", "gnis:feature_id": "216147", "name": "Massey Landing", "tourism": "camp_site", "wikidata": "Q15250698", "osm_id": 158245077}}, {"type": "Feature", "geometry": {"type": "Point", "coordinates": [-75.4899221, 38.1248426]}, "properties": {"access": "yes", "camp_site": "serviced", "ele": "3", "gnis:feature_id": "590798", "name": "Milburn Landing", "tents": "yes", "tourism": "camp_site", "osm_id": 158591353}}, {"type": "Feature", "geometry": {"type": "Point", "coordinates": [-75.9152714, 39.3869587]}, "properties": {"ele": "18", "gnis:feature_id": "589319", "long_name": "Indian Acres of Chesapeake Bay", "name": "Indian Acres", "place": "hamlet", "tourism": "caravan_site", "website": "https://www.indianacres.net/", "osm_id": 158625594}}, {"type": "Feature", "geometry": {"type": "Point", "coordinates": [-79.35495, 38.995688]}, "properties": {"backcountry": "yes", "fee": "no", "informal": "yes", "survey:date": "2009-05-03", "tourism": "camp_site", "osm_id": 402289775}}, {"type": "Feature", "geometry": {"type": "Point", "coordinates": [-79.3721875, 38.9804344]}, "properties": {"backcountry": "yes", "fee": "no", "informal": "yes", "survey:date": "2009-05-03", "tourism": "camp_site", "osm_id": 402289777}}, {"type": "Feature", "geometry": {"type": "Point", "coordinates": [-79.376918, 39.007649]}, "properties": {"backcountry": "yes", "fee": "no", "informal": "yes", "survey:date": "2009-05-03", "tourism": "camp_site", "osm_id": 402289778}}, {"type": "Feature", "geometry": {"type": "Point", "coordinates": [-79.375484, 39.00403]}, "properties": {"backcountry": "yes", "fee": "no", "informal": "yes", "survey:date": "2009-05-03", "tourism": "camp_site", "osm_id": 402289779}}, {"type": "Feature", "geometry": {"type": "Point", "coordinates": [-79.379293, 39.0200771]}, "properties": {"backcountry": "yes", "fee": "no", "informal": "yes", "survey:date": "2009-05-03", "tourism": "camp_site", "osm_id": 402289780}}, {"type": "Feature", "geometry": {"type": "Point", "coordinates": [-79.3776848, 39.0190477]}, "properties": {"backcountry": "yes", "fee": "no", "informal": "yes", "survey:date": "2009-05-03", "tourism": "camp_site", "osm_id": 402289781}}, {"type": "Feature", "geometry": {"type": "Point", "coordinates": [-79.360207, 39.017966]}, "properties": {"backcountry": "yes", "fee": "no", "informal": "yes", "survey:date": "2009-05-03", "tourism": "camp_site", "osm_id": 402289782}}, {"type": "Feature", "geometry": {"type": "Point", "coordinates": [-79.3798481, 39.0230452]}, "properties": {"backcountry": "yes", "fee": "no", "informal": "yes", "survey:date": "2009-05-03", "tourism": "camp_site", "osm_id": 402289783}}, {"type": "Feature", "geometry": {"type": "Point", "coordinates": [-79.355918, 38.99402]}, "properties": {"backcountry": "yes", "fee": "no", "informal": "yes", "survey:date": "2009-05-03", "tourism": "camp_site", "osm_id": 402289784}}, {"type": "Feature", "geometry": {"type": "Point", "coordinates": [-79.3562854, 38.9944515]}, "properties": {"backcountry": "yes", "fee": "no", "informal": "yes", "survey:date": "2009-05-03", "tourism": "camp_site", "osm_id": 402289785}}, {"type": "Feature", "geometry": {"type": "Point", "coordinates": [-79.3569656, 38.993672]}, "properties": {"backcountry": "yes", "fee": "no", "informal": "yes", "survey:date": "2009-05-03", "tourism": "camp_site", "osm_id": 402289786}}, {"type": "Feature", "geometry": {"type": "Point", "coordinates": [-79.122835, 37.925229]}, "properties": {"backcountry": "yes", "caravans": "no", "fee": "yes", "static_caravans": "no", "tents": "yes", "tourism": "camp_site", "osm_id": 402295379}}, {"type": "Feature", "geometry": {"type": "Point", "coordinates": [-79.115676, 37.9263903]}, "properties": {"backcountry": "yes", "caravans": "no", "fee": "yes", "static_caravans": "no", "tents": "yes", "tourism": "camp_site", "osm_id": 402295381}}, {"type": "Feature", "geometry": {"type": "Point", "coordinates": [-79.097255, 37.930127]}, "properties": {"backcountry": "yes", "caravans": "no", "fee": "yes", "static_caravans": "no", "tents": "yes", "tourism": "camp_site", "osm_id": 402295385}}, {"type": "Feature", "geometry": {"type": "Point", "coordinates": [-79.110261, 37.925091]}, "properties": {"backcountry": "yes", "caravans": "no", "fee": "yes", "note": "14-FEB-08", "static_caravans": "no", "tents": "yes", "tourism": "camp_site", "osm_id": 402295386}}, {"type": "Feature", "geometry": {"type": "Point", "coordinates": [-79.088198, 37.921296]}, "properties": {"created_by": "GPSBabel-1.3.6", "note": "14-FEB-08", "tourism": "camp_site", "osm_id": 402295387}}, {"type": "Feature", "geometry": {"type": "Point", "coordinates": [-77.6707563, 38.8309015]}, "properties": {"ele": "137.5932617", "name": "Site 11", "scout": "yes", "tourism": "camp_site", "wpt_description": "26-JUN-10 14:00:11", "osm_id": 795056504}}, {"type": "Feature", "geometry": {"type": "Point", "coordinates": [-77.6718989, 38.8305798]}, "properties": {"ele": "137.3530273", "name": "Site 10", "scout": "yes", "tourism": "camp_site", "wpt_description": "25-JUN-10 13:21:11", "osm_id": 795056863}}, {"type": "Feature", "geometry": {"type": "Point", "coordinates": [-77.6718453, 38.8309726]}, "properties": {"ele": "117.8864746", "name": "Site 9", "scout": "yes", "tourism": "camp_site", "wpt_description": "26-JUN-10 13:18:51", "osm_id": 795056864}}, {"type": "Feature", "geometry": {"type": "Point", "coordinates": [-77.6717165, 38.8312484]}, "properties": {"ele": "122.4526367", "name": "Site 8", "scout": "yes", "tourism": "camp_site", "wpt_description": "26-JUN-10 13:19:29", "osm_id": 795056865}}, {"type": "Feature", "geometry": {"type": "Point", "coordinates": [-77.6708743, 38.8326776]}, "properties": {"name": "Site 4", "scout": "yes", "tourism": "camp_site", "osm_id": 795130397}}, {"type": "Feature", "geometry": {"type": "Point", "coordinates": [-77.6711533, 38.8338183]}, "properties": {"name": "Site 5", "scout": "yes", "tourism": "camp_site", "osm_id": 795130402}}, {"type": "Feature", "geometry": {"type": "Point", "coordinates": [-77.6691523, 38.8324226]}, "properties": {"name": "Site 3", "scout": "yes", "tourism": "camp_site", "osm_id": 795130408}}, {"type": "Feature", "geometry": {"type": "Point", "coordinates": [-77.6669529, 38.8311899]}, "properties": {"name": "Site 2", "scout": "yes", "tourism": "camp_site", "osm_id": 795130427}}, {"type": "Feature", "geometry": {"type": "Point", "coordinates": [-77.6665506, 38.8309266]}, "properties": {"name": "Site 1", "scout": "yes", "tourism": "camp_site", "osm_id": 795130435}}, {"type": "Feature", "geometry": {"type": "Point", "coordinates": [-77.6714483, 38.8328029]}, "properties": {"name": "Site 7", "scout": "yes", "tourism": "camp_site", "osm_id": 795130504}}, {"type": "Feature", "geometry": {"type": "Point", "coordinates": [-77.6714966, 38.8331957]}, "properties": {"name": "Site 6", "scout": "yes", "tourism": "camp_site", "osm_id": 795130511}}, {"type": "Feature", "geometry": {"type": "Point", "coordinates": [-77.6694903, 38.8318042]}, "properties": {"name": "Site 12", "scout": "yes", "tourism": "camp_site", "osm_id": 795142622}}, {"type": "Feature", "geometry": {"type": "Point", "coordinates": [-77.6693669, 38.8313654]}, "properties": {"name": "Site 13", "scout": "yes", "tourism": "camp_site", "osm_id": 795142636}}, {"type": "Feature", "geometry": {"type": "Point", "coordinates": [-77.6688841, 38.8306801]}, "properties": {"name": "Site 14", "scout": "yes", "tourism": "camp_site", "osm_id": 795142647}}, {"type": "Feature", "geometry": {"type": "Point", "coordinates": [-78.378509, 38.9237025]}, "properties": {"caravans": "yes", "drinking_water": "no", "impromptu": "yes", "motorhomes": "no", "name": "Mudhole Gap Camping", "reservation": "no", "shower": "no", "tents": "yes", "toilets": "no", "tourism": "camp_site", "osm_id": 1067812364}}, {"type": "Feature", "geometry": {"type": "Point", "coordinates": [-75.2820946, 39.5446726]}, "properties": {"name": "Adventure Bound Tall Pines", "phone": "+1-856-451-7479", "tourism": "camp_site", "website": "https://www.abcamping.com/tallpines/family_fun.php", "osm_id": 1193607220}}, {"type": "Feature", "geometry": {"type": "Point", "coordinates": [-76.3808321, 39.2491052]}, "properties": {"backcountry": "yes", "branch": "Hart-Miller Island", "capacity": "6", "caravans": "no", "group_only": "no", "name": "Hart-Miller Island State Park Campground", "opening_hours": "May 1-Sep 30", "operator": "Maryland Park Service", "reservation": "no", "tents": "yes", "tourism": "camp_site", "website": "https://dnr.maryland.gov/publiclands/Pages/central/HartMiller/Camping.aspx", "osm_id": 1207767951}}, {"type": "Feature", "geometry": {"type": "Point", "coordinates": [-77.9728249, 38.9898023]}, "properties": {"backcountry": "yes", "name": "Camp Washington", "tourism": "camp_site", "osm_id": 1223851162}}, {"type": "Feature", "geometry": {"type": "Point", "coordinates": [-77.9738431, 38.9901292]}, "properties": {"backcountry": "yes", "ele": "268.3316650", "name": "Camp Slater", "tourism": "camp_site", "wpt_description": "26-MAR-11 16:22:12", "osm_id": 1223851184}}, {"type": "Feature", "geometry": {"type": "Point", "coordinates": [-78.4994603, 39.1164017]}, "properties": {"fee": "no", "internet_access": "no", "name": "Hawk Campground", "operator": "US Forest Service", "tourism": "camp_site", "website": "https://www.fs.usda.gov/recarea/gwj/recarea/?recid=73739", "osm_id": 1270399110}}, {"type": "Feature", "geometry": {"type": "Point", "coordinates": [-77.6972921, 39.0366683]}, "properties": {"name": "Leave No Trace", "tourism": "camp_site", "osm_id": 1289461542}}, {"type": "Feature", "geometry": {"type": "Point", "coordinates": [-77.6930649, 39.0330931]}, "properties": {"name": "Outback", "tourism": "camp_site", "osm_id": 1289461545}}, {"type": "Feature", "geometry": {"type": "Point", "coordinates": [-77.6830306, 39.0364217]}, "properties": {"name": "Locust Grove", "tourism": "camp_site", "osm_id": 1289461549}}, {"type": "Feature", "geometry": {"type": "Point", "coordinates": [-77.6812578, 39.0337613]}, "properties": {"name": "Blueberry Hill", "tourism": "camp_site", "osm_id": 1289461573}}, {"type": "Feature", "geometry": {"type": "Point", "coordinates": [-78.2890134, 38.9058725]}, "properties": {"name": "Skyline Ranch Resort", "source": "1st person report", "tourism": "caravan_site", "osm_id": 1296654624}}, {"type": "Feature", "geometry": {"type": "Point", "coordinates": [-77.6661332, 38.1927931]}, "properties": {"tourism": "camp_site", "osm_id": 1311005151}}, {"type": "Feature", "geometry": {"type": "Point", "coordinates": [-79.4448798, 37.9675338]}, "properties": {"name": "PMI Site 4", "tourism": "camp_site", "osm_id": 1339635186}}, {"type": "Feature", "geometry": {"type": "Point", "coordinates": [-79.4421771, 37.9676779]}, "properties": {"name": "PMI Site 7", "tourism": "camp_site", "osm_id": 1339635187}}, {"type": "Feature", "geometry": {"type": "Point", "coordinates": [-79.4418856, 37.9657822]}, "properties": {"name": "PMI Site 9", "tourism": "camp_site", "osm_id": 1339635188}}, {"type": "Feature", "geometry": {"type": "Point", "coordinates": [-79.4448754, 37.968418]}, "properties": {"name": "PMI Site 2", "tourism": "camp_site", "osm_id": 1339635193}}, {"type": "Feature", "geometry": {"type": "Point", "coordinates": [-79.4466886, 37.9675891]}, "properties": {"name": "PMI Site 1", "tourism": "camp_site", "osm_id": 1339635198}}, {"type": "Feature", "geometry": {"type": "Point", "coordinates": [-79.4453261, 37.9662188]}, "properties": {"name": "PMI Site 6", "tourism": "camp_site", "osm_id": 1339635200}}, {"type": "Feature", "geometry": {"type": "Point", "coordinates": [-79.4427028, 37.9685068]}, "properties": {"name": "PMI Site 5", "tourism": "camp_site", "osm_id": 1339635201}}, {"type": "Feature", "geometry": {"type": "Point", "coordinates": [-79.4410667, 37.9667771]}, "properties": {"name": "PMI Site 10", "tourism": "camp_site", "osm_id": 1339635202}}, {"type": "Feature", "geometry": {"type": "Point", "coordinates": [-79.4437978, 37.9695005]}, "properties": {"name": "PMI Site 3", "tourism": "camp_site", "osm_id": 1339635203}}, {"type": "Feature", "geometry": {"type": "Point", "coordinates": [-78.1562002, 39.5100845]}, "properties": {"tourism": "caravan_site", "osm_id": 1424184476}}, {"type": "Feature", "geometry": {"type": "Point", "coordinates": [-78.157611, 39.5076715]}, "properties": {"tourism": "caravan_site", "osm_id": 1424184527}}, {"type": "Feature", "geometry": {"type": "Point", "coordinates": [-78.156565, 39.5127083]}, "properties": {"tourism": "caravan_site", "osm_id": 1424184690}}, {"type": "Feature", "geometry": {"type": "Point", "coordinates": [-78.1444557, 39.5315663]}, "properties": {"tourism": "caravan_site", "osm_id": 1424184745}}, {"type": "Feature", "geometry": {"type": "Point", "coordinates": [-78.1853195, 39.4842279]}, "properties": {"name": "Camp N", "tourism": "camp_site", "osm_id": 1424430385}}, {"type": "Feature", "geometry": {"type": "Point", "coordinates": [-77.5968754, 39.0332738]}, "properties": {"tourism": "camp_site", "osm_id": 1472596440}}, {"type": "Feature", "geometry": {"type": "Point", "coordinates": [-76.846823, 38.7335024]}, "properties": {"addr:city": "Cheltenham", "addr:country": "US", "addr:housenumber": "9201", "addr:postcode": "20623", "addr:state": "MD", "addr:street": "Surratts Road", "name": "Youth Camp", "tourism": "camp_site", "osm_id": 1684542283}}, {"type": "Feature", "geometry": {"type": "Point", "coordinates": [-78.8106999, 38.9556291]}, "properties": {"access": "customers", "addr:city": "Lost River", "addr:housenumber": "337", "addr:postcode": "26810", "addr:state": "WV", "addr:street": "Kimsey Run Road", "bbq": "yes", "camp_site": "deluxe", "capacity": "40", "capacity:caravans": "32", "capacity:tents": "10", "caravan:storage": "yes", "caravans": "yes", "drinking_water": "yes", "fee": "yes", "firepit": "yes", "internet_access": "wlan", "internet_access:fee": "no", "laundry": "yes", "name": "Lost River Campground", "operator": "Joyce Teets", "pavilion": "yes", "phone": "+1-304-897-8500", "picnic_table": "yes", "playground": "yes", "power_supply": "yes", "sanitary_dump_station": "yes", "shower": "yes", "source": "http://www.lostrivercamping.com/about.html", "sport": "volleyball", "static_caravans": "yes", "swimming_pool": "yes", "tents": "yes", "toilets": "yes", "tourism": "camp_site", "website": "https://lostrivercamping.com", "osm_id": 1751862228}}, {"type": "Feature", "geometry": {"type": "Point", "coordinates": [-79.112974, 39.4200999]}, "properties": {"name": "w", "tourism": "camp_site", "osm_id": 1814242967}}, {"type": "Feature", "geometry": {"type": "Point", "coordinates": [-77.49257, 39.1794238]}, "properties": {"backcountry": "yes", "caravans": "no", "drinking_water": "yes", "fee": "no", "group_only": "no", "internet_access": "no", "name": "Marble Quarry", "operator": "National Park Service", "reservation": "no", "sanitary_dump_station": "no", "shower": "no", "tents": "yes", "toilets": "yes", "tourism": "camp_site", "website": "https://www.nps.gov/choh/planyourvisit/camping.htm", "osm_id": 2021563182}}, {"type": "Feature", "geometry": {"type": "Point", "coordinates": [-77.4020317, 39.25092]}, "properties": {"fixme": "The Sugarloaf website says \"No Overnight Camping,\" so I'm not sure if this is actually a campground. Turner Farm is listed as a feature on the map, but no indication of what it's for beyond \"Horse trailer parking.\"", "name": "Turner Farm", "tourism": "camp_site", "website": "https://sugarloafmd.com/contact-us/", "osm_id": 2021563192}}, {"type": "Feature", "geometry": {"type": "Point", "coordinates": [-77.5405967, 38.7316455]}, "properties": {"name": "Outpost 60 Campsite", "tourism": "camp_site", "osm_id": 2085042968}}, {"type": "Feature", "geometry": {"type": "Point", "coordinates": [-78.245433, 39.436145]}, "properties": {"tourism": "camp_site", "osm_id": 2356448280}}, {"type": "Feature", "geometry": {"type": "Point", "coordinates": [-77.795972, 39.5809311]}, "properties": {"addr:state": "MD", "brand": "Yogi Bear's Jellystone Park", "brand:wikidata": "Q8054389", "internet_access": "yes", "internet_access:fee": "no", "name": "Yogi Bear's Jellystone Park", "official_name": "Yogi Bear's Jellystone Park Camp-Resorts", "phone": "+1-301-223-7117", "tourism": "caravan_site", "website": "www.jellystonemaryland.com/", "osm_id": 2401942914}}, {"type": "Feature", "geometry": {"type": "Point", "coordinates": [-78.7103356, 38.4733883]}, "properties": {"backcountry": "yes", "tourism": "camp_site", "osm_id": 2644094220}}, {"type": "Feature", "geometry": {"type": "Point", "coordinates": [-78.7023655, 38.4935625]}, "properties": {"backcountry": "yes", "tourism": "camp_site", "osm_id": 2644094221}}, {"type": "Feature", "geometry": {"type": "Point", "coordinates": [-77.4546356, 39.2271521]}, "properties": {"backcountry": "yes", "caravans": "no", "drinking_water": "no", "fee": "no", "group_only": "no", "internet_access": "no", "name": "Indian Flats", "operator": "National Park Service", "reservation": "no", "sanitary_dump_station": "no", "shower": "no", "source": "GPS", "tents": "yes", "toilets": "yes", "tourism": "camp_site", "website": "https://www.nps.gov/choh/planyourvisit/camping.htm", "osm_id": 2804338317}}, {"type": "Feature", "geometry": {"type": "Point", "coordinates": [-75.1230092, 38.41401]}, "properties": {"access": "private", "addr:city": "Bishopville", "addr:housenumber": "12342", "addr:postcode": "21813", "addr:street": "Saint Martin's Neck Road", "name": "Bali Hi RV Park", "tourism": "caravan_site", "website": "https://balihipark.com/", "osm_id": 3020463769}}, {"type": "Feature", "geometry": {"type": "Point", "coordinates": [-75.2422024, 38.032457]}, "properties": {"backcountry": "yes", "caravans": "no", "group_only": "no", "internet_access": "no", "name": "State Line", "operator": "National Park Service - Assateague Island National Seashore", "sanitary_dump_station": "no", "tents": "yes", "tourism": "camp_site", "osm_id": 3290544674}}, {"type": "Feature", "geometry": {"type": "Point", "coordinates": [-75.1885359, 38.1431225]}, "properties": {"backcountry": "yes", "caravans": "no", "group_only": "no", "internet_access": "no", "name": "Pine Tree", "operator": "National Park Service - Assateague Island National Seashore", "sanitary_dump_station": "no", "tents": "yes", "tourism": "camp_site", "osm_id": 3290544696}}, {"type": "Feature", "geometry": {"type": "Point", "coordinates": [-75.1720628, 38.1511105]}, "properties": {"backcountry": "yes", "caravans": "no", "group_only": "no", "internet_access": "no", "name": "Little Levels", "operator": "National Park Service - Assateague Island National Seashore", "sanitary_dump_station": "no", "tents": "yes", "tourism": "camp_site", "osm_id": 3290544697}}, {"type": "Feature", "geometry": {"type": "Point", "coordinates": [-79.3766744, 38.8355632]}, "properties": {"internet_access": "no", "name": "Princess Snowbird Campground", "tourism": "camp_site", "osm_id": 3447109754}}, {"type": "Feature", "geometry": {"type": "Point", "coordinates": [-77.310283, 39.0448585]}, "properties": {"addr:city": "Great Falls", "addr:housenumber": "101", "addr:postcode": "22066", "addr:state": "VA", "addr:street": "Springvale Rd", "name": "Camp Fraser", "source": "https://www.livingclassrooms.org/camp_fraser.php", "tourism": "camp_site", "osm_id": 3595467542}}, {"type": "Feature", "geometry": {"type": "Point", "coordinates": [-78.3913275, 38.8262073]}, "properties": {"backcountry": "yes", "capacity": "4", "operator": "USFS", "tourism": "camp_site", "osm_id": 3644611896}}, {"type": "Feature", "geometry": {"type": "Point", "coordinates": [-77.5304154, 39.2710464]}, "properties": {"backcountry": "yes", "caravans": "no", "drinking_water": "no", "fee": "no", "group_only": "no", "internet_access": "no", "name": "Calico Rocks", "operator": "National Park Service", "reservation": "no", "sanitary_dump_station": "no", "shower": "no", "tents": "yes", "toilets": "yes", "tourism": "camp_site", "website": "https://www.nps.gov/choh/planyourvisit/camping.htm", "osm_id": 3742766327}}, {"type": "Feature", "geometry": {"type": "Point", "coordinates": [-78.3029075, 38.8629784]}, "properties": {"note": "w1alk in tent campsites", "tourism": "camp_site", "osm_id": 4059693496}}, {"type": "Feature", "geometry": {"type": "Point", "coordinates": [-78.5478181, 38.6928517]}, "properties": {"backcountry": "yes", "tourism": "camp_site", "osm_id": 4081164394}}, {"type": "Feature", "geometry": {"type": "Point", "coordinates": [-78.7357022, 39.5877638]}, "properties": {"backcountry": "yes", "fee": "no", "name": "Irons Mountain Hiker Biker Campsite", "operator": "National Park Service", "tents": "yes", "tourism": "camp_site", "osm_id": 4190448303}}, {"type": "Feature", "geometry": {"type": "Point", "coordinates": [-78.6506632, 39.5388662]}, "properties": {"backcountry": "yes", "fee": "no", "name": "Pigmans Ferry Hiker Biker Campsite", "operator": "National Park Service", "tents": "yes", "tourism": "camp_site", "osm_id": 4190448306}}, {"type": "Feature", "geometry": {"type": "Point", "coordinates": [-78.5884397, 39.5305678]}, "properties": {"backcountry": "yes", "fee": "no", "name": "Potomac Forks Hiker Biker Campsite", "operator": "National Park Service", "tents": "yes", "tourism": "camp_site", "osm_id": 4190448307}}, {"type": "Feature", "geometry": {"type": "Point", "coordinates": [-78.7152613, 39.5639495]}, "properties": {"cabins": "no", "caravans": "no", "fee": "yes", "name": "Spring Gap", "operator": "National Park Service", "tents": "yes", "tourism": "camp_site", "osm_id": 4190448309}}, {"type": "Feature", "geometry": {"type": "Point", "coordinates": [-79.4286657, 39.1436802]}, "properties": {"name": "Campsite 5", "tourism": "camp_site", "osm_id": 4214585802}}, {"type": "Feature", "geometry": {"type": "Point", "coordinates": [-79.4279964, 39.143493]}, "properties": {"name": "Camp Site 6", "tourism": "camp_site", "osm_id": 4214585808}}, {"type": "Feature", "geometry": {"type": "Point", "coordinates": [-79.4258494, 39.1438875]}, "properties": {"name": "Camp Site 7", "tourism": "camp_site", "osm_id": 4214585816}}, {"type": "Feature", "geometry": {"type": "Point", "coordinates": [-78.6207013, 38.9543172]}, "properties": {"backcountry": "yes", "tourism": "camp_site", "osm_id": 4271449980}}, {"type": "Feature", "geometry": {"type": "Point", "coordinates": [-79.4412144, 37.9692775]}, "properties": {"name": "PMI Site 8 (unused)", "tourism": "camp_site", "osm_id": 4295147208}}, {"type": "Feature", "geometry": {"type": "Point", "coordinates": [-78.3521192, 38.863993]}, "properties": {"backcountry": "yes", "tourism": "camp_site", "osm_id": 4347505859}}, {"type": "Feature", "geometry": {"type": "Point", "coordinates": [-79.3530878, 39.0179532]}, "properties": {"backcountry": "yes", "fee": "no", "informal": "yes", "tourism": "camp_site", "osm_id": 4365212141}}, {"type": "Feature", "geometry": {"type": "Point", "coordinates": [-79.3528602, 39.0191945]}, "properties": {"backcountry": "yes", "fee": "no", "informal": "yes", "tourism": "camp_site", "osm_id": 4365212142}}, {"type": "Feature", "geometry": {"type": "Point", "coordinates": [-79.3524221, 39.019776]}, "properties": {"backcountry": "yes", "fee": "no", "informal": "yes", "tourism": "camp_site", "osm_id": 4365212143}}, {"type": "Feature", "geometry": {"type": "Point", "coordinates": [-79.3519983, 39.0198862]}, "properties": {"backcountry": "yes", "fee": "no", "informal": "yes", "tourism": "camp_site", "osm_id": 4365212144}}, {"type": "Feature", "geometry": {"type": "Point", "coordinates": [-79.3662191, 38.9914208]}, "properties": {"backcountry": "yes", "fee": "no", "informal": "yes", "tourism": "camp_site", "osm_id": 4365212145}}, {"type": "Feature", "geometry": {"type": "Point", "coordinates": [-79.1201192, 39.6337275]}, "properties": {"name": "New Germany State Park Campground", "note": "pitches dispersed through State Park", "tourism": "camp_site", "website": "http://reservations.dnr.state.md.us/camping/new-germany-state-park/r/campgroundDetails.do?contractCode=MD&parkId=380521", "osm_id": 4419348094}}, {"type": "Feature", "geometry": {"type": "Point", "coordinates": [-77.3959894, 38.5577707]}, "properties": {"backcountry": "yes", "capacity:persons": "4", "name": "Campsite #6", "ref": "BC6", "source": "survey 10/2016", "tourism": "camp_site", "osm_id": 4439927083}}, {"type": "Feature", "geometry": {"type": "Point", "coordinates": [-77.3943733, 38.5564117]}, "properties": {"backcountry": "yes", "capacity:persons": "4", "name": "Campsite #7", "ref": "BC7", "source": "survey 10/2016", "tourism": "camp_site", "osm_id": 4439928480}}, {"type": "Feature", "geometry": {"type": "Point", "coordinates": [-77.3916841, 38.5554454]}, "properties": {"backcountry": "yes", "capacity:persons": "4", "name": "Campsite #8", "ref": "BC8", "source": "survey 10/2016", "tourism": "camp_site", "osm_id": 4439928520}}, {"type": "Feature", "geometry": {"type": "Point", "coordinates": [-77.4018033, 38.5512783]}, "properties": {"backcountry": "yes", "capacity:persons": "4", "name": "Campsite #3", "ref": "BC3", "source": "survey 10/2016", "tourism": "camp_site", "osm_id": 4439928866}}, {"type": "Feature", "geometry": {"type": "Point", "coordinates": [-78.2822254, 39.6218706]}, "properties": {"caravans": "no", "name": "Cacapon Junction Hiker Biker Campsite", "operator": "National Park Service", "static_caravans": "no", "tents": "yes", "tourism": "camp_site", "osm_id": 4502704722}}, {"type": "Feature", "geometry": {"type": "Point", "coordinates": [-78.3616991, 39.6274269]}, "properties": {"caravans": "no", "name": "Indigo Neck Hiker Biker Campsite", "operator": "National Park Service", "static_caravans": "no", "tents": "yes", "tourism": "camp_site", "osm_id": 4502704734}}, {"type": "Feature", "geometry": {"type": "Point", "coordinates": [-78.7239152, 38.1282389]}, "properties": {"name": "Girl Scout Camp", "tourism": "camp_site", "osm_id": 4570918456}}, {"type": "Feature", "geometry": {"type": "Point", "coordinates": [-79.2005371, 38.5978974]}, "properties": {"capacity": "35", "fee": "yes", "name": "Brandywine campground", "note": "Drinking water available Bath houses have hot showers and flush toilets", "operator": "US Forest Service,George Washington & Jefferson National Forests,North River Ranger District", "phone": "+1-540-432-0187", "tourism": "camp_site", "osm_id": 4732991021}}, {"type": "Feature", "geometry": {"type": "Point", "coordinates": [-77.5571425, 39.2983854]}, "properties": {"backcountry": "yes", "caravans": "no", "drinking_water": "no", "fee": "no", "group_only": "no", "internet_access": "no", "name": "Bald Eagle Island", "operator": "National Park Service", "reservation": "no", "sanitary_dump_station": "no", "shower": "no", "tents": "yes", "toilets": "yes", "tourism": "camp_site", "website": "https://www.nps.gov/choh/planyourvisit/camping.htm", "osm_id": 4797474052}}, {"type": "Feature", "geometry": {"type": "Point", "coordinates": [-79.4319301, 37.98693]}, "properties": {"tourism": "camp_site", "osm_id": 4959886220}}, {"type": "Feature", "geometry": {"type": "Point", "coordinates": [-78.6492682, 38.5390918]}, "properties": {"name": "Camp 6", "name:en": "Camp 6", "operator": "National Forest", "tourism": "camp_site", "osm_id": 4983392221}}, {"type": "Feature", "geometry": {"type": "Point", "coordinates": [-79.4521226, 37.9592863]}, "properties": {"access": "private", "caravans": "no", "drinking_water": "no", "name": "Staff Site", "power_supply": "yes", "shower": "no", "tents": "yes", "toilets": "no", "tourism": "camp_site", "osm_id": 4985252871}}, {"type": "Feature", "geometry": {"type": "Point", "coordinates": [-78.3696389, 38.5960638]}, "properties": {"backcountry": "yes", "camp_site": "basic", "description": "Since it's located in Shenandoah NP, it's required to get a permit from rangers (for free)", "fee": "no", "tourism": "camp_site", "osm_id": 5164192524}}, {"type": "Feature", "geometry": {"type": "Point", "coordinates": [-78.3524051, 38.8740165]}, "properties": {"backcountry": "yes", "internet_access": "no", "tourism": "camp_site", "osm_id": 5169465866}}, {"type": "Feature", "geometry": {"type": "Point", "coordinates": [-78.332359, 38.8860441]}, "properties": {"backcountry": "yes", "internet_access": "no", "tourism": "camp_site", "osm_id": 5169465867}}, {"type": "Feature", "geometry": {"type": "Point", "coordinates": [-77.4006101, 38.4711305]}, "properties": {"source": "EsriWorldImagery", "tourism": "caravan_site", "osm_id": 5205139313}}, {"type": "Feature", "geometry": {"type": "Point", "coordinates": [-77.9994382, 38.985298]}, "properties": {"tourism": "camp_site", "osm_id": 5262530722}}, {"type": "Feature", "geometry": {"type": "Point", "coordinates": [-77.9989564, 38.984788]}, "properties": {"backcountry": "yes", "tourism": "camp_site", "osm_id": 5262530821}}, {"type": "Feature", "geometry": {"type": "Point", "coordinates": [-75.7028826, 39.5675045]}, "properties": {"fee": "yes", "name": "Lums Pond Youth Camping", "tourism": "camp_site", "osm_id": 5282791516}}, {"type": "Feature", "geometry": {"type": "Point", "coordinates": [-78.6281979, 38.991014]}, "properties": {"backcountry": "yes", "tourism": "camp_site", "osm_id": 5922831785}}, {"type": "Feature", "geometry": {"type": "Point", "coordinates": [-78.6374642, 38.995011]}, "properties": {"tourism": "camp_site", "osm_id": 5922831786}}, {"type": "Feature", "geometry": {"type": "Point", "coordinates": [-77.7512084, 39.2865943]}, "properties": {"backcountry": "yes", "name": "4 Mile Campsite", "tourism": "camp_site", "osm_id": 6020756091}}, {"type": "Feature", "geometry": {"type": "Point", "coordinates": [-77.7573372, 39.3415052]}, "properties": {"backcountry": "yes", "caravans": "no", "fee": "no", "group_only": "no", "internet_access": "no", "leisure": "park", "name": "Huckleberry Hill", "operator": "National Park Service", "operator:short": "NPS", "operator:type": "public", "operator:wikidata": "Q308439", "reservation": "no", "sanitary_dump_station": "no", "shower": "no", "tents": "yes", "toilets": "yes", "tourism": "camp_site", "website": "https://www.nps.gov/choh/planyourvisit/camping.htm", "osm_id": 6077597054}}, {"type": "Feature", "geometry": {"type": "Point", "coordinates": [-79.4288199, 38.30629]}, "properties": {"capacity": "5", "fee": "no", "horse": "yes", "name": "Shaws Fork Equestrian Campground", "operator": "United States Forest Service", "tourism": "camp_site", "osm_id": 6168936939}}, {"type": "Feature", "geometry": {"type": "Point", "coordinates": [-78.334845, 38.9286448]}, "properties": {"backcountry": "yes", "tents": "yes", "tourism": "camp_site", "osm_id": 6231504932}}, {"type": "Feature", "geometry": {"type": "Point", "coordinates": [-78.3164995, 38.9470346]}, "properties": {"backcountry": "yes", "tents": "yes", "tourism": "camp_site", "osm_id": 6231504935}}, {"type": "Feature", "geometry": {"type": "Point", "coordinates": [-78.3266193, 38.9522387]}, "properties": {"backcountry": "yes", "tents": "yes", "tourism": "camp_site", "osm_id": 6231504936}}, {"type": "Feature", "geometry": {"type": "Point", "coordinates": [-78.3224004, 38.9520653]}, "properties": {"backcountry": "yes", "tents": "yes", "tourism": "camp_site", "osm_id": 6231504937}}, {"type": "Feature", "geometry": {"type": "Point", "coordinates": [-78.3319032, 38.9585675]}, "properties": {"backcountry": "yes", "tents": "yes", "tourism": "camp_site", "osm_id": 6231504938}}, {"type": "Feature", "geometry": {"type": "Point", "coordinates": [-79.376588, 39.0187853]}, "properties": {"backcountry": "yes", "fee": "no", "informal": "yes", "tourism": "camp_site", "osm_id": 6554364785}}, {"type": "Feature", "geometry": {"type": "Point", "coordinates": [-79.3770216, 39.0068163]}, "properties": {"backcountry": "yes", "fee": "no", "informal": "yes", "tourism": "camp_site", "osm_id": 6554364786}}, {"type": "Feature", "geometry": {"type": "Point", "coordinates": [-79.3819217, 39.0278534]}, "properties": {"backcountry": "yes", "fee": "no", "informal": "yes", "tourism": "camp_site", "osm_id": 6554364885}}, {"type": "Feature", "geometry": {"type": "Point", "coordinates": [-79.3316504, 39.0325843]}, "properties": {"backcountry": "yes", "fee": "no", "informal": "yes", "tourism": "camp_site", "osm_id": 6554364886}}, {"type": "Feature", "geometry": {"type": "Point", "coordinates": [-79.3765022, 39.0054082]}, "properties": {"backcountry": "yes", "fee": "no", "informal": "yes", "tourism": "camp_site", "osm_id": 6554365285}}, {"type": "Feature", "geometry": {"type": "Point", "coordinates": [-79.3657477, 38.9907395]}, "properties": {"backcountry": "yes", "fee": "no", "informal": "yes", "tourism": "camp_site", "osm_id": 6554365286}}, {"type": "Feature", "geometry": {"type": "Point", "coordinates": [-79.3405064, 39.0320066]}, "properties": {"backcountry": "yes", "fee": "no", "informal": "yes", "tourism": "camp_site", "osm_id": 6554365287}}, {"type": "Feature", "geometry": {"type": "Point", "coordinates": [-78.8908468, 38.0604584]}, "properties": {"name": "Hiker Camping", "tourism": "camp_site", "osm_id": 6564657086}}, {"type": "Feature", "geometry": {"type": "Point", "coordinates": [-77.9290826, 39.6050243]}, "properties": {"addr:city": "Falling Waters", "addr:housenumber": "3247", "addr:state": "WV", "addr:street": "Vineyard Road", "name": "River Bend RV Park", "tourism": "caravan_site", "website": "https://www.riverbendrvpark.org/default.php", "osm_id": 6859178819}}, {"type": "Feature", "geometry": {"type": "Point", "coordinates": [-75.9470006, 39.4978423]}, "properties": {"name": "Sandy Hill Camp", "tourism": "camp_site", "website": "https://www.sandyhillcamp.com/", "osm_id": 6965180717}}, {"type": "Feature", "geometry": {"type": "Point", "coordinates": [-75.9791753, 39.5104083]}, "properties": {"addr:city": "North East", "addr:housenumber": "400", "addr:postcode": "21901", "addr:state": "MD", "addr:street": "Rodney Scout Road", "leisure": "summer_camp", "name": "Camp Rodney", "operator": "Del-Mar-Va Council, Boy Scouts of America", "scout": "yes", "tourism": "camp_site", "osm_id": 6965186302}}, {"type": "Feature", "geometry": {"type": "Point", "coordinates": [-75.1387546, 38.6326504]}, "properties": {"name": "Lighthouse Beach RV Resort", "tourism": "caravan_site", "website": "https://www.lighthousebeachde.com/", "osm_id": 6968088869}}, {"type": "Feature", "geometry": {"type": "Point", "coordinates": [-75.2335066, 38.7401942]}, "properties": {"name": "Tall Pines Campground", "tourism": "camp_site", "website": "https://www.tallpines-del.com/", "osm_id": 6968103642}}, {"type": "Feature", "geometry": {"type": "Point", "coordinates": [-75.1306622, 38.7395985]}, "properties": {"name": "Big Oaks Campground", "tourism": "camp_site", "website": "https://bigoakscamping.com/index.html", "osm_id": 6968112329}}, {"type": "Feature", "geometry": {"type": "Point", "coordinates": [-78.397716, 39.5834821]}, "properties": {"backcountry": "yes", "name": "Stickpile Hill Hiker Biker Campsite", "operator": "National Park Service", "tents": "yes", "tourism": "camp_site", "osm_id": 6970326547}}, {"type": "Feature", "geometry": {"type": "Point", "coordinates": [-78.4531711, 39.5712963]}, "properties": {"backcountry": "yes", "name": "Sorrel Ridge Hiker Biker Campsite", "operator": "National Park Service", "tents": "yes", "tourism": "camp_site", "osm_id": 6970338154}}, {"type": "Feature", "geometry": {"type": "Point", "coordinates": [-78.4644493, 39.5351068]}, "properties": {"backcountry": "yes", "name": "Purslane Run Hiker Biker Campsite", "operator": "National Park Service", "tents": "yes", "tourism": "camp_site", "osm_id": 6970338169}}, {"type": "Feature", "geometry": {"type": "Point", "coordinates": [-78.6724252, 38.9326964]}, "properties": {"backcountry": "yes", "tourism": "camp_site", "osm_id": 6983284590}}, {"type": "Feature", "geometry": {"type": "Point", "coordinates": [-77.1824272, 38.5469338]}, "properties": {"backcountry": "yes", "caravans": "no", "group_only": "yes", "name": "Smallwood State Park Youth Group Campsite #1", "tents": "yes", "tourism": "camp_site", "osm_id": 7043023504}}, {"type": "Feature", "geometry": {"type": "Point", "coordinates": [-76.7006253, 38.7513363]}, "properties": {"bbq": "yes", "capacity": "25", "caravans": "no", "drinking_water": "no", "fee": "yes", "group_only": "no", "internet_access": "no", "name": "Selby's Camp", "opening_hours": "closed", "operator": "Prince George's County Department of Parks and Recreation", "operator:type": "public", "operator:wikidata": "Q62029847", "permanent_camping": "no", "phone": "+1 301 627 6074", "picnic_table": "yes", "power_supply": "no", "reservation": "recommended", "tents": "yes", "tourism": "camp_site", "website": "https://www.pgparks.com/3411/Camp-Sites-Pavilion-Rentals", "osm_id": 7052994146}}, {"type": "Feature", "geometry": {"type": "Point", "coordinates": [-78.3850827, 39.1929971]}, "properties": {"tourism": "camp_site", "osm_id": 7086843919}}, {"type": "Feature", "geometry": {"type": "Point", "coordinates": [-75.6729266, 38.3327379]}, "properties": {"addr:city": "Fruitland", "addr:housenumber": "27157", "addr:postcode": "21856", "addr:state": "MD", "name": "Camp Sandy Pines", "tourism": "camp_site", "website": "https://www.gscb.org/en/camp/our-camps/camp-sandy-pines.html", "osm_id": 7087023373}}, {"type": "Feature", "geometry": {"type": "Point", "coordinates": [-76.1960186, 39.6899647]}, "properties": {"access": "private", "addr:city": "Conowingo", "addr:housenumber": "374", "addr:postcode": "21918", "addr:state": "MD", "addr:street": "Bell Manor Road", "name": "Camp Conowingo - Chimney Trail", "operator": "Girl Scouts of Central Maryland", "scout": "yes", "tourism": "camp_site", "osm_id": 7553563254}}, {"type": "Feature", "geometry": {"type": "Point", "coordinates": [-78.631705, 38.9776625]}, "properties": {"backcountry": "yes", "tourism": "camp_site", "osm_id": 7554983588}}, {"type": "Feature", "geometry": {"type": "Point", "coordinates": [-78.6317267, 39.0004025]}, "properties": {"backcountry": "yes", "tourism": "camp_site", "osm_id": 7554996289}}, {"type": "Feature", "geometry": {"type": "Point", "coordinates": [-78.3171602, 38.6872918]}, "properties": {"backcountry": "yes", "capacity": "2", "tourism": "camp_site", "osm_id": 7641292301}}, {"type": "Feature", "geometry": {"type": "Point", "coordinates": [-78.1018546, 38.8794855]}, "properties": {"backcountry": "yes", "caravans": "no", "name": "Mosby Campground", "static_caravans": "no", "tourism": "camp_site", "osm_id": 7711651919}}, {"type": "Feature", "geometry": {"type": "Point", "coordinates": [-79.389538, 38.8367602]}, "properties": {"addr:city": "seneca rocks", "addr:housenumber": "678", "addr:postcode": "26884", "addr:state": "WV", "addr:street": "Allegheny Drive", "name": "Seneca Rocks RV Resort", "phone": "+1-304-567-3302", "tourism": "caravan_site", "website": "http://senecarocksrv.com/", "osm_id": 7872721644}}, {"type": "Feature", "geometry": {"type": "Point", "coordinates": [-77.7956406, 39.4600094]}, "properties": {"backcountry": "yes", "caravans": "no", "drinking_water": "no", "fee": "no", "group_only": "no", "internet_access": "no", "name": "Killiansburg Cave Hiker Biker Campsite", "operator": "National Park Service", "reservation": "no", "sanitary_dump_station": "no", "shower": "no", "tents": "yes", "toilets": "yes", "tourism": "camp_site", "website": "https://www.canaltrust.org/pyv/killiansburg-cave-campsite/", "osm_id": 7924258180}}, {"type": "Feature", "geometry": {"type": "Point", "coordinates": [-77.7746337, 39.486813]}, "properties": {"backcountry": "yes", "caravans": "no", "drinking_water": "no", "fee": "no", "group_only": "no", "internet_access": "no", "name": "Horseshoe Bend Hiker Biker Campsite", "operator": "National Park Service", "reservation": "no", "sanitary_dump_station": "no", "shower": "no", "tents": "yes", "toilets": "yes", "tourism": "camp_site", "website": "https://www.canaltrust.org/pyv/horseshoe-bend-campsite/", "osm_id": 7924298023}}, {"type": "Feature", "geometry": {"type": "Point", "coordinates": [-77.7933581, 39.4922967]}, "properties": {"name": "Big Woods Hiker Biker Campsite", "tourism": "camp_site", "osm_id": 7924307751}}, {"type": "Feature", "geometry": {"type": "Point", "coordinates": [-77.2164814, 38.9772928]}, "properties": {"addr:street": "Potomac, MD 20854", "backcountry": "yes", "caravans": "no", "description": "6 group campsites", "fee": "yes", "group_only": "yes", "name": "Marsden Tract Group Campsite", "reservation": "required", "tents": "yes", "tourism": "camp_site", "website": "https://recreation.gov/camping/campgrounds/251544", "osm_id": 7924309412}}, {"type": "Feature", "geometry": {"type": "Point", "coordinates": [-77.8528702, 39.6092471]}, "properties": {"caravans": "no", "name": "Jordon Junction Hiker Biker Campsite", "static_caravans": "no", "tents": "yes", "tourism": "camp_site", "osm_id": 7924313953}}, {"type": "Feature", "geometry": {"type": "Point", "coordinates": [-77.8721364, 39.5618618]}, "properties": {"backcountry": "yes", "caravans": "no", "name": "Cumberland Valley Hiker Biker Campsite", "static_caravans": "no", "tents": "yes", "tourism": "camp_site", "osm_id": 7924317091}}, {"type": "Feature", "geometry": {"type": "Point", "coordinates": [-78.5387546, 39.5241503]}, "properties": {"caravans": "no", "name": "Town Creek Hiker Biker Camp Site", "static_caravans": "no", "tents": "yes", "tourism": "camp_site", "osm_id": 7924325888}}, {"type": "Feature", "geometry": {"type": "Point", "coordinates": [-78.4134807, 39.6227141]}, "properties": {"backcountry": "yes", "name": "Devils Alley Hiker Biker Campsite", "operator": "National Park Service", "tents": "yes", "tourism": "camp_site", "osm_id": 8014092092}}, {"type": "Feature", "geometry": {"type": "Point", "coordinates": [-79.2132346, 39.3141456]}, "properties": {"addr:housenumber": "166", "addr:postcode": "26717", "addr:state": "WV", "addr:street": "Abrams Creek Dr", "email": "info@abramscreek.com", "name": "Abram\u2019s Creek Retreat & Campground", "phone": "+1-304-825-3555", "tourism": "camp_site", "website": "http://abramscreek.com", "osm_id": 8278543117}}, {"type": "Feature", "geometry": {"type": "Point", "coordinates": [-75.4138829, 38.7392291]}, "properties": {"tourism": "camp_site", "osm_id": 8356227080}}, {"type": "Feature", "geometry": {"type": "Point", "coordinates": [-77.2599706, 38.5851042]}, "properties": {"access": "yes", "camp_site": "basic", "charge": "$5", "fee": "yes", "name": "Leesylvania State Park Primitive Paddle-Only Campsites", "note": "March - October. Paddle-in Only", "tents": "yes", "tourism": "camp_site", "website": "https://www.dcr.virginia.gov/state-parks/leesylvania#cabins_camping", "osm_id": 8398609567}}, {"type": "Feature", "geometry": {"type": "Point", "coordinates": [-77.2605091, 38.5857625]}, "properties": {"tourism": "camp_site", "osm_id": 8398609568}}, {"type": "Feature", "geometry": {"type": "Point", "coordinates": [-78.3708183, 39.2184621]}, "properties": {"addr:city": "Gore", "addr:housenumber": "980", "addr:postcode": "22637", "addr:state": "VA", "addr:street": "Cove Road", "email": "cove@hughes.net", "leisure": "shooting_ground", "name": "The Cove Campground", "note": "Open later during summer season", "opening_hours": "Mo-Su 09:00-17:00", "phone": "+1-540-858-2882", "tourism": "camp_site", "website": "https://www.covecampground.com/", "osm_id": 8500101177}}, {"type": "Feature", "geometry": {"type": "Point", "coordinates": [-77.861883, 39.1122561]}, "properties": {"tourism": "camp_site", "osm_id": 8599958133}}, {"type": "Feature", "geometry": {"type": "Point", "coordinates": [-78.9115012, 37.9442314]}, "properties": {"tourism": "camp_site", "osm_id": 8641480637}}, {"type": "Feature", "geometry": {"type": "Point", "coordinates": [-79.0528082, 37.9407128]}, "properties": {"backcountry": "yes", "tourism": "camp_site", "osm_id": 8707551903}}, {"type": "Feature", "geometry": {"type": "Point", "coordinates": [-79.0882664, 37.9329512]}, "properties": {"backcountry": "yes", "caravans": "no", "fee": "yes", "static_caravans": "no", "tents": "yes", "tourism": "camp_site", "osm_id": 8708061064}}, {"type": "Feature", "geometry": {"type": "Point", "coordinates": [-79.0904862, 37.9323445]}, "properties": {"backcountry": "yes", "caravans": "no", "fee": "yes", "static_caravans": "no", "tents": "yes", "tourism": "camp_site", "osm_id": 8708061065}}, {"type": "Feature", "geometry": {"type": "Point", "coordinates": [-78.6194556, 38.9769031]}, "properties": {"backcountry": "yes", "tourism": "camp_site", "osm_id": 8723021756}}, {"type": "Feature", "geometry": {"type": "Point", "coordinates": [-75.7585635, 38.5332976]}, "properties": {"name": "Lone hawk Outpost (12)", "tourism": "camp_site", "osm_id": 8902431636}}, {"type": "Feature", "geometry": {"type": "Point", "coordinates": [-75.7590154, 38.5349628]}, "properties": {"name": "Patty Cannon Outpost (13)", "tourism": "camp_site", "osm_id": 8902431637}}, {"type": "Feature", "geometry": {"type": "Point", "coordinates": [-75.7567494, 38.5360434]}, "properties": {"name": "Three Councils Outpost (11)", "tourism": "camp_site", "osm_id": 8902431638}}, {"type": "Feature", "geometry": {"type": "Point", "coordinates": [-75.7567285, 38.5393152]}, "properties": {"name": "Ababco Outpost (10)", "tourism": "camp_site", "osm_id": 8902433349}}, {"type": "Feature", "geometry": {"type": "Point", "coordinates": [-75.7573571, 38.5419393]}, "properties": {"backcountry": "yes", "fixme": "Need ground survey", "name": "Tamahawk Outpost (9)", "tents": "yes", "tourism": "camp_site", "osm_id": 8911860193}}, {"type": "Feature", "geometry": {"type": "Point", "coordinates": [-75.7446198, 38.5460454]}, "properties": {"backcountry": "yes", "fixme": "Need ground survey", "name": "Crazy Woman Outpost (3)", "tents": "yes", "tourism": "camp_site", "osm_id": 8911860194}}, {"type": "Feature", "geometry": {"type": "Point", "coordinates": [-75.7419031, 38.5489128]}, "properties": {"backcountry": "yes", "fixme": "Need ground survey", "name": "Hidden Field Outpost (2)", "tents": "yes", "tourism": "camp_site", "osm_id": 8911860195}}, {"type": "Feature", "geometry": {"type": "Point", "coordinates": [-75.7386929, 38.5486547]}, "properties": {"backcountry": "yes", "fixme": "Need ground survey", "name": "Kuskarawa Outpost (1)", "tents": "yes", "tourism": "camp_site", "osm_id": 8911860196}}, {"type": "Feature", "geometry": {"type": "Point", "coordinates": [-75.7481943, 38.550582]}, "properties": {"backcountry": "yes", "fixme": "Need ground survey", "name": "Old Bucket Outpost (4)", "tents": "yes", "tourism": "camp_site", "osm_id": 8911860197}}, {"type": "Feature", "geometry": {"type": "Point", "coordinates": [-75.7504032, 38.5525069]}, "properties": {"backcountry": "yes", "fixme": "Need ground survey", "name": "Dan Beard Outpost (7)", "tents": "yes", "tourism": "camp_site", "osm_id": 8911860198}}, {"type": "Feature", "geometry": {"type": "Point", "coordinates": [-75.7426518, 38.5567739]}, "properties": {"backcountry": "yes", "name": "Lost Mill Outpost (5)", "tents": "yes", "tourism": "camp_site", "osm_id": 8911860199}}, {"type": "Feature", "geometry": {"type": "Point", "coordinates": [-75.7412519, 38.5595466]}, "properties": {"backcountry": "yes", "name": "Boundary Outpost (8)", "tents": "yes", "tourism": "camp_site", "osm_id": 8911860210}}, {"type": "Feature", "geometry": {"type": "Point", "coordinates": [-75.7520757, 38.5577587]}, "properties": {"backcountry": "yes", "name": "Medicine Stick Outpost (8)", "tents": "yes", "tourism": "camp_site", "osm_id": 8911860211}}, {"type": "Feature", "geometry": {"type": "Point", "coordinates": [-77.1822266, 38.5465408]}, "properties": {"FIXME": "Need exact location and outline.", "backcountry": "yes", "caravans": "no", "group_only": "yes", "name": "Smallwood State Park Youth Group Campsite #2", "tents": "yes", "tourism": "camp_site", "osm_id": 9181475742}}, {"type": "Feature", "geometry": {"type": "Point", "coordinates": [-79.3794216, 39.0199349]}, "properties": {"backcountry": "yes", "fee": "no", "informal": "yes", "tourism": "camp_site", "osm_id": 9231615217}}, {"type": "Feature", "geometry": {"type": "Point", "coordinates": [-78.2101947, 39.6779245]}, "properties": {"backcountry": "yes", "drinking_water": "no", "name": "White Rock Hiker Biker Campsite", "toilets": "yes", "tourism": "camp_site", "website": "https://www.canaltrust.org/pyv/white-rock-campground/", "osm_id": 9251881914}}, {"type": "Feature", "geometry": {"type": "Point", "coordinates": [-78.5841671, 38.663172]}, "properties": {"backcountry": "yes", "tourism": "camp_site", "osm_id": 9425706950}}, {"type": "Feature", "geometry": {"type": "Point", "coordinates": [-78.791294, 39.6260188]}, "properties": {"addr:housenumber": "83", "addr:postcode": "26753", "addr:street": "Buser Street", "name": "WV House", "tourism": "camp_site", "osm_id": 9857018117}}, {"type": "Feature", "geometry": {"type": "Point", "coordinates": [-75.9901156, 39.3629783]}, "properties": {"group_only": "yes", "name": "Youth Group Camping Area", "tourism": "camp_site", "osm_id": 9879561038}}, {"type": "Feature", "geometry": {"type": "Point", "coordinates": [-77.0268131, 38.5029068]}, "properties": {"name": "Port Tobacco RV Resort", "tourism": "camp_site", "osm_id": 9953535977}}, {"type": "Feature", "geometry": {"type": "Point", "coordinates": [-79.4442629, 37.986283]}, "properties": {"name": "Camp Ross Site 2", "tourism": "camp_site", "osm_id": 10009692013}}, {"type": "Feature", "geometry": {"type": "Point", "coordinates": [-79.4442732, 37.9858043]}, "properties": {"name": "Camp Ross Site 3", "tourism": "camp_site", "osm_id": 10009692028}}, {"type": "Feature", "geometry": {"type": "Point", "coordinates": [-79.4439162, 37.9867947]}, "properties": {"name": "Camp Ross Site 1", "operator": "Camp Ross", "tourism": "camp_site", "osm_id": 10009692029}}, {"type": "Feature", "geometry": {"type": "Point", "coordinates": [-76.4684576, 38.1609728]}, "properties": {"tourism": "caravan_site", "osm_id": 10158265737}}, {"type": "Feature", "geometry": {"type": "Point", "coordinates": [-78.7145992, 38.4777723]}, "properties": {"tourism": "camp_site", "osm_id": 10299362109}}, {"type": "Feature", "geometry": {"type": "Point", "coordinates": [-77.2816932, 38.3066412]}, "properties": {"name": "American Historyland Mobile Home Park", "tourism": "caravan_site", "osm_id": 10305266910}}, {"type": "Feature", "geometry": {"type": "Point", "coordinates": [-77.3996237, 38.5505449]}, "properties": {"backcountry": "yes", "capacity:persons": "4", "name": "Campsite #2", "tourism": "camp_site", "osm_id": 10934376513}}, {"type": "Feature", "geometry": {"type": "Point", "coordinates": [-77.4024287, 38.5534062]}, "properties": {"backcountry": "yes", "capacity:persons": "4", "name": "Campsite #4", "ref": "BC3", "source": "survey 10/2016", "tourism": "camp_site", "osm_id": 10934376515}}, {"type": "Feature", "geometry": {"type": "Point", "coordinates": [-77.3982899, 38.54931]}, "properties": {"backcountry": "yes", "capacity:persons": "4", "name": "Campsite #1", "ref": "BC1", "source": "survey 5/23", "tourism": "camp_site", "osm_id": 10934376546}}, {"type": "Feature", "geometry": {"type": "Point", "coordinates": [-78.9013216, 38.905261]}, "properties": {"backcountry": "yes", "name": "Site #2", "tourism": "camp_site", "osm_id": 11110150665}}, {"type": "Feature", "geometry": {"type": "Point", "coordinates": [-78.9017948, 38.904784]}, "properties": {"backcountry": "yes", "name": "Horse Camp Site #1", "tourism": "camp_site", "osm_id": 11110150666}}, {"type": "Feature", "geometry": {"type": "Point", "coordinates": [-77.6166118, 39.4962295]}, "properties": {"backcountry": "yes", "caravans": "no", "fee": "no", "group_only": "no", "informal": "yes", "reservation": "no", "static_caravans": "no", "tents": "yes", "tourism": "camp_site", "osm_id": 11137265688}}, {"type": "Feature", "geometry": {"type": "Point", "coordinates": [-76.9208491, 39.6999019]}, "properties": {"addr:city": "Manchester", "addr:housenumber": "2145", "addr:postcode": "21102", "addr:state": "MD", "addr:street": "East Deep Run River Road", "email": "MVBC_BREN@protonmail.com", "name": "Mountain View Bible Camp for Children, Inc.", "start_date": "1947", "tourism": "camp_site", "website": "http://www.mountainviewbiblecamp.org/", "osm_id": 11265544715}}, {"type": "Feature", "geometry": {"type": "Point", "coordinates": [-78.4292701, 38.7569091]}, "properties": {"addr:city": "Luray", "addr:housenumber": "6502", "addr:postcode": "22835", "addr:state": "VA", "addr:street": "S. Page Valley Rd", "name": "Camp Outback", "tourism": "camp_site", "osm_id": 11328409861}}, {"type": "Feature", "geometry": {"type": "Point", "coordinates": [-77.4002318, 38.5524381]}, "properties": {"backcountry": "yes", "capacity:persons": "4", "name": "Campsite #5", "ref": "BC3", "source": "survey 10/2016", "tourism": "camp_site", "osm_id": 11368993777}}, {"type": "Feature", "geometry": {"type": "Point", "coordinates": [-76.4709017, 39.4358417]}, "properties": {"group_only": "yes", "name": "Site 8", "tourism": "camp_site", "osm_id": 11795928388}}, {"type": "Feature", "geometry": {"type": "Point", "coordinates": [-76.4677905, 39.4376919]}, "properties": {"group_only": "yes", "name": "Site 4", "tourism": "camp_site", "osm_id": 11795928391}}, {"type": "Feature", "geometry": {"type": "Point", "coordinates": [-76.4704121, 39.4364764]}, "properties": {"group_only": "yes", "name": "Site 5", "tourism": "camp_site", "osm_id": 11799722483}}, {"type": "Feature", "geometry": {"type": "Point", "coordinates": [-76.4702, 39.4354287]}, "properties": {"group_only": "yes", "name": "Site 7", "tourism": "camp_site", "osm_id": 11799732239}}, {"type": "Feature", "geometry": {"type": "Point", "coordinates": [-77.9224626, 39.0624632]}, "properties": {"backcountry": "yes", "caravans": "no", "fee": "no", "static_caravans": "no", "tents": "yes", "tourism": "camp_site", "osm_id": 11933126967}}, {"type": "Feature", "geometry": {"type": "Point", "coordinates": [-77.9163552, 39.0703115]}, "properties": {"backcountry": "yes", "caravans": "no", "fee": "no", "static_caravans": "no", "tents": "yes", "tourism": "camp_site", "osm_id": 11933139218}}, {"type": "Feature", "geometry": {"type": "Point", "coordinates": [-77.923487, 39.0616221]}, "properties": {"backcountry": "yes", "caravans": "no", "fee": "no", "static_caravans": "no", "tents": "yes", "tourism": "camp_site", "osm_id": 11933148637}}, {"type": "Feature", "geometry": {"type": "Point", "coordinates": [-77.1728664, 38.6746087]}, "properties": {"name": "Campground site #133", "tourism": "camp_site", "osm_id": 11950682469}}, {"type": "Feature", "geometry": {"type": "Point", "coordinates": [-78.6367946, 38.6066998]}, "properties": {"backcountry": "yes", "tourism": "camp_site", "osm_id": 11969139094}}, {"type": "Feature", "geometry": {"type": "Point", "coordinates": [-78.6371709, 38.5943465]}, "properties": {"backcountry": "yes", "tourism": "camp_site", "osm_id": 11969139106}}, {"type": "Feature", "geometry": {"type": "Point", "coordinates": [-78.6291728, 38.5980627]}, "properties": {"backcountry": "yes", "tourism": "camp_site", "osm_id": 11987605424}}, {"type": "Feature", "geometry": {"type": "Point", "coordinates": [-78.550837, 38.699652]}, "properties": {"backcountry": "yes", "tourism": "camp_site", "osm_id": 11990669928}}, {"type": "Feature", "geometry": {"type": "Point", "coordinates": [-78.5506671, 38.700925]}, "properties": {"backcountry": "yes", "tourism": "camp_site", "osm_id": 11990669929}}, {"type": "Feature", "geometry": {"type": "Point", "coordinates": [-78.5492203, 38.702767]}, "properties": {"backcountry": "yes", "tourism": "camp_site", "osm_id": 11990669932}}, {"type": "Feature", "geometry": {"type": "Point", "coordinates": [-78.732746, 39.6171897]}, "properties": {"access": "yes", "backcountry": "yes", "caravans": "no", "fee": "no", "name": "Evitts Creek Hiker / Biker Campsite", "operator": "National Park Service", "static_caravans": "no", "tents": "yes", "tourism": "camp_site", "osm_id": 12270829428}}, {"type": "Feature", "geometry": {"type": "Point", "coordinates": [-79.3953812, 38.9936425]}, "properties": {"access": "yes", "backcountry": "yes", "fee": "no", "tents": "yes", "tourism": "camp_site", "osm_id": 12280838049}}, {"type": "Feature", "geometry": {"type": "Point", "coordinates": [-79.3883456, 38.9975574]}, "properties": {"backcountry": "yes", "capacity:tents": "1", "fee": "no", "tents": "yes", "tourism": "camp_site", "osm_id": 12280951712}}, {"type": "Feature", "geometry": {"type": "Point", "coordinates": [-79.3767436, 39.0074021]}, "properties": {"backcountry": "yes", "fee": "no", "tourism": "camp_site", "osm_id": 12284423826}}, {"type": "Feature", "geometry": {"type": "Point", "coordinates": [-79.3571903, 38.9924583]}, "properties": {"backcountry": "yes", "fee": "no", "tourism": "camp_site", "osm_id": 12284423827}}, {"type": "Feature", "geometry": {"type": "Point", "coordinates": [-79.3561554, 38.9942657]}, "properties": {"backcountry": "yes", "fee": "no", "tourism": "camp_site", "osm_id": 12284458328}}, {"type": "Feature", "geometry": {"type": "Point", "coordinates": [-79.3654277, 38.9907439]}, "properties": {"backcountry": "yes", "fee": "no", "tourism": "camp_site", "osm_id": 12284468382}}, {"type": "Feature", "geometry": {"type": "Point", "coordinates": [-79.3767707, 39.0057649]}, "properties": {"backcountry": "yes", "fee": "no", "tourism": "camp_site", "osm_id": 12284480359}}, {"type": "Feature", "geometry": {"type": "Point", "coordinates": [-79.3730912, 38.9803245]}, "properties": {"backcountry": "yes", "fee": "no", "tourism": "camp_site", "osm_id": 12284480360}}, {"type": "Feature", "geometry": {"type": "Point", "coordinates": [-79.355941, 38.9956448]}, "properties": {"backcountry": "yes", "fee": "no", "tourism": "camp_site", "osm_id": 12284486454}}, {"type": "Feature", "geometry": {"type": "Point", "coordinates": [-79.355399, 38.995342]}, "properties": {"backcountry": "yes", "fee": "no", "tourism": "camp_site", "osm_id": 12284494473}}, {"type": "Feature", "geometry": {"type": "Point", "coordinates": [-79.3568018, 38.9935357]}, "properties": {"backcountry": "yes", "fee": "no", "tourism": "camp_site", "osm_id": 12284502409}}, {"type": "Feature", "geometry": {"type": "Point", "coordinates": [-79.3864221, 39.0012673]}, "properties": {"backcountry": "yes", "fee": "no", "tourism": "camp_site", "osm_id": 12284514022}}, {"type": "Feature", "geometry": {"type": "Point", "coordinates": [-79.3566679, 38.9928003]}, "properties": {"backcountry": "yes", "fee": "no", "tourism": "camp_site", "osm_id": 12284514023}}, {"type": "Feature", "geometry": {"type": "Point", "coordinates": [-79.3761558, 39.0051037]}, "properties": {"backcountry": "yes", "fee": "no", "tourism": "camp_site", "osm_id": 12284517161}}, {"type": "Feature", "geometry": {"type": "Point", "coordinates": [-79.3699418, 38.9818527]}, "properties": {"backcountry": "yes", "fee": "no", "tourism": "camp_site", "osm_id": 12284517162}}, {"type": "Feature", "geometry": {"type": "Point", "coordinates": [-79.3663513, 38.9918756]}, "properties": {"backcountry": "yes", "fee": "no", "tourism": "camp_site", "osm_id": 12284518332}}, {"type": "Feature", "geometry": {"type": "Point", "coordinates": [-79.3864255, 39.0006736]}, "properties": {"backcountry": "yes", "fee": "no", "tourism": "camp_site", "osm_id": 12284523534}}, {"type": "Feature", "geometry": {"type": "Point", "coordinates": [-79.3571304, 38.9932538]}, "properties": {"backcountry": "yes", "fee": "no", "tourism": "camp_site", "osm_id": 12284523535}}, {"type": "Feature", "geometry": {"type": "Point", "coordinates": [-79.373057, 38.9801512]}, "properties": {"backcountry": "yes", "fee": "no", "tourism": "camp_site", "osm_id": 12284523536}}, {"type": "Feature", "geometry": {"type": "Point", "coordinates": [-79.3659183, 38.991063]}, "properties": {"backcountry": "yes", "fee": "no", "tourism": "camp_site", "osm_id": 12284523762}}, {"type": "Feature", "geometry": {"type": "Point", "coordinates": [-79.3730062, 38.9804835]}, "properties": {"backcountry": "yes", "fee": "no", "tourism": "camp_site", "osm_id": 12284523826}}, {"type": "Feature", "geometry": {"type": "Point", "coordinates": [-79.3761169, 39.0039362]}, "properties": {"backcountry": "yes", "fee": "no", "tourism": "camp_site", "osm_id": 12284524110}}, {"type": "Feature", "geometry": {"type": "Point", "coordinates": [-79.3708452, 38.9811937]}, "properties": {"backcountry": "yes", "fee": "no", "tourism": "camp_site", "osm_id": 12284524812}}, {"type": "Feature", "geometry": {"type": "Point", "coordinates": [-78.3338415, 38.9244474]}, "properties": {"backcountry": "yes", "tourism": "camp_site", "osm_id": 12327070781}}, {"type": "Feature", "geometry": {"type": "Point", "coordinates": [-78.3534044, 38.9449842]}, "properties": {"backcountry": "yes", "tourism": "camp_site", "osm_id": 12327072598}}, {"type": "Feature", "geometry": {"type": "Point", "coordinates": [-78.3529802, 38.9466695]}, "properties": {"backcountry": "yes", "tourism": "camp_site", "osm_id": 12327112703}}, {"type": "Feature", "geometry": {"type": "Point", "coordinates": [-77.2128634, 38.6327979]}, "properties": {"backcountry": "yes", "name": "Canoe-In Campground", "tourism": "camp_site", "osm_id": 12616242038}}, {"type": "Feature", "geometry": {"type": "Point", "coordinates": [-79.3784811, 39.019341]}, "properties": {"tourism": "camp_site", "osm_id": 12714841235}}, {"type": "Feature", "geometry": {"type": "Point", "coordinates": [-79.3801439, 39.0232127]}, "properties": {"tourism": "camp_site", "osm_id": 12714857726}}, {"type": "Feature", "geometry": {"type": "Point", "coordinates": [-79.3769353, 39.0062924]}, "properties": {"tourism": "camp_site", "osm_id": 12714858018}}, {"type": "Feature", "geometry": {"type": "Point", "coordinates": [-79.36175, 38.3378228]}, "properties": {"backcountry": "yes", "camp_site": "basic", "caravans": "no", "ele": "918", "fee": "no", "gnis:feature_id": "1739665", "name": "Old Sexton Cabin Site", "static_caravans": "no", "tents": "yes", "tourism": "camp_site", "osm_id": 12784266435}}, {"type": "Feature", "geometry": {"type": "Point", "coordinates": [-79.3175015, 38.3715689]}, "properties": {"backcountry": "yes", "camp_site": "basic", "tourism": "camp_site", "osm_id": 12786616111}}, {"type": "Feature", "geometry": {"type": "Point", "coordinates": [-79.2278387, 38.1341742]}, "properties": {"access": "private", "addr:city": "Swoope", "addr:housenumber": "222", "addr:postcode": "24479", "addr:state": "VA", "addr:street": "Boy Scout Lane", "camp_site": "serviced", "caravans": "no", "description": "Camp Shenandoah is a year-round, 500-acre Scout Reservation nestled amongst the Appalachian foothills in the beautiful Shenandoah Valley of Virginia.", "email": "director@campshenandoah.org", "fee": "yes", "gnis:feature_id": "1482275", "name": "Camp Shenandoah BSA", "operator": "Scouting America", "phone": "+1 540 943 6675", "static_caravans": "no", "tents": "yes", "tourism": "camp_site", "website": "https://www.campshenandoah.org/", "osm_id": 12802545880}}, {"type": "Feature", "geometry": {"type": "Point", "coordinates": [-77.0888255, 38.7084807]}, "properties": {"description": "Experience the American Revolution as you walk through an 18th-century Continental Army encampment featuring soldiers' tents and an officer\u2019s tent. Get hands-on discovering items throughout the encampment.", "name": "Patriots Path: A Revolutionary War Encampment", "tourism": "camp_site", "osm_id": 12812409486}}, {"type": "Feature", "geometry": {"type": "Point", "coordinates": [-79.3230802, 39.0642543]}, "properties": {"tourism": "camp_site", "osm_id": 12830500152}}, {"type": "Feature", "geometry": {"type": "Point", "coordinates": [-79.3401334, 39.0611852]}, "properties": {"tourism": "camp_site", "osm_id": 12830523893}}, {"type": "Feature", "geometry": {"type": "Point", "coordinates": [-79.3313468, 39.0640833]}, "properties": {"description": "no water", "tourism": "camp_site", "osm_id": 12830535560}}, {"type": "Feature", "geometry": {"type": "Point", "coordinates": [-79.3561278, 39.0524117]}, "properties": {"tourism": "camp_site", "osm_id": 12830543999}}, {"type": "Feature", "geometry": {"type": "Point", "coordinates": [-79.3683424, 39.0628621]}, "properties": {"description": "no water", "tourism": "camp_site", "osm_id": 12830544091}}, {"type": "Feature", "geometry": {"type": "Point", "coordinates": [-79.3627414, 39.0504956]}, "properties": {"tourism": "camp_site", "osm_id": 12830547829}}, {"type": "Feature", "geometry": {"type": "Point", "coordinates": [-79.3568404, 39.0513449]}, "properties": {"tourism": "camp_site", "osm_id": 12830549204}}, {"type": "Feature", "geometry": {"type": "Point", "coordinates": [-79.3232704, 39.064099]}, "properties": {"tourism": "camp_site", "osm_id": 12830555632}}, {"type": "Feature", "geometry": {"type": "Point", "coordinates": [-76.6750745, 38.8823024]}, "properties": {"access": "yes", "backcountry": "yes", "camp_site": "basic", "capacity:persons": "6", "caravans": "no", "charge": "10", "fee": "yes", "name": "Ford Campsite at Stocketts Run", "note": "Location is approximate:\n38.88215, -76.67475", "operator": "Anne Arundel County", "picnic_table": "yes", "static_caravans": "no", "tents": "yes", "tourism": "camp_site", "website": "https://www.aacounty.org/recreation-parks/parks/popular-activities/paddle-camping", "osm_id": 12887894342}}, {"type": "Feature", "geometry": {"type": "Point", "coordinates": [-75.911298, 38.1760089]}, "properties": {"camp_site": "basic", "fee": "no", "name": "Deal Island Primitive Campsite", "note": "Mosquito swarms from Spring to Early Fall. Water access from site, water is rather shallow in and after late Spring. Mosquitoes less prevalent out in open water, even less so on the designated MD water trail further south.", "operator": "Deal Island WMA", "phone": "+1-410-651-2065", "static_caravans": "no", "tents": "yes", "tourism": "camp_site", "osm_id": 12900269325}}, {"type": "Feature", "geometry": {"type": "Point", "coordinates": [-77.3267536, 38.4074273]}, "properties": {"access": "yes", "camp_site": "basic", "caravans": "no", "fixme": "Check exact location", "name": "Widewater State Park Primitive Campsites", "note": "4 Paddle-In Campsites", "static_caravans": "no", "tents": "yes", "tourism": "camp_site", "osm_id": 12902191828}}, {"type": "Feature", "geometry": {"type": "Point", "coordinates": [-77.4874733, 39.644906]}, "properties": {"name": "Camp Ground Meadow", "operator": "National Park Service", "tourism": "camp_site", "osm_id": 13121529090}}, {"type": "Feature", "geometry": {"type": "Point", "coordinates": [-78.4534974, 39.6173148]}, "properties": {"name": "Campsite 68", "tourism": "camp_site", "osm_id": 13125270701}}, {"type": "Feature", "geometry": {"type": "Point", "coordinates": [-77.4843807, 39.6780729]}, "properties": {"access": "yes", "name": "Adirondack Shelters Camping Area", "operator": "National Park Service", "tourism": "camp_site", "website": "https://www.recreation.gov/camping/campgrounds/233321", "osm_id": 13127400430}}, {"type": "Feature", "geometry": {"type": "Point", "coordinates": [-79.3589825, 39.0364259]}, "properties": {"backcountry": "yes", "tourism": "camp_site", "osm_id": 13322549310}}, {"type": "Feature", "geometry": {"type": "Point", "coordinates": [-79.0703049, 37.9562473]}, "properties": {"description": "A historical hunting site (hut?) established circa 1930.", "ele": "978", "gnis:feature_id": "1739654", "name": "Pine Spring Camp", "tourism": "camp_site", "osm_id": 13392113956}}, {"type": "Feature", "geometry": {"type": "Point", "coordinates": [-79.2742147, 38.369655]}, "properties": {"ele": "719", "gnis:feature_id": "1482280", "name": "Camp Todd", "tourism": "camp_site", "osm_id": 13395839063}}, {"type": "Feature", "geometry": {"type": "Point", "coordinates": [-79.16559, 38.3648478]}, "properties": {"access": "private", "ele": "490", "gnis:feature_id": "1482258", "name": "Camp May Flather", "operator": "Girl Scouts Nation's Capital", "tourism": "camp_site", "website": "https://www.gscnc.org/en/members/for-girl-scouts/camp-and-outdoors/virginia-camp-properties/camp-may-flather.html", "osm_id": 13395839064}}, {"type": "Feature", "geometry": {"type": "Point", "coordinates": [-77.156633, 38.683582]}, "properties": {"name": "Tent Camping", "tourism": "camp_site", "osm_id": 13438655765}}, {"type": "Feature", "geometry": {"type": "Point", "coordinates": [-75.059466, 39.5991056]}, "properties": {"name": "Operation Safe Haven", "tourism": "camp_site", "osm_id": 40399753}}, {"type": "Feature", "geometry": {"type": "Point", "coordinates": [-77.2641203, 38.2330922]}, "properties": {"caravans": "yes", "fee": "yes", "group_only": "no", "name": "Four Winds Campground", "power_supply": "yes", "sanitary_dump_station": "yes", "tents": "yes", "tourism": "caravan_site", "website": "https://www.clubfourwinds.com/camping-rates/", "osm_id": 44851687}}, {"type": "Feature", "geometry": {"type": "Point", "coordinates": [-76.5060486, 38.2221504]}, "properties": {"addr:city": "Callaway", "addr:country": "US", "addr:housenumber": "45285", "addr:postcode": "20620", "addr:state": "MD", "addr:street": "Take It Easy Ranch Road", "email": "takeiteasycampground@gmail.com", "fee": "yes", "internet_access": "wlan", "internet_access:fee": "no", "name": "Take It Easy Campground", "power_supply": "yes", "reservation": "yes", "sanitary_dump_station": "customers", "shower": "yes", "tents": "yes", "toilets": "yes", "tourism": "caravan_site", "website": "http://takeiteasycampground.com", "osm_id": 48098811}}, {"type": "Feature", "geometry": {"type": "Point", "coordinates": [-77.6648661, 38.8260602]}, "properties": {"disused": "yes", "name": "Old Staff Tent Platforms", "tourism": "camp_site", "osm_id": 64864353}}, {"type": "Feature", "geometry": {"type": "Point", "coordinates": [-77.3217599, 38.9632004]}, "properties": {"bbq": "yes", "capacity": "55", "caravans": "yes", "drinking_water": "yes", "fee": "yes", "name": "Lake Fairfax Campground A", "openfire": "yes", "operator": "Fairfax County Parks Authority", "payment:coins": "yes", "payment:cryptocurrencies": "no", "payment:electronic_purses": "no", "payment:mastercard": "yes", "payment:notes": "yes", "payment:visa": "yes", "payment:visa_debit": "yes", "power_supply": "yes", "reservation": "recommended", "sanitary_dump_station": "yes", "tents": "yes", "tourism": "camp_site", "website": "https://www.fairfaxcounty.gov/parks/lake-fairfax/camping", "osm_id": 78343467}}, {"type": "Feature", "geometry": {"type": "Point", "coordinates": [-76.7286249, 39.0948705]}, "properties": {"access": "private", "fee": "yes", "name": "Camp Meade RV Park", "operator": "Army MWR", "phone": "+1 301 677 6196", "power_supply": "yes", "reservation": "required", "sanitary_dump_station": "customers", "tents": "yes", "tourism": "caravan_site", "website": "https://meade.armymwr.com/programs/camp-meade-rv-park", "osm_id": 85684338}}, {"type": "Feature", "geometry": {"type": "Point", "coordinates": [-75.0661121, 38.6051399]}, "properties": {"name": "South Inlet Campground", "source": "Bing Aerial Imagery, local knowledge", "tourism": "camp_site", "osm_id": 86177632}}, {"type": "Feature", "geometry": {"type": "Point", "coordinates": [-77.3016941, 38.7691178]}, "properties": {"backcountry": "no", "bbq": "yes", "caravans": "yes", "drinking_water": "yes", "fee": "yes", "group_only": "no", "leisure": "firepit", "name": "Burke Lake Park Campground", "operator": "Fairfax County", "payment:coins": "yes", "payment:cryptocurrencies": "no", "payment:electronic_purses": "no", "payment:mastercard": "yes", "payment:notes": "yes", "payment:visa": "yes", "payment:visa_debit": "yes", "power_supply": "no", "reservation": "recommended", "sanitary_dump_station": "customers", "tents": "yes", "tourism": "camp_site", "website": "https://www.fairfaxcounty.gov/parks/burke-lake/campgrounds", "osm_id": 108332483}}, {"type": "Feature", "geometry": {"type": "Point", "coordinates": [-78.4779396, 38.437128]}, "properties": {"backcountry": "no", "cabins": "yes", "capacity:pitches": "30", "caravans": "yes", "drinking_water": "yes", "fee": "yes", "group_only": "no", "internet_access": "no", "name": "Lewis Mountain Campground", "nudism": "no", "operator": "National Park Service", "power_supply": "no", "reservation": "no", "sanitary_dump_station": "no", "tents": "yes", "toilets": "yes", "tourism": "camp_site", "website": "https://www.nps.gov/shen/planyourvisit/campgrounds.htm", "wikidata": "Q63565486", "osm_id": 186071830}}, {"type": "Feature", "geometry": {"type": "Point", "coordinates": [-75.096946, 38.7759331]}, "properties": {"addr:city": "Lewes", "addr:housenumber": "15411", "addr:postcode": "19958", "addr:state": "DE", "addr:street": "Campground Road", "name": "Cape Henlopen State Park Campground", "operator": "Delaware State Parks", "operator:wikidata": "Q5253364", "tourism": "camp_site", "osm_id": 196122181}}, {"type": "Feature", "geometry": {"type": "Point", "coordinates": [-76.7014563, 38.7574235]}, "properties": {"backcountry": "yes", "bbq": "yes", "capacity": "25", "caravans": "no", "drinking_water": "no", "fee": "yes", "group_only": "no", "internet_access": "no", "leisure": "park", "name": "Patuxent River Park Canoe Camp", "operator": "Prince George's County Department of Parks and Recreation", "operator:type": "public", "operator:wikidata": "Q62029847", "permanent_camping": "no", "phone": "+1 301 627 6074", "picnic_table": "yes", "power_supply": "no", "reservation": "required", "sanitary_dump_station": "no", "shower": "no", "tents": "yes", "toilets": "yes", "tourism": "camp_site", "website": "https://www.pgparks.com/3411/Camp-Sites-Pavilion-Rentals", "osm_id": 216274034}}, {"type": "Feature", "geometry": {"type": "Point", "coordinates": [-78.2968949, 38.7638443]}, "properties": {"backcountry": "no", "capacity:caravans": "165", "capacity:pitches": "165", "capacity:tents": "165", "caravans": "yes", "drinking_water": "yes", "fee": "yes", "group_only": "no", "internet_access": "no", "name": "Matthews Arm Campground", "operator": "National Park Service", "operator:short": "NPS", "operator:type": "public", "operator:wikidata": "Q308439", "operator:wikipedia": "en:National Park Service", "sanitary_dump_station": "yes", "shower": "no", "static_caravans": "no", "tents": "yes", "toilets": "yes", "tourism": "camp_site", "website": "https://www.nps.gov/shen/planyourvisit/mathews-arm-campground.htm", "osm_id": 224194057}}, {"type": "Feature", "geometry": {"type": "Point", "coordinates": [-78.4368673, 38.5286156]}, "properties": {"access": "yes", "capacity:caravans": "150", "capacity:groups": "2", "capacity:pitches": "221", "capacity:tents": "221", "caravans": "yes", "fee": "yes", "internet_access": "no", "name": "Big Meadows Campground", "nudism": "no", "opening_hours": "Mar 30-Nov 30 open", "operator": "National Park Service", "operator:short": "NPS", "operator:type": "public", "operator:wikidata": "Q308439", "operator:wikipedia": "en:National Park Service", "reservation": "required", "sanitary_dump_station": "yes", "shower": "yes", "static_caravans": "no", "tents": "yes", "toilets": "yes", "tourism": "camp_site", "website": "https://www.nps.gov/shen/planyourvisit/big-meadows-campground.htm", "wikidata": "Q63565430", "osm_id": 224194081}}, {"type": "Feature", "geometry": {"type": "Point", "coordinates": [-75.066199, 38.6100452]}, "properties": {"name": "North Inlet Campground", "tourism": "caravan_site", "osm_id": 225521725}}, {"type": "Feature", "geometry": {"type": "Point", "coordinates": [-78.4614028, 39.5449669]}, "properties": {"caravans": "no", "landuse": "grass", "name": "Paw Paw Campground", "tents": "yes", "tourism": "camp_site", "osm_id": 228681605}}, {"type": "Feature", "geometry": {"type": "Point", "coordinates": [-76.9441008, 39.0259918]}, "properties": {"addr:city": "College Park", "addr:country": "US", "addr:housenumber": "9800", "addr:postcode": "20740", "addr:state": "MD", "addr:street": "Cherry Hill Road", "backcountry": "no", "caravans": "yes", "contact:facebook": "CherryHillPark", "contact:instagram": "cherryhillpark", "email": "info@cherryhillpark.com", "group_only": "no", "internet_access": "wlan", "name": "Cherry Hill Park", "phone": "+1 301 937 7116", "power_supply": "yes", "reservation": "required", "sanitary_dump_station": "customers", "tents": "yes", "tourism": "camp_site", "website": "https://www.cherryhillpark.com/", "osm_id": 235772273}}, {"type": "Feature", "geometry": {"type": "Point", "coordinates": [-79.2070336, 38.3393321]}, "properties": {"description": "This open area campground was originally constructed as a CCC camp. Evidence of the original sites and logging trails still remain today. North River Gorge is a popular hiking, biking, and fishing area with a swinging bridge spanning the North River.", "ele": "560", "fee": "yes", "gnis:feature_id": "1485917", "name": "North River Campground", "note": "Open mid Mar-mid Dec, No drinking water available, Vault toilets", "operator": "George Washington National Forest, North River Ranger District", "phone": "+1-540-432-0187", "toilets": "yes", "tourism": "camp_site", "website": "https://www.fs.usda.gov/recarea/gwj/null/recarea/?recid=73869&actid=29", "osm_id": 259415422}}, {"type": "Feature", "geometry": {"type": "Point", "coordinates": [-79.2111716, 38.3657762]}, "properties": {"caravans": "yes", "fee": "yes", "name": "Todd Lake Recreation Area Campground", "operator": "George Washington National Forest, North River Ranger District", "payment:cash": "yes", "phone": "+1-540-432-0187", "shower": "yes", "tents": "yes", "toilets": "yes", "tourism": "camp_site", "website": "https://www.fs.usda.gov/recarea/gwj/null/recarea/?recid=73991&actid=29", "osm_id": 259415423}}, {"type": "Feature", "geometry": {"type": "Point", "coordinates": [-75.1365517, 38.2381451]}, "properties": {"backcountry": "no", "caravans": "no", "group_only": "yes", "name": "Youth Camping Area", "tents": "yes", "tourism": "camp_site", "osm_id": 265398924}}, {"type": "Feature", "geometry": {"type": "Point", "coordinates": [-77.4177346, 38.5993455]}, "properties": {"access": "permit", "capacity:pitches": "67", "capacity:tents": "33", "caravans": "yes", "charge": "26 USD/day", "dog": "leashed", "drinking_water": "yes", "fee": "yes", "group_only": "no", "internet_access": "no", "laundry_service": "no", "name": "Oak Ridge Campground", "opening_hours": "Mar-Nov", "operator": "National Park Service", "operator:wikipedia": "en:National Park Service", "reservation": "required", "shower": "yes", "tents": "yes", "tourism": "camp_site", "website": "https://www.nps.gov/prwi/planyourvisit/oakridge.htm", "osm_id": 266761488}}, {"type": "Feature", "geometry": {"type": "Point", "coordinates": [-77.3730665, 38.5816407]}, "properties": {"access": "permit", "addr:city": "Triangle", "addr:housenumber": "5475", "addr:postcode": "22172", "addr:state": "VA", "addr:street": "Turkey Run Road", "camp_site": "standard", "caravans": "no", "charge": "65 USD/day", "fee": "yes", "name": "Turkey Run Ridge Group Campground", "operator": "National Park Service", "operator:short": "NPS", "operator:type": "public", "operator:wikidata": "Q308439", "operator:wikipedia": "en:National Park Service", "seasonal": "no", "static_caravans": "no", "tents": "yes", "tourism": "camp_site", "website": "https://www.nps.gov/prwi/planyourvisit/turkeyrunridge.htm", "osm_id": 266762125}}, {"type": "Feature", "geometry": {"type": "Point", "coordinates": [-76.7010801, 39.6909222]}, "properties": {"name": "Merry Meadows", "old_name": "Morris Meadows Recreation Farm", "tourism": "camp_site", "website": "http://www.merrymeadows.com/", "osm_id": 297307820}}, {"type": "Feature", "geometry": {"type": "Point", "coordinates": [-75.9169445, 39.3895592]}, "properties": {"name": "Glen 1", "note": "Addressing in Indian Acres is done by Glens and Lots, for example, \"Glen 7, Lot 10\" or \"7-10\" for short.", "tourism": "caravan_site", "osm_id": 301655657}}, {"type": "Feature", "geometry": {"type": "Point", "coordinates": [-75.9160849, 39.3914495]}, "properties": {"name": "Glen 2", "note": "Addressing in Indian Acres is done by Glens and Lots, for example, \"Glen 7, Lot 10\" or \"7-10\" for short.", "tourism": "caravan_site", "osm_id": 301655658}}, {"type": "Feature", "geometry": {"type": "Point", "coordinates": [-75.9098582, 39.3907415]}, "properties": {"name": "Glen 3", "note": "Addressing in Indian Acres is done by Glens and Lots, for example, \"Glen 7, Lot 10\" or \"7-10\" for short.", "tourism": "caravan_site", "osm_id": 301655659}}, {"type": "Feature", "geometry": {"type": "Point", "coordinates": [-75.9067728, 39.388914]}, "properties": {"name": "Glen 4", "note": "Addressing in Indian Acres is done by Glens and Lots, for example, \"Glen 7, Lot 10\" or \"7-10\" for short.", "tourism": "caravan_site", "osm_id": 301655660}}, {"type": "Feature", "geometry": {"type": "Point", "coordinates": [-75.9169548, 39.3835998]}, "properties": {"name": "Glen 5", "note": "Addressing in Indian Acres is done by Glens and Lots, for example, \"Glen 7, Lot 10\" or \"7-10\" for short.", "tourism": "caravan_site", "osm_id": 301655661}}, {"type": "Feature", "geometry": {"type": "Point", "coordinates": [-75.9212924, 39.386334]}, "properties": {"name": "Glen 6", "note": "Addressing in Indian Acres is done by Glens and Lots, for example, \"Glen 7, Lot 10\" or \"7-10\" for short.", "tourism": "caravan_site", "osm_id": 301655662}}, {"type": "Feature", "geometry": {"type": "Point", "coordinates": [-75.914352, 39.3869106]}, "properties": {"name": "Glen 8", "note": "Addressing in Indian Acres is done by Glens and Lots, for example, \"Glen 7, Lot 10\" or \"7-10\" for short.", "tourism": "caravan_site", "osm_id": 301655663}}, {"type": "Feature", "geometry": {"type": "Point", "coordinates": [-75.9122531, 39.3884186]}, "properties": {"name": "Glen 9", "note": "Addressing in Indian Acres is done by Glens and Lots, for example, \"Glen 7, Lot 10\" or \"7-10\" for short.", "tourism": "caravan_site", "osm_id": 301655664}}, {"type": "Feature", "geometry": {"type": "Point", "coordinates": [-75.7495347, 38.5484665]}, "properties": {"addr:city": "Rhodesdale", "addr:housenumber": "5700", "addr:postcode": "21659", "addr:state": "MD", "addr:street": "Nanticoke Road", "alt_name": "Camp Nanticoke", "boundary": "protected_area", "cabins": "yes", "caravans": "no", "drinking_water": "yes", "email": "hsr@dmvc.org", "group_only": "yes", "internet_access": "wlan", "leisure": "nature_reserve", "name": "Henson Scout Reservation", "official_name": "DNR Held Conservation Easement", "openfire": "yes", "operator": "Del-Mar-Va Council, Boy Scouts of America", "phone": "+1-410-202-0053", "picnic_table": "yes", "protect_class": "5", "protection_title": "Conservancy Easement Department of Natural Resources", "reservation": "required", "scout": "yes", "start_date": "1965", "tents": "yes", "tourism": "camp_site", "website": "https://www.delmarvacouncil.org/henson-scout-reservation", "osm_id": 314929989}}, {"type": "Feature", "geometry": {"type": "Point", "coordinates": [-75.1543755, 38.2000371]}, "properties": {"backcountry": "no", "caravans": "yes", "group_only": "no", "name": "Oceanside Assateague Campground", "operator": "National Park Service - Assateague Island National Seashore", "tents": "yes", "tourism": "camp_site", "website": "https://www.nps.gov/asis/planyourvisit/marylandcamping.htm", "osm_id": 322280915}}, {"type": "Feature", "geometry": {"type": "Point", "coordinates": [-75.1619035, 38.2080148]}, "properties": {"backcountry": "no", "caravans": "yes", "group_only": "no", "name": "Bayside Assateague Campground", "operator": "National Park Service - Assateague Island National Seashore", "tents": "yes", "tourism": "camp_site", "website": "https://www.nps.gov/asis/planyourvisit/marylandcamping.htm", "osm_id": 322280930}}, {"type": "Feature", "geometry": {"type": "Point", "coordinates": [-77.4232058, 39.6449246]}, "properties": {"access": "private", "addr:city": "Thurmont", "addr:housenumber": "14938", "addr:postcode": "21788", "addr:state": "MD", "addr:street": "Old Camp Airy Road", "backcountry": "no", "caravans": "no", "name": "Camp Airy for Boys", "note": "Private summer camp", "operator": "Camps Airy and Louise", "phone": "+1 410 466 9010", "tents": "no", "tourism": "camp_site", "website": "https://www.airylouise.org/camp-airy-for-boys/", "wikidata": "Q5026955", "wikipedia": "en:Camp Airy", "osm_id": 331321687}}, {"type": "Feature", "geometry": {"type": "Point", "coordinates": [-78.4648868, 39.4571082]}, "properties": {"addr:city": "Paw Paw", "addr:country": "US", "addr:housenumber": "223", "addr:postcode": "25434", "addr:state": "WV", "addr:street": "Avalon Lane", "backcountry": "no", "caravans": "yes", "group_only": "no", "name": "Avalon Resort", "nudism": "customary", "phone": "+1 304 947 5600", "tents": "yes", "tourism": "camp_site", "website": "https://avalon-resort.com/", "osm_id": 348424581}}, {"type": "Feature", "geometry": {"type": "Point", "coordinates": [-77.4125432, 38.5758016]}, "properties": {"access": "permit", "alt_name": "Happyland", "cabins": "yes", "capacity:persons": "210", "caravans": "no", "charge": "790 USD/day", "fee": "yes", "group_only": "yes", "name": "Cabin Camp 5", "operator": "National Park Service", "operator:wikipedia": "en:National Park Service", "smoking": "outside", "static_caravans": "no", "tents": "no", "tourism": "camp_site", "website": "https://www.nps.gov/prwi/planyourvisit/cabincamp5.htm", "osm_id": 353062867}}, {"type": "Feature", "geometry": {"type": "Point", "coordinates": [-79.4505604, 37.9586908]}, "properties": {"caravans": "no", "drinking_water": "yes", "group_only": "yes", "name": "Site 5 - Truro", "power_supply": "no", "shower": "no", "tents": "yes", "toilets": "yes", "tourism": "camp_site", "osm_id": 358567984}}, {"type": "Feature", "geometry": {"type": "Point", "coordinates": [-79.4519778, 37.9580603]}, "properties": {"caravans": "no", "drinking_water": "yes", "group_only": "yes", "name": "Site 4 - Hitch", "power_supply": "no", "shower": "no", "tents": "yes", "toilets": "yes", "tourism": "camp_site", "osm_id": 358568440}}, {"type": "Feature", "geometry": {"type": "Point", "coordinates": [-77.4756832, 39.6557546]}, "properties": {"caravans": "no", "fee": "yes", "group_only": "yes", "name": "Poplar Grove Youth Camp Site", "operator": "National Park Service", "tents": "yes", "tourism": "camp_site", "website": "https://www.nps.gov/cato/planyourvisit/poplargrove.htm", "osm_id": 361339565}}, {"type": "Feature", "geometry": {"type": "Point", "coordinates": [-75.7176678, 39.5508026]}, "properties": {"name": "Lums Pond State Park Campground", "tourism": "camp_site", "osm_id": 372327900}}, {"type": "Feature", "geometry": {"type": "Point", "coordinates": [-79.3732059, 38.8440601]}, "properties": {"name": "Yokum's Campground", "tourism": "camp_site", "wheelchair": "yes", "osm_id": 372874477}}, {"type": "Feature", "geometry": {"type": "Point", "coordinates": [-79.3242683, 39.5795983]}, "properties": {"access": "yes", "addr:city": "Accident", "addr:housenumber": "1", "addr:postcode": "21520", "addr:state": "MD", "addr:street": "Bumblebee Camp", "name": "Bumble Bee RV Park and Campground", "operator": "Bumblebee Management", "tourism": "camp_site", "website": "https://www.bumblebeervparkandcampground.com/", "osm_id": 374484661}}, {"type": "Feature", "geometry": {"type": "Point", "coordinates": [-77.477236, 38.8062728]}, "properties": {"tourism": "camp_site", "osm_id": 381866295}}, {"type": "Feature", "geometry": {"type": "Point", "coordinates": [-76.2431525, 39.4611621]}, "properties": {"name": "Bar Harbor RV Park & Marina", "phone": "+1 410 679 0880", "residential": "caravan", "tourism": "caravan_site", "website": "https://www.barharborrvpark.com/", "osm_id": 395319041}}, {"type": "Feature", "geometry": {"type": "Point", "coordinates": [-79.4783019, 39.1289596]}, "properties": {"caravans": "yes", "drinking_water": "yes", "name": "Restrite Campground", "power_supply": "yes", "shower": "yes", "tents": "yes", "tourism": "camp_site", "osm_id": 399019170}}, {"type": "Feature", "geometry": {"type": "Point", "coordinates": [-79.457605, 39.0165932]}, "properties": {"capacity:pitches": "59", "capacity:tents": "2", "caravans": "yes", "dog": "leashed", "drinking_water": "seasonal", "fee": "yes", "internet_access": "wlan", "internet_access:fee": "no", "motorhome": "yes", "name": "Canaan Valley Resort Campground", "nudism": "no", "power_supply": "yes", "reservation": "yes", "tents": "yes", "tourism": "camp_site", "website": "https://www.canaanresort.com/accommodations/camping/", "osm_id": 400387127}}, {"type": "Feature", "geometry": {"type": "Point", "coordinates": [-77.4766882, 39.6449537]}, "properties": {"addr:city": "Thurmont", "addr:country": "US", "addr:housenumber": "15001", "addr:state": "MD", "addr:street": "Park Central Road", "area": "yes", "backcountry": "no", "caravans": "no", "ele": "533", "gnis:feature_id": "1711191", "group_only": "yes", "name": "Camp Greentop Historic District", "tents": "no", "tourism": "camp_site", "website": "https://www.nps.gov/cato/planyourvisit/greentop.htm", "wikidata": "Q5027212", "wikipedia": "en:Camp Greentop", "osm_id": 410943548}}, {"type": "Feature", "geometry": {"type": "Point", "coordinates": [-77.244391, 39.0310999]}, "properties": {"access": "yes", "backcountry": "yes", "caravans": "no", "fee": "no", "group_only": "no", "internet_access": "no", "leisure": "park", "name": "Lock 21 \u201cSwains\u201d Campground", "operator": "National Park Service", "operator:short": "NPS", "operator:type": "public", "operator:wikidata": "Q308439", "reservation": "no", "sanitary_dump_station": "no", "shower": "no", "tents": "yes", "toilets": "yes", "tourism": "camp_site", "website": "https://www.nps.gov/choh/planyourvisit/camping.htm", "osm_id": 411220571}}, {"type": "Feature", "geometry": {"type": "Point", "coordinates": [-78.8110123, 39.2874652]}, "properties": {"name": "Wapocoma Campground", "tourism": "camp_site", "website": "https://wapocomacampground.com/", "osm_id": 417615874}}, {"type": "Feature", "geometry": {"type": "Point", "coordinates": [-78.6758722, 39.4142169]}, "properties": {"addr:city": "Springfield", "addr:housenumber": "1971", "addr:postcode": "26763", "addr:street": "Milleson Road", "name": "Milleson's Walnut Grove Campground", "phone": "+1 304 822 5284", "tourism": "camp_site", "website": "https://www.millesonscampground.com/", "osm_id": 417627143}}, {"type": "Feature", "geometry": {"type": "Point", "coordinates": [-77.4866044, 39.6596414]}, "properties": {"access": "customers", "addr:city": "Sabillasville", "addr:housenumber": "15882", "addr:postcode": "21780", "addr:state": "MD", "addr:street": "Foxville Deerfield Road", "backcountry": "no", "camp_site": "standard", "capacity:pitches": "50", "caravans": "yes", "charge": "30 USD/night", "email": "cato_campmanager@nps.gov", "fee": "yes", "name": "Owens Creek Campground", "opening_hours": "May-Nov unknown; Dec-Apr closed", "operator": "National Park Service", "phone": "+1 877 444 6777", "reservation": "required", "sanitary_dump_station": "no", "tents": "yes", "tourism": "camp_site", "website": "https://www.nps.gov/cato/planyourvisit/owens-creek-campground.htm", "wheelchair": "limited", "osm_id": 420326462}}, {"type": "Feature", "geometry": {"type": "Point", "coordinates": [-77.4366363, 39.5917594]}, "properties": {"backcountry": "no", "caravans": "yes", "group_only": "no", "internet_access": "no", "name": "Cunningham Falls Manor Camping Area", "operator": "Maryland Department of Natural Resources", "reservation": "recommended", "tents": "yes", "tourism": "camp_site", "website": "https://dnr.maryland.gov/publiclands/Pages/western/CunninghamFalls/Camping.aspx", "osm_id": 420401985}}, {"type": "Feature", "geometry": {"type": "Point", "coordinates": [-77.4976492, 39.581089]}, "properties": {"access": "private", "addr:city": "Thurmont", "addr:housenumber": "12611", "addr:postcode": "21788", "addr:state": "MD", "addr:street": "Tower Road", "backcountry": "no", "caravans": "no", "name": "Catoctin Quaker Camp", "operator": "BYM Camps", "tents": "no", "tourism": "camp_site", "website": "https://bymcamps.org/our-camps/catoctin/", "osm_id": 420401991}}, {"type": "Feature", "geometry": {"type": "Point", "coordinates": [-77.4968379, 39.5872848]}, "properties": {"addr:city": "Thurmont", "addr:housenumber": "12806", "addr:postcode": "21788", "addr:state": "MD", "addr:street": "Mink Farm Road", "backcountry": "no", "cabin": "yes", "email": "info@oleminkfarm.com", "group_only": "no", "name": "Ole Mink Farm Recreation and Resort", "phone": "+1 301 271 7012", "reservation": "required", "tourism": "camp_site", "website": "https://oleminkfarm.com", "osm_id": 420403372}}, {"type": "Feature", "geometry": {"type": "Point", "coordinates": [-77.5882707, 39.5765147]}, "properties": {"backcountry": "yes", "caravans": "no", "name": "Pogo Memorial AT Camping Area", "opening_hours": "24/7", "operator": "Potomac Appalachian Trail Club", "tents": "yes", "tourism": "camp_site", "osm_id": 421699318}}, {"type": "Feature", "geometry": {"type": "Point", "coordinates": [-77.5972201, 39.5578656]}, "properties": {"access": "yes", "backcountry": "yes", "caravans": "no", "check_date": "2023-06-18", "drinking_water": "yes", "fee": "no", "group_only": "no", "internet_access": "no", "name": "Annapolis Rock AT Camping Area", "nudism": "no", "openfire": "no", "opening_hours": "24/7", "operator": "Potomac Appalachian Trail Club", "payment:cards": "no", "payment:credit_cards": "no", "payment:debit_cards": "no", "picnic_table": "no", "power_supply": "no", "reservation": "no", "sanitary_dump_station": "no", "shower": "no", "static_caravans": "no", "tents": "yes", "toilets": "yes", "tourism": "camp_site", "wheelchair": "no", "osm_id": 421886446}}, {"type": "Feature", "geometry": {"type": "Point", "coordinates": [-77.7643359, 39.31438]}, "properties": {"brand": "KOA", "brand:wikidata": "Q16988635", "name": "Harpers Ferry Civil War Battlefields KOA", "operator": "KOA", "sanitary_dump_station": "yes", "short_name": "KOA", "tourism": "caravan_site", "wheelchair": "yes", "osm_id": 423033714}}, {"type": "Feature", "geometry": {"type": "Point", "coordinates": [-76.676132, 39.6124198]}, "properties": {"caravans": "no", "fee": "yes", "group_only": "yes", "name": "Camp Wood", "operator": "Maryland Park Service", "shower": "no", "static_caravans": "no", "tents": "yes", "toilets": "yes", "tourism": "camp_site", "osm_id": 426503724}}, {"type": "Feature", "geometry": {"type": "Point", "coordinates": [-75.5337364, 38.9784442]}, "properties": {"cabins": "yes", "caravans": "yes", "drinking_water": "yes", "name": "Killens Pond Campground", "tents": "yes", "tourism": "camp_site", "osm_id": 428657876}}, {"type": "Feature", "geometry": {"type": "Point", "coordinates": [-77.8266209, 38.109446]}, "properties": {"tourism": "camp_site", "osm_id": 430476822}}, {"type": "Feature", "geometry": {"type": "Point", "coordinates": [-76.7886849, 39.2881793]}, "properties": {"backcountry": "no", "capacity": "73", "caravans": "yes", "email": "patapsco.statepark@maryland.gov", "group_only": "no", "name": "Hollofield Area Camping", "nudism": "no", "operator": "Maryland Department of Natural Resources", "operator:type": "public", "operator:wikidata": "Q110072482", "phone": "+1 410 461 5005", "reservation": "required", "tents": "yes", "tourism": "camp_site", "website": "https://dnr.maryland.gov/publiclands/Pages/central/PatapscoValley/Hollofield/Camping.aspx", "osm_id": 442263978}}, {"type": "Feature", "geometry": {"type": "Point", "coordinates": [-75.2419433, 38.797878]}, "properties": {"name": "Steamboat Landing Campground", "tourism": "camp_site", "website": "https://sblrvpark.com/", "osm_id": 471846959}}, {"type": "Feature", "geometry": {"type": "Point", "coordinates": [-75.2118655, 38.6660759]}, "properties": {"name": "Holly Lake Campground", "tourism": "camp_site", "osm_id": 476445314}}, {"type": "Feature", "geometry": {"type": "Point", "coordinates": [-75.1982864, 38.6603321]}, "properties": {"name": "Holly Lake Campground", "tourism": "camp_site", "osm_id": 476445316}}, {"type": "Feature", "geometry": {"type": "Point", "coordinates": [-76.648208, 39.0693197]}, "properties": {"addr:city": "Millersville", "addr:housenumber": "768", "addr:postcode": "21108", "addr:state": "MD", "addr:street": "Cecil Avenue North", "backcountry": "no", "brand": "KOA", "cabins": "yes", "caravans": "yes", "contact:facebook": "capitolkoa", "contact:pinterest": "capitolkoa", "email": "capitolkoa@racpack.com", "group_only": "no", "internet_access": "wlan", "internet_access:fee": "no", "name": "Washington DC / Capitol KOA Holiday", "not:brand:wikidata": "Q16988635", "opening_hours": "Mar-Oct", "operator": "KOA", "phone": "+1 410 923 2771", "power_supply": "yes", "reservation": "recommended", "tents": "yes", "tourism": "camp_site", "website": "https://koa.com/campgrounds/washington-dc/", "osm_id": 481651952}}, {"type": "Feature", "geometry": {"type": "Point", "coordinates": [-77.7661218, 38.3517976]}, "properties": {"name": "LOWA Campground", "power_supply": "yes", "sanitary_dump_station": "yes", "tourism": "caravan_site", "osm_id": 487138141}}, {"type": "Feature", "geometry": {"type": "Point", "coordinates": [-77.7494355, 39.4217565]}, "properties": {"capacity": "20", "charge": "20$", "drinking_water": "no", "fee": "yes", "name": "Antietam Creek Campsite", "openfire": "yes", "tents": "yes", "tourism": "camp_site", "website": "https://www.recreation.gov/camping/antietam-creek-campsite/r/campgroundDetails.do?contractCode=NRSO&parkId=146540", "osm_id": 488766575}}, {"type": "Feature", "geometry": {"type": "Point", "coordinates": [-78.3588234, 39.2335836]}, "properties": {"tourism": "camp_site", "osm_id": 495755147}}, {"type": "Feature", "geometry": {"type": "Point", "coordinates": [-78.9169007, 38.9046381]}, "properties": {"name": "Big Ridge Camp Ground", "tourism": "camp_site", "osm_id": 496205365}}, {"type": "Feature", "geometry": {"type": "Point", "coordinates": [-79.4512649, 37.9619414]}, "properties": {"caravans": "no", "drinking_water": "yes", "group_only": "yes", "name": "Site 2 - Martin", "power_supply": "no", "shower": "no", "tents": "yes", "toilets": "yes", "tourism": "camp_site", "osm_id": 499681004}}, {"type": "Feature", "geometry": {"type": "Point", "coordinates": [-76.8055057, 39.6972109]}, "properties": {"name": "Frontier Town", "tourism": "camp_site", "osm_id": 505919151}},