{"type": "FeatureCollection", "features": [{"type": "Feature", "geometry": {"type": "Point", "coordinates": [-92.8020676, 46.4082674]}, "properties": {"ele": "327", "gnis:feature_id": "2069963", "name": "Sun-Bay Mobile Court and Camping", "phone": "+1-218-485-4869", "tourism": "camp_site", "osm_id": 151757243}}, {"type": "Feature", "geometry": {"type": "Point", "coordinates": [-88.1012347, 43.7364227]}, "properties": {"impromptu": "no", "name": "Shelter #5 (Greenbush Kettle)", "openfire": "yes", "tents": "yes", "tourism": "camp_site", "osm_id": 246677956}}, {"type": "Feature", "geometry": {"type": "Point", "coordinates": [-88.1618536, 43.6398864]}, "properties": {"created_by": "Potlatch 0.10f", "impromptu": "no", "name": "Shelter #3", "openfire": "yes", "tents": "yes", "tourism": "camp_site", "osm_id": 246678659}}, {"type": "Feature", "geometry": {"type": "Point", "coordinates": [-88.6647086, 45.2690355]}, "properties": {"tourism": "camp_site", "osm_id": 280496729}}, {"type": "Feature", "geometry": {"type": "Point", "coordinates": [-88.6672301, 45.2682478]}, "properties": {"tourism": "camp_site", "osm_id": 280497122}}, {"type": "Feature", "geometry": {"type": "Point", "coordinates": [-88.6667961, 45.2657357]}, "properties": {"tourism": "camp_site", "osm_id": 280497123}}, {"type": "Feature", "geometry": {"type": "Point", "coordinates": [-88.6646508, 45.2666502]}, "properties": {"tourism": "camp_site", "osm_id": 280497124}}, {"type": "Feature", "geometry": {"type": "Point", "coordinates": [-88.2977359, 44.1510248]}, "properties": {"camp_site": "basic", "tourism": "camp_site", "website": "https://wisconsinstateparks.reserveamerica.com/camping/map_of_High-Cliff-State-Park/r/campgroundMap.do?page=map&search=site&contractCode=WI&parkId=60017", "osm_id": 312609328}}, {"type": "Feature", "geometry": {"type": "Point", "coordinates": [-88.6675009, 45.2659256]}, "properties": {"tourism": "camp_site", "osm_id": 337750855}}, {"type": "Feature", "geometry": {"type": "Point", "coordinates": [-88.6653834, 45.2660718]}, "properties": {"tourism": "camp_site", "osm_id": 337750862}}, {"type": "Feature", "geometry": {"type": "Point", "coordinates": [-88.0968011, 43.7021618]}, "properties": {"backcountry": "yes", "impromptu": "no", "name": "Shelter #4 (Parnell Trail)", "openfire": "yes", "tents": "yes", "tourism": "camp_site", "osm_id": 351669381}}, {"type": "Feature", "geometry": {"type": "Point", "coordinates": [-88.1780155, 43.5811653]}, "properties": {"name": "Shelter #2", "tourism": "camp_site", "osm_id": 367929925}}, {"type": "Feature", "geometry": {"type": "Point", "coordinates": [-88.1995481, 43.6284856]}, "properties": {"impromptu": "no", "name": "Shelter #6", "openfire": "yes", "tents": "yes", "tourism": "camp_site", "osm_id": 414046135}}, {"type": "Feature", "geometry": {"type": "Point", "coordinates": [-92.7337654, 45.8768355]}, "properties": {"name": "Two Rivers", "note": "canoe camp site", "tourism": "camp_site", "osm_id": 504758047}}, {"type": "Feature", "geometry": {"type": "Point", "coordinates": [-92.7229436, 45.8861466]}, "properties": {"name": "Pine Ridge", "note": "canoe camp site", "tourism": "camp_site", "osm_id": 504807603}}, {"type": "Feature", "geometry": {"type": "Point", "coordinates": [-91.8476415, 47.0734593]}, "properties": {"maxtents": "4", "mndnr:collector": "Sundew Technical Services", "name": "Big Bend", "source": "mndnr", "tourism": "camp_site", "osm_id": 709011984}}, {"type": "Feature", "geometry": {"type": "Point", "coordinates": [-91.6438784, 47.0760854]}, "properties": {"maxtents": "6", "mndnr:collector": "Sundew Technical Services", "name": "Silver Creek", "source": "mndnr", "tourism": "camp_site", "osm_id": 709011992}}, {"type": "Feature", "geometry": {"type": "Point", "coordinates": [-91.1172646, 42.9169175]}, "properties": {"name": "Bolder Creek  Campground", "tourism": "camp_site", "osm_id": 738049913}}, {"type": "Feature", "geometry": {"type": "Point", "coordinates": [-89.8064144, 43.5643467]}, "properties": {"name": "Bluewater Bay Campground", "power_supply": "no", "tourism": "camp_site", "osm_id": 795534914}}, {"type": "Feature", "geometry": {"type": "Point", "coordinates": [-89.8081372, 43.5692796]}, "properties": {"name": "Sandstone Ridge Campground", "power_supply": "yes", "tourism": "camp_site", "osm_id": 795534920}}, {"type": "Feature", "geometry": {"type": "Point", "coordinates": [-89.8078949, 43.5719946]}, "properties": {"name": "Cliffwood Campground", "power_supply": "yes", "tourism": "camp_site", "osm_id": 795534929}}, {"type": "Feature", "geometry": {"type": "Point", "coordinates": [-89.5072692, 44.3263411]}, "properties": {"name": "Vista Royalle Campground", "tourism": "camp_site", "osm_id": 799928400}}, {"type": "Feature", "geometry": {"type": "Point", "coordinates": [-89.7284239, 43.2997705]}, "properties": {"capacity": "25", "charge": "25 USD", "ele": "227", "fee": "yes", "name": "VFW Campground", "tourism": "camp_site", "osm_id": 825705495}}, {"type": "Feature", "geometry": {"type": "Point", "coordinates": [-92.2426046, 44.8659294]}, "properties": {"addr:city": "Spring Valley", "addr:housenumber": "N2100", "addr:postcode": "54767", "addr:state": "WI", "addr:street": "Dugan Road", "capacity": "46", "drinking_water": "yes", "name": "Highland Ridge Campground", "operator": "United States Army Corps of Engineers", "phone": "+1-715-778-5562", "power_supply": "yes", "reservation": "yes", "sanitary_dump_station": "yes", "shower": "yes", "toilets": "yes", "tourism": "camp_site", "website": "https://www.recreation.gov/camping/campgrounds/233510", "osm_id": 844103791}}, {"type": "Feature", "geometry": {"type": "Point", "coordinates": [-92.5478721, 44.4898229]}, "properties": {"name": "Hay Creek Valley Campground", "tourism": "camp_site", "website": "http://www.haycreekvalley.com/index.html", "osm_id": 1137653584}}, {"type": "Feature", "geometry": {"type": "Point", "coordinates": [-89.7485, 43.2093128]}, "properties": {"name": "Cedar Hills Campground", "tourism": "camp_site", "osm_id": 1205102318}}, {"type": "Feature", "geometry": {"type": "Point", "coordinates": [-92.7567674, 45.2231451]}, "properties": {"name": "Riverside Group Camp", "tourism": "camp_site", "osm_id": 1298645532}}, {"type": "Feature", "geometry": {"type": "Point", "coordinates": [-92.7734078, 45.2252307]}, "properties": {"name": "Savanna Campground", "tourism": "camp_site", "osm_id": 1298645545}}, {"type": "Feature", "geometry": {"type": "Point", "coordinates": [-92.7566458, 45.2203123]}, "properties": {"name": "Riverway Campground", "tourism": "camp_site", "osm_id": 1298645554}}, {"type": "Feature", "geometry": {"type": "Point", "coordinates": [-92.7420992, 45.545057]}, "properties": {"name": "Wild River Camp Sites D", "tourism": "camp_site", "osm_id": 1299729239}}, {"type": "Feature", "geometry": {"type": "Point", "coordinates": [-92.7380652, 45.5430733]}, "properties": {"name": "Wild River Camp Sites A", "tourism": "camp_site", "osm_id": 1299729265}}, {"type": "Feature", "geometry": {"type": "Point", "coordinates": [-92.7405757, 45.5447113]}, "properties": {"name": "Wild River Camp Sites C", "tourism": "camp_site", "osm_id": 1299729466}}, {"type": "Feature", "geometry": {"type": "Point", "coordinates": [-92.7393526, 45.5437052]}, "properties": {"name": "Wild River Camp Sites B", "tourism": "camp_site", "osm_id": 1299729586}}, {"type": "Feature", "geometry": {"type": "Point", "coordinates": [-92.7436592, 45.545894]}, "properties": {"name": "Wild River Camp Sites E", "tourism": "camp_site", "osm_id": 1299729651}}, {"type": "Feature", "geometry": {"type": "Point", "coordinates": [-89.9879782, 43.9011393]}, "properties": {"name": "Winnebago", "tourism": "camp_site", "osm_id": 1301516554}}, {"type": "Feature", "geometry": {"type": "Point", "coordinates": [-89.3627446, 43.8183336]}, "properties": {"name": "Crooked River Campground", "tourism": "camp_site", "website": "https://crookedrivercampground.com/", "osm_id": 1337698879}}, {"type": "Feature", "geometry": {"type": "Point", "coordinates": [-92.3711409, 46.6568392]}, "properties": {"addr:city": "Carlton", "addr:housenumber": "780", "addr:postcode": "55718", "addr:state": "MN", "addr:street": "East Highway 210", "capacity": "113", "charge": "24 USD", "drinking_water": "yes", "fee": "yes", "name": "Jay Cooke State Park", "phone": "+1-218-673-7000", "power_supply": "yes", "reservation": "yes", "sanitary_dump_station": "yes", "shower": "yes", "toilets:disposal": "flush", "tourism": "camp_site", "osm_id": 1362802463}}, {"type": "Feature", "geometry": {"type": "Point", "coordinates": [-92.3639418, 46.6394134]}, "properties": {"name": "Silver Creek Backpack Campsite", "tourism": "camp_site", "osm_id": 1362829144}}, {"type": "Feature", "geometry": {"type": "Point", "coordinates": [-92.3379995, 46.6404889]}, "properties": {"name": "Lost Lake Backpack Campsite", "tourism": "camp_site", "osm_id": 1362833919}}, {"type": "Feature", "geometry": {"type": "Point", "coordinates": [-92.3507239, 46.642846]}, "properties": {"name": "High Landing Backpack Campsite", "tourism": "camp_site", "osm_id": 1362833954}}, {"type": "Feature", "geometry": {"type": "Point", "coordinates": [-92.3441742, 46.6423055]}, "properties": {"caravans": "no", "drinking_water": "no", "name": "Ash Ridge Backpack Campsite", "power_supply": "no", "shower": "no", "tents": "yes", "toilets": "yes", "tourism": "camp_site", "osm_id": 1362833962}}, {"type": "Feature", "geometry": {"type": "Point", "coordinates": [-91.3086542, 43.0331053]}, "properties": {"name": "Spook Cave Campground", "tourism": "camp_site", "osm_id": 1376583161}}, {"type": "Feature", "geometry": {"type": "Point", "coordinates": [-91.9734804, 43.7174418]}, "properties": {"capacity": "25", "charge": "20 USD/tent; 30 USD/RV", "drinking_water": "no", "fee": "yes", "name": "Sylvan City Park", "phone": "+1-507-467-3722", "power_supply": "yes", "reservation": "no", "sanitary_dump_station": "yes", "shower": "yes", "tourism": "camp_site", "osm_id": 1437992500}}, {"type": "Feature", "geometry": {"type": "Point", "coordinates": [-87.7298419, 45.8255065]}, "properties": {"tourism": "camp_site", "osm_id": 1449712452}}, {"type": "Feature", "geometry": {"type": "Point", "coordinates": [-87.984205, 45.9610169]}, "properties": {"tourism": "camp_site", "osm_id": 1450247142}}, {"type": "Feature", "geometry": {"type": "Point", "coordinates": [-87.9841621, 45.9593611]}, "properties": {"tourism": "camp_site", "osm_id": 1450247143}}, {"type": "Feature", "geometry": {"type": "Point", "coordinates": [-87.985514, 45.9571385]}, "properties": {"tourism": "camp_site", "osm_id": 1450247144}}, {"type": "Feature", "geometry": {"type": "Point", "coordinates": [-88.1997113, 45.3486736]}, "properties": {"name": "Old Veterans State Camp Ground", "tourism": "camp_site", "osm_id": 1464293027}}, {"type": "Feature", "geometry": {"type": "Point", "coordinates": [-92.5221172, 43.5290743]}, "properties": {"designation": "Lake Louise State Park", "name": "Red Oak Group Camp", "source": "MN DNR", "tourism": "camp_site", "osm_id": 1473765368}}, {"type": "Feature", "geometry": {"type": "Point", "coordinates": [-92.5214198, 43.5288254]}, "properties": {"designation": "Lake Louise State Park", "name": "Riverview Group Camp", "source": "MN DNR", "tourism": "camp_site", "osm_id": 1473765370}}, {"type": "Feature", "geometry": {"type": "Point", "coordinates": [-92.3109539, 43.9950385]}, "properties": {"access": "yes", "addr:city": "Eyota", "addr:housenumber": "8378", "addr:postcode": "55934", "addr:state": "MN", "addr:street": "Highway 14 E", "capacity": "52", "capacity:caravans": "0", "charge": "Electric: $30, Non-electric: $25, Camper Cabin: $75", "description": "\u2022\t41 campsites with electrical hookup\n\u2022\t9 non-electric campsites \n\u2022\t2 camper cabins, 1 sleeps 5 & 1 sleeps 6 and both are handicap accessible & have A/C\n\u2022\t2 remote non-electric canoe-in campsites \n\u2022\t7 picnic shelters", "designation": "Campground", "dog": "leashed", "drinking_water": "yes", "email": "chesterwoods@olmstedcounty.gov", "fee": "yes", "internet_access": "wlan", "name": "Chester Woods County Park Campground", "note": "Open the first weekend in May through the third weekend in October", "opening_hours": "Mo-Su 05:00-22:00", "operator": "Chester Woods Park", "payment:credit_cards": "yes", "phone": "+1-507-328-7350", "power_supply": "yes", "reservation": "required", "sanitary_dump_station": "yes", "shower": "yes", "source": "NAIP", "toilets": "yes", "toilets:disposal": "flush", "tourism": "camp_site", "website": "https://www.olmstedcounty.gov/residents/parks-recreation/parks/chester-woods-park", "wheelchair": "limited", "osm_id": 1478656196}}, {"type": "Feature", "geometry": {"type": "Point", "coordinates": [-92.4671522, 43.9406543]}, "properties": {"name": "Ferguson's Willow Creek Camp", "source": "bing", "tourism": "caravan_site", "osm_id": 1486845333}}, {"type": "Feature", "geometry": {"type": "Point", "coordinates": [-92.4616445, 44.0045696]}, "properties": {"name": "Camp Grounds", "source": "NAIP", "tourism": "camp_site", "osm_id": 1494987237}}, {"type": "Feature", "geometry": {"type": "Point", "coordinates": [-92.5013911, 43.8581306]}, "properties": {"name": "Bear Cave Park", "source": "bing", "tourism": "camp_site", "osm_id": 1519075444}}, {"type": "Feature", "geometry": {"type": "Point", "coordinates": [-92.1791026, 43.8437418]}, "properties": {"designation": "City of Chatfield", "name": "Shady Oak Park", "source": "http://ci.chatfield.mn.us/vertical/Sites/%7B7A8298AF-61FA-481A-AC21-C8996E201CE8%7D/uploads/%7BA5C7FFA7-580B-471D-8FDF-628B24EF220B%7D.PDF", "tourism": "caravan_site", "osm_id": 1590337655}}, {"type": "Feature", "geometry": {"type": "Point", "coordinates": [-92.5876786, 43.8452888]}, "properties": {"designation": "Ironwood Springs Christian Ranch", "name": "Edgewood Campground", "source": "http://www.ironwoodsprings.com", "tourism": "caravan_site", "osm_id": 1637379500}}, {"type": "Feature", "geometry": {"type": "Point", "coordinates": [-92.5877162, 43.8461225]}, "properties": {"designation": "Ironwood Springs Christian Ranch", "name": "Old Campground", "source": "http://www.ironwoodsprings.com", "tourism": "camp_site", "osm_id": 1637379653}}, {"type": "Feature", "geometry": {"type": "Point", "coordinates": [-92.5871052, 43.8442235]}, "properties": {"designation": "Ironwood Springs Christian Ranch", "name": "South Hill Campground", "source": "http://www.ironwoodsprings.com", "tourism": "caravan_site", "osm_id": 1640044556}}, {"type": "Feature", "geometry": {"type": "Point", "coordinates": [-92.676413, 44.301518]}, "properties": {"capacity": "50", "charge": "15 USD/tent; 25 USD/RV", "drinking_water": "yes", "fee": "yes", "name": "Covered Bridge Park Campground", "phone": "+1-507-732-7318", "power_supply": "yes", "sanitary_dump_station": "yes", "shower": "yes", "source": "City of Zumbrota", "tents": "yes", "toilets:disposal": "flush", "tourism": "camp_site", "osm_id": 1676609499}}, {"type": "Feature", "geometry": {"type": "Point", "coordinates": [-90.4451167, 45.2808626]}, "properties": {"access": "closed", "capacity": "5", "drinking_water": "yes", "fee": "yes", "name": "North Twin Lake", "toilets": "vault", "tourism": "camp_site", "website": "https://www.fs.usda.gov/recarea/cnnf/recreation/camping-cabins/recarea/?recid=27791&actid=29", "osm_id": 1698920842}}, {"type": "Feature", "geometry": {"type": "Point", "coordinates": [-90.6169932, 45.1999963]}, "properties": {"capacity": "8", "drinking_water": "yes", "fee": "yes", "name": "Kathryn Lake", "operator": "USFS", "toilets": "vault", "tourism": "camp_site", "website": "https://www.fs.usda.gov/recarea/cnnf/recreation/camping-cabins/recarea/?recid=27789&actid=29", "osm_id": 1698920858}}, {"type": "Feature", "geometry": {"type": "Point", "coordinates": [-92.220609, 43.6294342]}, "properties": {"name": "Forestville State Park", "tourism": "camp_site", "osm_id": 1740299376}}, {"type": "Feature", "geometry": {"type": "Point", "coordinates": [-92.2074992, 43.6370241]}, "properties": {"access": "official", "name": "Forestville State Park", "tourism": "camp_site", "osm_id": 1740299377}}, {"type": "Feature", "geometry": {"type": "Point", "coordinates": [-91.4388305, 44.9159652]}, "properties": {"addr:city": "Chippewa Falls", "addr:housenumber": "2302", "addr:postcode": "54729", "addr:state": "WI", "addr:street": "Nelson Rd", "charge": "38 USD", "drinking_water": "yes", "fee": "yes", "name": "Eagle Ridge Campground", "phone": "+1-715-379-2942", "power_supply": "yes", "tents": "yes", "toilets:disposal": "flush", "tourism": "caravan_site", "website": "https://www.eagleridgecamping.com/", "osm_id": 1805123113}}, {"type": "Feature", "geometry": {"type": "Point", "coordinates": [-87.9848636, 43.8557063]}, "properties": {"name": "TeePee", "tourism": "camp_site", "osm_id": 1814505774}}, {"type": "Feature", "geometry": {"type": "Point", "coordinates": [-87.9830692, 43.8561628]}, "properties": {"tourism": "camp_site", "osm_id": 1814505777}}, {"type": "Feature", "geometry": {"type": "Point", "coordinates": [-87.9834509, 43.8572273]}, "properties": {"tourism": "camp_site", "osm_id": 1814505780}}, {"type": "Feature", "geometry": {"type": "Point", "coordinates": [-90.9847745, 46.9253456]}, "properties": {"name": "Lakeshore Trail Campsite", "tourism": "camp_site", "osm_id": 1860293088}}, {"type": "Feature", "geometry": {"type": "Point", "coordinates": [-90.5742452, 43.6979414]}, "properties": {"name": "Wildcat Mountain State Park Campground", "tourism": "camp_site", "osm_id": 1877002984}}, {"type": "Feature", "geometry": {"type": "Point", "coordinates": [-91.979723, 43.7164905]}, "properties": {"capacity": "20", "charge": "20 USD/tent; 30 USD/RV", "drinking_water": "no", "fee": "yes", "name": "Riverview City Campground", "phone": "+1-507-467-3722", "power_supply": "yes", "reservation": "no", "shower": "yes", "toilets:disposal": "flush", "tourism": "camp_site", "osm_id": 1897381095}}, {"type": "Feature", "geometry": {"type": "Point", "coordinates": [-92.060241, 43.7103542]}, "properties": {"backcountry": "yes", "drinking_water": "yes", "name": "Isinours Campsite", "toilets": "vault", "tourism": "camp_site", "website": "http://files.dnr.state.mn.us/maps/state_forests/fmu00003.pdf", "osm_id": 1897390272}}, {"type": "Feature", "geometry": {"type": "Point", "coordinates": [-91.5785522, 43.6407347]}, "properties": {"capacity": "42", "caravans": "yes", "charge": "14 USD", "drinking_water": "yes", "fee": "yes", "name": "Beaver Creek Valley Campground", "power_supply": "yes", "sanitary_dump_station": "seasonal", "shower": "yes", "tents": "yes", "toilets": "vault", "tourism": "camp_site", "osm_id": 1899287499}}, {"type": "Feature", "geometry": {"type": "Point", "coordinates": [-91.9458069, 44.6384564]}, "properties": {"addr:city": "Tarrant Park", "addr:postcode": "54736", "addr:state": "WI", "capacity": "24", "caravans": "yes", "charge": "25 USD", "drinking_water": "yes", "fee": "yes", "name": "Tarrant Park Campground", "operator": "City of Durand", "shelter_type": "picnic_shelter", "swimming_pool": "yes", "tents": "yes", "toilets": "yes", "tourism": "camp_site", "website": "https://www.durand-wi.com/index.asp?SEC=C33070E3-CAC0-4AFA-AE68-1EF35CC3096F&DE=417A1C9D-E0C4-4F88-9782-000FD6941741", "osm_id": 1918687630}}, {"type": "Feature", "geometry": {"type": "Point", "coordinates": [-90.6387765, 46.3848506]}, "properties": {"backcountry": "yes", "caravans": "no", "fee": "yes", "name": "BP1 - Sandy Ledges Campsite", "operator": "Copper Falls State Park", "static_caravans": "no", "tents": "yes", "tourism": "camp_site", "osm_id": 1943750209}}, {"type": "Feature", "geometry": {"type": "Point", "coordinates": [-88.0598397, 46.1867673]}, "properties": {"name": "Newberg Township Park Campground", "tourism": "caravan_site", "osm_id": 2063842471}}, {"type": "Feature", "geometry": {"type": "Point", "coordinates": [-92.6706184, 45.3904265]}, "properties": {"name": "Interstate State Park MN - Primitive Group Camp", "tourism": "camp_site", "osm_id": 2187712833}}, {"type": "Feature", "geometry": {"type": "Point", "coordinates": [-92.6629726, 45.3896709]}, "properties": {"name": "Interstate State Park WI - South Campground", "tourism": "camp_site", "osm_id": 2212446923}}, {"type": "Feature", "geometry": {"type": "Point", "coordinates": [-91.184733, 46.6427468]}, "properties": {"capacity": "9", "drinking_water": "no", "fee": "yes", "name": "Horseshoe Lake Recreation Area", "reservation": "no", "toilets": "vault", "tourism": "camp_site", "website": "https://www.fs.usda.gov/recarea/cnnf/recreation/camping-cabins/recarea/?recid=82793&actid=29", "osm_id": 2247687247}}, {"type": "Feature", "geometry": {"type": "Point", "coordinates": [-91.9369748, 46.1417084]}, "properties": {"addr:city": "Minong", "addr:housenumber": "N13984", "addr:postcode": "54859", "addr:state": "WI", "addr:street": "Tota Drive", "capacity": "75", "charge": "25 USD", "drinking_water": "yes", "fee": "yes", "name": "Totagatic County Park Campground", "power_supply": "yes", "reservation": "accepted", "shelter_type": "picnic_shelter", "shower": "yes", "toilets": "yes", "tourism": "camp_site", "osm_id": 2265509830}}, {"type": "Feature", "geometry": {"type": "Point", "coordinates": [-91.8260505, 46.0949003]}, "properties": {"addr:city": "Minong", "addr:housenumber": "802", "addr:postcode": "54859", "addr:state": "WI", "addr:street": "Railroad Street", "name": "Minong Wild Rivers Trail Campground", "phone": "+1-715-466-5000", "tourism": "camp_site", "website": "http://www.minongtrails.com/Campground/Campground.htm", "osm_id": 2266121774}}, {"type": "Feature", "geometry": {"type": "Point", "coordinates": [-86.495368, 44.0382817]}, "properties": {"name": "Beechwood Campground", "tourism": "camp_site", "osm_id": 2276125997}}, {"type": "Feature", "geometry": {"type": "Point", "coordinates": [-86.5016188, 44.0367302]}, "properties": {"name": "Cedars Campground", "tourism": "camp_site", "osm_id": 2276126007}}, {"type": "Feature", "geometry": {"type": "Point", "coordinates": [-86.5066354, 44.0364344]}, "properties": {"name": "Pines Campground", "tourism": "camp_site", "osm_id": 2276126010}}, {"type": "Feature", "geometry": {"type": "Point", "coordinates": [-92.1842375, 46.721552]}, "properties": {"check_date": "2025-10-04", "name": "Indian Point Campground", "tourism": "camp_site", "osm_id": 2331645643}}, {"type": "Feature", "geometry": {"type": "Point", "coordinates": [-92.1162114, 46.5343681]}, "properties": {"capacity": "59", "drinking_water": "yes", "name": "Pattison Family Campground", "reservation": "yes", "shower": "yes", "toilets:type": "flush", "tourism": "camp_site", "osm_id": 2350717934}}, {"type": "Feature", "geometry": {"type": "Point", "coordinates": [-92.7770533, 43.436396]}, "properties": {"capacity": "10", "charge": "10 USD/tent; 18 USD/RV", "drinking_water": "yes", "fee": "yes", "name": "Riverside County Park Campground", "phone": "+1-641-732-5204", "power_supply": "yes", "shower": "yes", "toilets:type": "flush", "tourism": "camp_site", "osm_id": 2359688349}}, {"type": "Feature", "geometry": {"type": "Point", "coordinates": [-90.8881943, 46.9458146]}, "properties": {"addr:city": "Bayfield", "addr:housenumber": "32665", "addr:postcode": "54814", "addr:state": "WI", "addr:street": "Little Sand Bay Road", "name": "Little Sand Bay Campground", "operator": "Town of Russell", "operator:type": "government", "phone": "+1-715-779-5233", "shower": "yes", "tourism": "camp_site", "website": "https://www.townofrussell.org/little-sand-bay-recreation-area/", "osm_id": 2398923475}}, {"type": "Feature", "geometry": {"type": "Point", "coordinates": [-91.165198, 42.9943207]}, "properties": {"capacity": "77", "drinking_water": "yes", "fee": "yes", "name": "Pikes Peak State Park", "phone": "+1-563-873-2341", "power_supply": "yes", "reservation": "yes", "shower": "yes", "tents": "$6-$11", "toilets:type": "flush", "tourism": "camp_site", "osm_id": 2399789059}}, {"type": "Feature", "geometry": {"type": "Point", "coordinates": [-91.1716818, 45.1760387]}, "properties": {"name": "Brunet Island State Park Campground", "tourism": "camp_site", "osm_id": 2401996893}}, {"type": "Feature", "geometry": {"type": "Point", "coordinates": [-88.5725225, 46.6116545]}, "properties": {"county": "Baraga", "midnr:park_id": "641", "name": "Big Lake State Forest Campground", "source": "Michigan DNR", "tourism": "camp_site", "website": "https://www.michigandnr.com/parksandtrails/Details.aspx?id=641&type=SFCG", "osm_id": 2412121646}}, {"type": "Feature", "geometry": {"type": "Point", "coordinates": [-88.324775, 46.3252382]}, "properties": {"county": "Iron", "midnr:park_id": "644", "name": "Deer Lake State Forest Campground", "source": "Michigan DNR", "tourism": "camp_site", "website": "https://www.michigandnr.com/parksandtrails/Details.aspx?id=644&type=SFCG", "osm_id": 2412121661}}, {"type": "Feature", "geometry": {"type": "Point", "coordinates": [-88.8560832, 46.8568262]}, "properties": {"county": "Houghton", "midnr:park_id": "639", "name": "Emily Lake State Forest Campground", "source": "Michigan DNR", "tourism": "camp_site", "website": "https://www.michigandnr.com/parksandtrails/Details.aspx?id=639&type=SFCG", "osm_id": 2412121663}}, {"type": "Feature", "geometry": {"type": "Point", "coordinates": [-87.8651689, 46.0731272]}, "properties": {"county": "Dickinson", "midnr:park_id": "647", "name": "Gene's Pond State Forest Campground", "source": "Michigan DNR", "tourism": "camp_site", "website": "https://www.michigandnr.com/parksandtrails/Details.aspx?id=647&type=SFCG", "osm_id": 2412121667}}, {"type": "Feature", "geometry": {"type": "Point", "coordinates": [-86.5351259, 45.7266976]}, "properties": {"county": "Delta", "gnis:feature_id": "1618729", "midnr:park_id": "667", "name": "Portage Bay State Forest Campground", "source": "Michigan DNR", "tourism": "camp_site", "website": "https://www.michigandnr.com/parksandtrails/Details.aspx?id=667&type=SFCG", "osm_id": 2412121730}}, {"type": "Feature", "geometry": {"type": "Point", "coordinates": [-87.7464979, 46.1874114]}, "properties": {"access": "no", "county": "Dickinson", "description": "Campground closed since 2009 according to MDNR website", "midnr:park_id": "646", "name": "West Branch State Forest Campground", "source": "Michigan DNR", "tourism": "camp_site", "website": "https://www.michigandnr.com/parksandtrails/Details.aspx?id=646&type=SFCG", "osm_id": 2412121753}}, {"type": "Feature", "geometry": {"type": "Point", "coordinates": [-92.5463149, 42.9607174]}, "properties": {"name": "Cedar View Park Campground", "source": "Bing, http://www.nashua-iowa.com", "tourism": "camp_site", "osm_id": 2442065870}}, {"type": "Feature", "geometry": {"type": "Point", "coordinates": [-92.8936034, 43.1271294]}, "properties": {"tourism": "caravan_site", "osm_id": 2442149940}}, {"type": "Feature", "geometry": {"type": "Point", "coordinates": [-91.195043, 44.5744924]}, "properties": {"name": "Stoney Creek RV Resort and Campground", "source": "Bing, http://www.stoneycreekrvresort.com", "tourism": "caravan_site", "osm_id": 2443574370}}, {"type": "Feature", "geometry": {"type": "Point", "coordinates": [-88.7185803, 46.2325725]}, "properties": {"gnis:feature_id": "1622350", "name": "Paint River Forks Campground", "operator": "United States Forest Service", "tourism": "camp_site", "osm_id": 2446592931}}, {"type": "Feature", "geometry": {"type": "Point", "coordinates": [-91.4777668, 43.2561723]}, "properties": {"capacity": "28", "charge": "15 USD/tent", "drinking_water": "yes", "fee": "yes", "name": "Waukon City Park Campground", "phone": "+1-563-568-0081", "power_supply": "yes", "reservation": "yes", "sanitary_dump_station": "yes", "shower": "yes", "toilets:type": "flush", "tourism": "camp_site", "website": "https://www.cityofwaukon.com/park-campground", "osm_id": 2450719385}}, {"type": "Feature", "geometry": {"type": "Point", "coordinates": [-91.8926218, 46.6089144]}, "properties": {"capacity": "36", "charge": "21 USD", "drinking_water": "yes", "fee": "yes", "name": "Amnicon Falls State Park Campground", "phone": "+1-715-398-3000", "reservation": "yes", "toilets": "vault", "tourism": "camp_site", "osm_id": 2456364667}}, {"type": "Feature", "geometry": {"type": "Point", "coordinates": [-92.0381712, 43.4426751]}, "properties": {"capacity": "38", "charge": "10 USD/tent; 15 USD/RV", "drinking_water": "yes", "fee": "yes", "name": "Kendallville Park Campground", "phone": "+1-563-547-2897", "power_supply": "yes", "reservation": "no", "shower": "yes", "source": "http://www.winneshiekwild.com", "toilets:type": "flush", "tourism": "camp_site", "osm_id": 2459655322}}, {"type": "Feature", "geometry": {"type": "Point", "coordinates": [-91.9116604, 43.1732247]}, "properties": {"capacity": "35", "charge": "10 USD/tent; 15 USD/RV", "drinking_water": "yes", "fee": "yes", "name": "Lake Meyer County Park Campground", "phone": "+1-563-534-7145", "power_supply": "yes", "reservation": "no", "sanitary_dump_station": "yes", "seasonal": "spring;summer;autumn", "shower": "yes", "source": "http://www.winneshiekwild.com", "toilets:type": "flush", "tourism": "camp_site", "osm_id": 2459758041}}, {"type": "Feature", "geometry": {"type": "Point", "coordinates": [-91.6597055, 42.99503]}, "properties": {"name": "Skip A Way Resort", "source": "http://skipawayresort.com", "tourism": "camp_site", "osm_id": 2460017842}}, {"type": "Feature", "geometry": {"type": "Point", "coordinates": [-91.3475392, 42.8064187]}, "properties": {"addr:state": "IA", "capacity": "8", "charge": "10 USD", "drinking_water": "no", "fee": "yes", "name": "Canoe Campsite", "phone": "+1-563-245-1516", "source": "Iowa DNR", "toilets": "no", "tourism": "camp_site", "osm_id": 2469524022}}, {"type": "Feature", "geometry": {"type": "Point", "coordinates": [-91.3955454, 42.8489561]}, "properties": {"addr:city": "Elkader", "addr:housenumber": "600", "addr:state": "IA", "addr:street": "High Street Southeast", "capacity": "100", "charge": "25 USD", "drinking_water": "yes", "fee": "yes", "name": "Elkader City Park Campground", "phone": "+1-563-245-2098", "power_supply": "yes", "seasonal": "spring;summer;autumn", "toilets": "yes", "tourism": "camp_site", "website": "http://www.elkader-iowa.com/business-categories/campgrounds.html", "osm_id": 2469539012}}, {"type": "Feature", "geometry": {"type": "Point", "coordinates": [-91.3983749, 42.8530489]}, "properties": {"name": "Deer Run Resort", "source": "http://www.deerrunresort.net", "tourism": "camp_site", "osm_id": 2469563989}}, {"type": "Feature", "geometry": {"type": "Point", "coordinates": [-91.482861, 42.9125572]}, "properties": {"name": "Big Spring Campsite", "source": "Iowa DNR", "tourism": "camp_site", "osm_id": 2470661573}}, {"type": "Feature", "geometry": {"type": "Point", "coordinates": [-91.4742052, 42.9088836]}, "properties": {"capacity": "3", "charge": "5 USD", "drinking_water": "no", "fee": "yes", "name": "Frieden Park Campsite", "source": "Iowa DNR", "toilets": "no", "tourism": "camp_site", "osm_id": 2470661586}}, {"type": "Feature", "geometry": {"type": "Point", "coordinates": [-91.6223382, 42.9581854]}, "properties": {"capacity": "36", "charge": "15 USD", "fee": "yes", "name": "Gilbertson Campground", "phone": "+1-563-427-5740", "power_supply": "yes", "shower": "yes", "source": "Iowa DNR", "tourism": "camp_site", "osm_id": 2471701737}}, {"type": "Feature", "geometry": {"type": "Point", "coordinates": [-91.956548, 43.0089055]}, "properties": {"addr:city": "Hawkeye", "addr:state": "IA", "capacity": "26", "charge": "15 USD", "fee": "yes", "name": "Gouldsburg County Park Campground", "phone": "+1-563-427-5740", "power_supply": "yes", "shower": "yes", "source": "http://fayettecountyiowa.org", "tents": "yes", "toilets:type": "flush", "tourism": "camp_site", "osm_id": 2473057214}}, {"type": "Feature", "geometry": {"type": "Point", "coordinates": [-91.7705798, 42.9959258]}, "properties": {"addr:city": "West Union", "addr:state": "IA", "capacity": "8", "charge": "8 USD", "fee": "yes", "name": "Dutton Cave County Park Campground", "phone": "+1-563-427-5740", "source": "http://fayettecountyiowa.org", "tourism": "camp_site", "osm_id": 2473068616}}, {"type": "Feature", "geometry": {"type": "Point", "coordinates": [-91.8374526, 43.0415907]}, "properties": {"addr:city": "West Union", "addr:state": "IA", "capacity": "8", "charge": "5 USD", "fee": "yes", "name": "Goeken County Park Campground", "phone": "+1-563-427-5740", "seasonal": "spring-summer", "source": "http://fayettecountyiowa.org", "toilets": "vault", "tourism": "camp_site", "osm_id": 2473068852}}, {"type": "Feature", "geometry": {"type": "Point", "coordinates": [-90.6779502, 46.8195891]}, "properties": {"addr:city": "La Pointe", "addr:housenumber": "2305", "addr:postcode": "54850", "addr:state": "WI", "addr:street": "Big Bay Road", "capacity": "61", "charge": "35 USD", "fee": "yes", "internet_access": "wlan", "name": "Big Bay Town Park Campground", "operator": "Town of La Pointe", "operator:type": "government", "power_supply": "yes", "shower": "yes", "tourism": "camp_site", "website": "http://www.bigbaytownpark.com/", "osm_id": 2475677555}}, {"type": "Feature", "geometry": {"type": "Point", "coordinates": [-92.2907177, 44.4713424]}, "properties": {"addr:city": "Lake City", "addr:housenumber": "2500", "addr:postcode": "55041", "addr:state": "MN", "addr:street": "North Hwy 61", "capacity": "39", "charge": "33 USD", "description": "$22-$33", "drinking_water": "yes", "fee": "yes", "name": "Hok-Si-La Park Campground", "phone": "+1-651-345-3855", "reservation": "yes", "shower": "yes", "toilets": "yes", "tourism": "camp_site", "website": "http://www.hoksilapark.org/tentcamping.html", "osm_id": 2484484939}}, {"type": "Feature", "geometry": {"type": "Point", "coordinates": [-92.1425022, 45.3983465]}, "properties": {"name": "Village Park Campground", "tourism": "camp_site", "osm_id": 2487378473}}, {"type": "Feature", "geometry": {"type": "Point", "coordinates": [-91.9231202, 45.7414129]}, "properties": {"addr:city": "Shell Lake", "addr:state": "WI", "addr:street": "Hwy. 63", "capacity": "41", "charge": "25 USD", "drinking_water": "yes", "fee": "yes", "name": "Shell Lake Municipal Campground", "operator": "Washburn County", "phone": "+1-715-468-7846", "power_supply": "yes", "shower": "yes", "toilets": "yes", "tourism": "camp_site", "osm_id": 2487459649}}, {"type": "Feature", "geometry": {"type": "Point", "coordinates": [-89.1487886, 44.1517777]}, "properties": {"name": "Napowan Adventure Base", "tourism": "camp_site", "osm_id": 2491460195}}, {"type": "Feature", "geometry": {"type": "Point", "coordinates": [-89.2165885, 44.3234531]}, "properties": {"name": "Hartman Creek State Park Campground", "tourism": "camp_site", "osm_id": 2533103125}}, {"type": "Feature", "geometry": {"type": "Point", "coordinates": [-87.7285242, 43.6554211]}, "properties": {"name": "Kohler-Andrae State Park Campground", "tourism": "camp_site", "osm_id": 2533134123}}, {"type": "Feature", "geometry": {"type": "Point", "coordinates": [-91.299642, 44.9695818]}, "properties": {"name": "Lake Wissota State Park Campground", "tourism": "camp_site", "osm_id": 2533147480}}, {"type": "Feature", "geometry": {"type": "Point", "coordinates": [-91.7619804, 44.1591503]}, "properties": {"name": "Merrick State Park Campground", "tourism": "camp_site", "osm_id": 2534381659}}, {"type": "Feature", "geometry": {"type": "Point", "coordinates": [-87.5087259, 44.217835]}, "properties": {"name": "Point Beach State Forest Campground", "tourism": "camp_site", "osm_id": 2534520895}}, {"type": "Feature", "geometry": {"type": "Point", "coordinates": [-87.4134063, 44.8634219]}, "properties": {"name": "Potawatomi State Park Campground", "tourism": "camp_site", "osm_id": 2534533454}}, {"type": "Feature", "geometry": {"type": "Point", "coordinates": [-89.8150634, 44.0011774]}, "properties": {"name": "Roche a Cri State Park Campground", "tourism": "camp_site", "osm_id": 2534568857}}, {"type": "Feature", "geometry": {"type": "Point", "coordinates": [-86.8280815, 45.4075147]}, "properties": {"name": "Rock Island State Park Campground", "tourism": "camp_site", "osm_id": 2534574772}}, {"type": "Feature", "geometry": {"type": "Point", "coordinates": [-88.4856657, 45.3420045]}, "properties": {"name": "Heaven's Up North Family Campground", "tourism": "caravan_site", "osm_id": 2577160233}}, {"type": "Feature", "geometry": {"type": "Point", "coordinates": [-90.9493012, 43.5381605]}, "properties": {"name": "Sidie Hollow County Park Boat Landing Campground", "tourism": "camp_site", "osm_id": 2618992599}}, {"type": "Feature", "geometry": {"type": "Point", "coordinates": [-90.9602822, 43.5463652]}, "properties": {"name": "Sidie Hollow County Park Main Campground", "tourism": "camp_site", "osm_id": 2618992601}}, {"type": "Feature", "geometry": {"type": "Point", "coordinates": [-90.9649439, 43.5407581]}, "properties": {"addr:city": "Viroqua", "addr:state": "WI", "capacity": "73", "charge": "25 USD", "fee": "yes", "name": "Sidie Hollow County Park Ridge Campground", "power_supply": "yes", "reservation": "yes", "shower": "yes", "toilets": "yes", "tourism": "camp_site", "website": "https://www.vernoncounty.org/parks%20and%20forestry/Sidie%20Hollow%20Park%20&%20Trail%20Map.pdf", "osm_id": 2618997604}}, {"type": "Feature", "geometry": {"type": "Point", "coordinates": [-90.9753497, 43.6296699]}, "properties": {"addr:city": "Esofea", "addr:state": "WI", "capacity": "28", "charge": "31 USD", "drinking_water": "yes", "fee": "yes", "name": "Esofea/Rentz Memorial Park Campground", "phone": "+1-608-637-7335", "toilets": "yes", "tourism": "camp_site", "osm_id": 2619029762}}, {"type": "Feature", "geometry": {"type": "Point", "coordinates": [-92.7624614, 45.2686676]}, "properties": {"operator": "St. Croix National Scenic Riverway", "tourism": "camp_site", "osm_id": 2622643461}}, {"type": "Feature", "geometry": {"type": "Point", "coordinates": [-91.0823292, 43.3399475]}, "properties": {"addr:city": "Ferryville", "addr:state": "WI", "capacity": "12", "charge": "10 USD", "fee": "yes", "name": "Sugar Ceek Park Campground", "power_supply": "yes", "reservation": "no", "tourism": "camp_site", "osm_id": 2624269385}}, {"type": "Feature", "geometry": {"type": "Point", "coordinates": [-88.5565258, 45.8848933]}, "properties": {"capacity": "27", "drinking_water": "yes", "fee": "yes", "name": "Lost Lake Campground", "reservation": "accepted", "source": "USGS scanned maps", "toilets": "vault", "tourism": "camp_site", "website": "https://www.fs.usda.gov/recarea/cnnf/recreation/camping-cabins/recarea/?recid=27875&actid=29", "osm_id": 2727379019}}, {"type": "Feature", "geometry": {"type": "Point", "coordinates": [-91.6743549, 43.7835942]}, "properties": {"capacity": "5", "charge": "14 USD", "fee": "yes", "internet_access": "no", "internet_access:fee": "no", "name": "Vinegar Ridge Campground", "operator": "State Recreation Area", "seasonal": "spring;summer;autumn", "toilets": "yes", "tourism": "camp_site", "osm_id": 2882795732}}, {"type": "Feature", "geometry": {"type": "Point", "coordinates": [-91.6594831, 43.7695649]}, "properties": {"name": "Canoe Campsite", "tourism": "camp_site", "osm_id": 2882801606}}, {"type": "Feature", "geometry": {"type": "Point", "coordinates": [-91.2855425, 44.0522567]}, "properties": {"name": "Lower Apache", "tourism": "camp_site", "osm_id": 2886434060}}, {"type": "Feature", "geometry": {"type": "Point", "coordinates": [-91.2860306, 44.0533323]}, "properties": {"name": "Upper Comanche", "tourism": "camp_site", "osm_id": 2886434062}}, {"type": "Feature", "geometry": {"type": "Point", "coordinates": [-91.2855586, 44.053209]}, "properties": {"name": "Lower Comanche", "tourism": "camp_site", "osm_id": 2886434087}}, {"type": "Feature", "geometry": {"type": "Point", "coordinates": [-91.2860092, 44.0523241]}, "properties": {"name": "Upper Apache", "tourism": "camp_site", "osm_id": 2886434100}}, {"type": "Feature", "geometry": {"type": "Point", "coordinates": [-91.2845852, 44.0520178]}, "properties": {"name": "Iroquois", "tourism": "camp_site", "osm_id": 2886441179}}, {"type": "Feature", "geometry": {"type": "Point", "coordinates": [-91.2854756, 44.0541498]}, "properties": {"name": "Winnebago", "tourism": "camp_site", "osm_id": 2886447269}}, {"type": "Feature", "geometry": {"type": "Point", "coordinates": [-91.2830886, 44.05201]}, "properties": {"name": "Mohawk", "tourism": "camp_site", "osm_id": 2886447288}}, {"type": "Feature", "geometry": {"type": "Point", "coordinates": [-91.2819189, 44.0534249]}, "properties": {"name": "Lenape", "tourism": "camp_site", "osm_id": 2886462028}}, {"type": "Feature", "geometry": {"type": "Point", "coordinates": [-91.2844889, 44.0538762]}, "properties": {"name": "Chippewa", "tourism": "camp_site", "osm_id": 2886462058}}, {"type": "Feature", "geometry": {"type": "Point", "coordinates": [-91.2825119, 44.0533131]}, "properties": {"name": "Sioux", "tourism": "camp_site", "osm_id": 2886462062}}, {"type": "Feature", "geometry": {"type": "Point", "coordinates": [-91.2829623, 44.0545331]}, "properties": {"name": "Blackfoot", "tourism": "camp_site", "osm_id": 2886462064}}, {"type": "Feature", "geometry": {"type": "Point", "coordinates": [-91.284483, 44.0533132]}, "properties": {"name": "Cherokee", "tourism": "camp_site", "osm_id": 2886463412}}, {"type": "Feature", "geometry": {"type": "Point", "coordinates": [-88.0809791, 45.8630728]}, "properties": {"gnis:feature_id": "2127825", "name": "River Bends Campground", "tourism": "camp_site", "osm_id": 2896186702}}, {"type": "Feature", "geometry": {"type": "Point", "coordinates": [-88.0556764, 45.8825789]}, "properties": {"gnis:feature_id": "2127778", "name": "Summer Breeze Campground", "tourism": "camp_site", "website": "http://www.summerbreezecampground.com/", "osm_id": 2896186703}}, {"type": "Feature", "geometry": {"type": "Point", "coordinates": [-88.9135937, 43.047362]}, "properties": {"addr:city": "Lake Mills", "caravans": "no", "charge": "20 USD", "drinking_water": "yes", "fee": "yes", "name": "Sandhill Station", "power_supply": "no", "reservation": "yes", "shower": "no", "tents": "yes", "toilets": "yes", "tourism": "camp_site", "osm_id": 2903260582}}, {"type": "Feature", "geometry": {"type": "Point", "coordinates": [-88.3335219, 46.1027247]}, "properties": {"addr:state": "MI", "charge": "20 USD", "drinking_water": "yes", "fee": "yes", "gnis:feature_id": "2129482", "internet_access": "wlan", "name": "Paint River Hills Campground", "phone": "+1-906-875-4977", "power_supply": "yes", "toilets": "yes", "tourism": "camp_site", "website": "http://www.prhcamp.com/", "osm_id": 2907829987}}, {"type": "Feature", "geometry": {"type": "Point", "coordinates": [-88.6331906, 46.2416166]}, "properties": {"gnis:feature_id": "1622351", "name": "Blockhouse Campground", "operator": "United States Forest Service", "tourism": "camp_site", "osm_id": 2911956849}}, {"type": "Feature", "geometry": {"type": "Point", "coordinates": [-88.6565655, 46.5699271]}, "properties": {"gnis:feature_id": "1622590", "name": "Sturgeon River Campground", "operator": "United States Forest Service", "tourism": "camp_site", "osm_id": 2913259357}}, {"type": "Feature", "geometry": {"type": "Point", "coordinates": [-88.882937, 46.1711526]}, "properties": {"gnis:feature_id": "1622331", "name": "Golden Lake Campground", "operator": "Scenic Canyons Recreational Services", "tourism": "camp_site", "osm_id": 2915040881}}, {"type": "Feature", "geometry": {"type": "Point", "coordinates": [-88.7226058, 46.393311]}, "properties": {"gnis:feature_id": "1622359", "name": "Lake Sainte Kathryn Campground", "operator": "Scenic Canyons Recreational Services", "tourism": "camp_site", "osm_id": 2915040885}}, {"type": "Feature", "geometry": {"type": "Point", "coordinates": [-88.9471528, 46.5043418]}, "properties": {"gnis:feature_id": "1622506", "name": "Sparrow Rapids Campground", "operator": "United States Forest Service", "tourism": "camp_site", "osm_id": 2915040895}}, {"type": "Feature", "geometry": {"type": "Point", "coordinates": [-86.5492055, 46.0586227]}, "properties": {"gnis:feature_id": "1622255", "name": "Camp 7 Lake Campground", "tourism": "camp_site", "website": "https://www.fs.usda.gov/recarea/hiawatha/recreation/hiking/recarea/?recid=13276&actid=50", "osm_id": 2915338162}}, {"type": "Feature", "geometry": {"type": "Point", "coordinates": [-86.4373798, 46.2202747]}, "properties": {"gnis:feature_id": "1622666", "name": "Colwell Lake Campground", "tourism": "camp_site", "osm_id": 2915338164}}, {"type": "Feature", "geometry": {"type": "Point", "coordinates": [-86.4047714, 46.1548497]}, "properties": {"gnis:feature_id": "1622630", "name": "Indian River Campground", "tourism": "camp_site", "osm_id": 2915338168}}, {"type": "Feature", "geometry": {"type": "Point", "coordinates": [-86.4504374, 46.1631172]}, "properties": {"gnis:feature_id": "1622363", "name": "Little Bass Lake Campground", "tourism": "camp_site", "osm_id": 2915338171}}, {"type": "Feature", "geometry": {"type": "Point", "coordinates": [-86.9499234, 45.8700708]}, "properties": {"addr:city": "Rapid River", "addr:housenumber": "8935", "addr:postcode": "49878", "addr:street": "County 513 T Road", "gnis:feature_id": "2351704", "name": "Vagabond Resort", "tourism": "caravan_site", "website": "http://www.vagabondresort.com/", "osm_id": 2915928417}}, {"type": "Feature", "geometry": {"type": "Point", "coordinates": [-88.4374552, 46.7848075]}, "properties": {"capacity": "30", "caravans": "yes", "charge": "26", "fee": "yes", "gnis:feature_id": "2129331", "group_only": "no", "internet_access": "wlan", "motor_vehicle": "yes", "name": "L'Anse Township Park Campground", "operator": "L'Anse Township", "phone": "+1-906-524-6985", "sanitary_dump_station": "yes", "tents": "yes", "tourism": "camp_site", "website": "https://www.lansetownship.org/township_park.html", "osm_id": 2916769534}}, {"type": "Feature", "geometry": {"type": "Point", "coordinates": [-88.1552835, 46.1765963]}, "properties": {"access": "private", "addr:city": "Crystal Falls", "addr:housenumber": "212", "addr:postcode": "49920", "addr:state": "MI", "addr:street": "Narrow Way", "name": "Lake Ellen Camp", "phone": "+1-906-542-3529", "tourism": "camp_site", "website": "http://www.lakeellencamp.com/", "osm_id": 2916769535}}, {"type": "Feature", "geometry": {"type": "Point", "coordinates": [-87.4926115, 46.6267003]}, "properties": {"cabins": "yes", "name": "Little Presque Isle Cabins", "tourism": "camp_site", "osm_id": 2916769538}}, {"type": "Feature", "geometry": {"type": "Point", "coordinates": [-88.0117881, 46.5324366]}, "properties": {"gnis:feature_id": "2336758", "name": "Michigamme Shores Campground", "tourism": "caravan_site", "website": "https://www.michigammeshores.com/", "osm_id": 2916769540}}, {"type": "Feature", "geometry": {"type": "Point", "coordinates": [-88.4719879, 46.7830652]}, "properties": {"gnis:feature_id": "2129159", "name": "Ojibwa Campground", "tents": "yes", "tourism": "caravan_site", "website": "http://www.ojibwacampground.com/", "osm_id": 2916769541}}, {"type": "Feature", "geometry": {"type": "Point", "coordinates": [-89.6250519, 46.5501698]}, "properties": {"gnis:feature_id": "1622528", "name": "Ontonagon County Park Campground", "tourism": "caravan_site", "osm_id": 2916769542}}, {"type": "Feature", "geometry": {"type": "Point", "coordinates": [-86.2107225, 46.6427429]}, "properties": {"backcountry": "yes", "gnis:feature_id": "620327", "name": "Au Sable Point Campground", "tourism": "camp_site", "osm_id": 2917986962}}, {"type": "Feature", "geometry": {"type": "Point", "coordinates": [-86.3622309, 45.9733443]}, "properties": {"gnis:feature_id": "1622273", "name": "Indian Lake State Park West Campground", "tourism": "caravan_site", "osm_id": 2917986969}}, {"type": "Feature", "geometry": {"type": "Point", "coordinates": [-86.3560167, 45.9476734]}, "properties": {"addr:city": "Manistique", "addr:housenumber": "202", "addr:postcode": "49845", "addr:street": "South County Road 455", "gnis:feature_id": "2356674", "name": "Indian Lake Travel Resort", "tents": "yes", "tourism": "caravan_site", "website": "https://www.indianlaketravelresort.com/", "osm_id": 2917986970}}, {"type": "Feature", "geometry": {"type": "Point", "coordinates": [-86.725196, 46.3118203]}, "properties": {"addr:city": "Munising", "addr:housenumber": "E 7609", "addr:postcode": "49862", "addr:street": "Otter Lake Road", "gnis:feature_id": "2351955", "name": "Otter Lake Campground and Lodges", "tourism": "caravan_site", "website": "http://www.playatotterlake.com/", "osm_id": 2917986972}}, {"type": "Feature", "geometry": {"type": "Point", "coordinates": [-87.3277202, 46.2908313]}, "properties": {"addr:city": "Skandia", "addr:housenumber": "430", "addr:street": "Bible Camp Drive", "name": "Upper Peninsula Bible Camp", "tourism": "camp_site", "website": "https://upbiblecamp.org/", "osm_id": 2917986976}}, {"type": "Feature", "geometry": {"type": "Point", "coordinates": [-86.3364552, 45.8712825]}, "properties": {"addr:city": "Manistique", "addr:housenumber": "1786S", "addr:postcode": "49854", "addr:state": "MI", "addr:street": "Little Harbor Road", "gnis:feature_id": "2356675", "name": "Woodstar Beach Campground", "phone": "+1-906-341-6514", "tourism": "caravan_site", "website": "http://www.woodstarbeachcampground.com/", "osm_id": 2917986978}}, {"type": "Feature", "geometry": {"type": "Point", "coordinates": [-86.2380792, 44.4902053]}, "properties": {"addr:city": "Arcadia", "addr:housenumber": "17220", "addr:postcode": "49613", "addr:street": "First Street", "gnis:feature_id": "2500374", "name": "Arcadia Campground Marina", "tents": "yes", "tourism": "caravan_site", "website": "http://www.arcadiacm.com/", "osm_id": 2925319035}}, {"type": "Feature", "geometry": {"type": "Point", "coordinates": [-86.2039129, 44.6130305]}, "properties": {"addr:city": "Frankfort", "addr:housenumber": "1923", "addr:postcode": "49635", "addr:state": "MI", "addr:street": "River Road", "gnis:feature_id": "2494997", "name": "Betsie River Campsite", "phone": "+1-231-352-9535", "tourism": "caravan_site", "website": "https://www.betsieriver.com/", "osm_id": 2925319036}}, {"type": "Feature", "geometry": {"type": "Point", "coordinates": [-86.2014509, 44.2732339]}, "properties": {"addr:city": "Manistee", "addr:housenumber": "5025", "addr:postcode": "49660", "addr:state": "MI", "addr:street": "River Road", "gnis:feature_id": "2499831", "name": "Coho Bend Campground", "phone": "+1-231-723-7321", "tourism": "caravan_site", "website": "https://cohobend.com/", "osm_id": 2932072176}}, {"type": "Feature", "geometry": {"type": "Point", "coordinates": [-86.3263985, 43.9797969]}, "properties": {"addr:city": "Scottville", "addr:housenumber": "1884", "addr:postcode": "49454", "addr:state": "MI", "addr:street": "West Hansen Road", "gnis:feature_id": "2514584", "name": "Crystal Lake Campground", "phone": "+1-231-757-4510", "tourism": "caravan_site", "website": "https://crystallakecamping.com/", "osm_id": 2933398136}}, {"type": "Feature", "geometry": {"type": "Point", "coordinates": [-86.518925, 43.6571551]}, "properties": {"addr:city": "Mears", "addr:housenumber": "9671", "addr:postcode": "49436", "addr:state": "MI", "addr:street": "West Silver Lake Road", "gnis:feature_id": "2515822", "name": "Hideaway Campground", "phone": "+1-231-873-4428", "tents": "yes", "tourism": "caravan_site", "website": "http://www.hideawaycampground.com/", "osm_id": 2933398140}}, {"type": "Feature", "geometry": {"type": "Point", "coordinates": [-86.4382255, 43.783911]}, "properties": {"gnis:feature_id": "2515817", "name": "Mears-Modern", "tourism": "caravan_site", "osm_id": 2933398146}}, {"type": "Feature", "geometry": {"type": "Point", "coordinates": [-86.3570617, 43.2619637]}, "properties": {"drinking_water": "yes", "fee": "yes", "internet_access": "no", "name": "Muskegon-Lake Michigan", "operator": "Michigan Department of Natural Resources", "power_supply": "yes", "sanitary_dump_station": "yes", "tents": "yes", "toilets": "yes", "tourism": "caravan_site", "wheelchair": "yes", "osm_id": 2933398149}}, {"type": "Feature", "geometry": {"type": "Point", "coordinates": [-86.3304806, 43.234463]}, "properties": {"gnis:feature_id": "2571769", "name": "Muskegon-South Channel", "tents": "yes", "tourism": "caravan_site", "osm_id": 2933398150}}, {"type": "Feature", "geometry": {"type": "Point", "coordinates": [-86.4913774, 43.6628906]}, "properties": {"addr:city": "Mears", "addr:housenumber": "8595", "addr:postcode": "49436", "addr:state": "MI", "addr:street": "West Silver Lake Road", "gnis:feature_id": "2515821", "name": "Sandy Shores Campground", "phone": "+1-231-873-3003", "tourism": "caravan_site", "website": "https://www.sandyshorescampground.com/", "osm_id": 2933398161}}, {"type": "Feature", "geometry": {"type": "Point", "coordinates": [-86.4941211, 43.661481]}, "properties": {"gnis:feature_id": "2515818", "name": "Silver Lake State Park Campground", "tents": "yes", "tourism": "caravan_site", "osm_id": 2933398165}}, {"type": "Feature", "geometry": {"type": "Point", "coordinates": [-86.478684, 43.5551412]}, "properties": {"addr:city": "New Era", "addr:housenumber": "8079", "addr:postcode": "49446", "addr:state": "MI", "addr:street": "West Stoney Lake Road", "cabins": "yes", "fee": "yes", "gnis:feature_id": "2515815", "internet_access": "yes", "name": "Stony Haven Campground & Cabins", "phone": "+1-231-861-5201", "sanitary_dump_station": "yes", "tents": "yes", "tourism": "caravan_site", "website": "http://www.campingfriend.com/StonyHavenCampground/", "osm_id": 2933398166}}, {"type": "Feature", "geometry": {"type": "Point", "coordinates": [-87.6785948, 46.5043171]}, "properties": {"addr:city": "Ishpeming", "addr:housenumber": "1200", "addr:postcode": "49849", "addr:state": "MI", "addr:street": "Country Lane", "gnis:feature_id": "2336538", "name": "Country Village RV Park", "phone": "+1-906-486-0300", "tourism": "caravan_site", "website": "http://www.countryvillageresort.com/", "osm_id": 2934612187}}, {"type": "Feature", "geometry": {"type": "Point", "coordinates": [-86.2113889, 44.350613]}, "properties": {"gnis:feature_id": "2500104", "name": "Portage Lake RV Park", "tourism": "caravan_site", "osm_id": 2934612703}}, {"type": "Feature", "geometry": {"type": "Point", "coordinates": [-86.2060372, 43.1195011]}, "properties": {"gnis:feature_id": "2571762", "name": "Lake Fran Campground", "tourism": "caravan_site", "website": "http://lakefran.com/", "osm_id": 2936088148}}, {"type": "Feature", "geometry": {"type": "Point", "coordinates": [-88.9625139, 45.9024856]}, "properties": {"capacity": "37", "drinking_water": "yes", "name": "Luna White Deer Campground", "reservation": "accepted", "toilets": "yes", "tourism": "camp_site", "website": "https://www.fs.usda.gov/recarea/cnnf/recreation/camping-cabins/recarea/?recid=27879&actid=29", "osm_id": 2938820913}}, {"type": "Feature", "geometry": {"type": "Point", "coordinates": [-89.0431844, 45.8779225]}, "properties": {"capacity": "27", "drinking_water": "yes", "fee": "yes", "name": "Seven Mile Lake Campground", "toilets": "vault", "tourism": "camp_site", "website": "https://www.fs.usda.gov/recarea/cnnf/recreation/camping-cabins/recarea/?recid=27883&actid=29", "osm_id": 2943036456}}, {"type": "Feature", "geometry": {"type": "Point", "coordinates": [-92.8753731, 44.5088495]}, "properties": {"addr:city": "Cannon Falls", "addr:housenumber": "30365", "addr:postcode": "55009", "addr:state": "MN", "addr:street": "Oak Lane", "name": "Cannon Falls Campground", "phone": "+1-507-263-3145", "tourism": "caravan_site", "url": "https://www.cannonfallscampground.com/", "osm_id": 2953705844}}, {"type": "Feature", "geometry": {"type": "Point", "coordinates": [-92.8777496, 44.5085128]}, "properties": {"source": "Bing", "tourism": "camp_site", "osm_id": 2953705845}}, {"type": "Feature", "geometry": {"type": "Point", "coordinates": [-92.8770898, 44.51002]}, "properties": {"source": "Bing", "tourism": "caravan_site", "osm_id": 2953705849}}, {"type": "Feature", "geometry": {"type": "Point", "coordinates": [-92.8768215, 44.5079198]}, "properties": {"source": "Bing", "tourism": "caravan_site", "osm_id": 2953705850}}, {"type": "Feature", "geometry": {"type": "Point", "coordinates": [-92.8754858, 44.5078548]}, "properties": {"source": "Bing", "tourism": "caravan_site", "osm_id": 2953705857}}, {"type": "Feature", "geometry": {"type": "Point", "coordinates": [-88.7317749, 45.3694115]}, "properties": {"capacity": "19", "drinking_water": "yes", "fee": "yes", "gnis:feature_id": "1578641", "name": "Ada Lake Campground", "operator": "USFS", "reservation": "no", "toilets": "vault", "tourism": "camp_site", "website": "https://www.fs.usda.gov/recarea/cnnf/recreation/camping-cabins/recarea/?recid=27923&actid=29", "osm_id": 2956737374}}, {"type": "Feature", "geometry": {"type": "Point", "coordinates": [-88.4655383, 45.157034]}, "properties": {"capacity": "30", "drinking_water": "yes", "fee": "yes", "gnis:feature_id": "1578682", "name": "Bagley Rapids Campground", "operator": "United States Forest Service", "reservation": "no", "toilets": "vault", "tourism": "camp_site", "website": "https://www.fs.usda.gov/recarea/cnnf/recreation/camping-cabins/recarea/?recid=27925&actid=29", "osm_id": 2956737375}}, {"type": "Feature", "geometry": {"type": "Point", "coordinates": [-88.6456619, 45.2685794]}, "properties": {"capacity": "36", "drinking_water": "yes", "gnis:feature_id": "1578839", "name": "Boot Lake Campground", "operator": "USFS", "reservation": "accepted", "toilets": "vault", "tourism": "camp_site", "website": "https://www.fs.usda.gov/recarea/cnnf/recreation/camping-cabins/recarea/?recid=27929&actid=29", "osm_id": 2956737377}}, {"type": "Feature", "geometry": {"type": "Point", "coordinates": [-88.445137, 45.1334358]}, "properties": {"gnis:feature_id": "1581143", "name": "Chute Pond Campground", "tourism": "caravan_site", "osm_id": 2956737381}}, {"type": "Feature", "geometry": {"type": "Point", "coordinates": [-88.7141249, 45.4417812]}, "properties": {"capacity": "26", "drinking_water": "yes", "gnis:feature_id": "1580256", "name": "Richardson Lake Campground", "operator": "USFS", "reservation": "accepted", "toilets": "vault", "tourism": "camp_site", "website": "https://www.fs.usda.gov/recarea/cnnf/recreation/camping-cabins/recarea/?recid=27937&actid=29", "osm_id": 2956737384}}, {"type": "Feature", "geometry": {"type": "Point", "coordinates": [-88.5017603, 45.7014522]}, "properties": {"name": "Laura-Gordon Lakes Campground", "tourism": "camp_site", "osm_id": 2963982981}}, {"type": "Feature", "geometry": {"type": "Point", "coordinates": [-88.5073311, 45.7050856]}, "properties": {"capacity": "41", "drinking_water": "yes", "fee": "yes", "name": "Laura-Gordon Lakes Campground", "reservation": "accepted", "toilets": "vault", "tourism": "camp_site", "website": "https://www.fs.usda.gov/recarea/cnnf/recreation/camping-cabins/recarea/?recid=27933&actid=29", "osm_id": 2963982982}}, {"type": "Feature", "geometry": {"type": "Point", "coordinates": [-91.055986, 43.9148454]}, "properties": {"addr:city": "West Salem", "addr:housenumber": "5334", "addr:postcode": "54669", "addr:street": "Neshonoc Road", "name": "Neshonoc Lakeside Camp Resort", "operator": "Neshonoc Lakeside Camp Resort", "phone": "+1-608-786-1792", "tourism": "camp_site", "website": "https://www.neshonoclakeside.com/", "osm_id": 2974296477}}, {"type": "Feature", "geometry": {"type": "Point", "coordinates": [-91.9191522, 42.6484674]}, "properties": {"addr:city": "Oelwein", "addr:housenumber": "1418", "addr:postcode": "50662", "addr:street": "Q Avenue", "name": "Lake Shore RV Resort & Campground", "phone": "+1-319-283-5234", "tourism": "caravan_site", "website": "https://www.lakeshoreiowa.com/", "osm_id": 3009675405}}, {"type": "Feature", "geometry": {"type": "Point", "coordinates": [-91.9179373, 42.6469709]}, "properties": {"addr:city": "Oelwein", "addr:state": "IA", "camp_type": "camp", "capacity": "40", "charge": "20 USD", "fee": "yes", "phone": "+1-319-283-5440", "power_supply": "yes", "sanitary_dump_station": "yes", "tents": "yes", "tourism": "camp_site", "osm_id": 3009677413}}, {"type": "Feature", "geometry": {"type": "Point", "coordinates": [-92.430662, 43.2467609]}, "properties": {"tents": "no", "tourism": "caravan_site", "osm_id": 3009677714}}, {"type": "Feature", "geometry": {"type": "Point", "coordinates": [-90.5398865, 43.2443446]}, "properties": {"caravans": "yes", "name": "Eagle Cave Campground", "tents": "yes", "tourism": "camp_site", "osm_id": 3046670342}}, {"type": "Feature", "geometry": {"type": "Point", "coordinates": [-92.64772, 45.4035654]}, "properties": {"capacity": "45", "charge": "20 USD/tent; 25 USD/Rv; 15 USD/tent for WI residents; 20 USD/Rv for WI residents", "drinking_water": "yes", "fee": "yes", "name": "Interstate State Park WI - North Campground", "phone": "+1-715-483-3747", "reservation": "yes", "shower": "yes", "toilets:disposal": "flush", "tourism": "camp_site", "osm_id": 3046679111}}, {"type": "Feature", "geometry": {"type": "Point", "coordinates": [-92.131711, 43.3485258]}, "properties": {"capacity": "46", "charge": "17 USD", "drinking_water": "yes", "fee": "yes", "name": "Turkey River Campground", "operator": "Howard County, IA", "phone": "+1-641-985-2127", "power_supply": "yes", "reservation": "no", "shower": "yes", "toilets:type": "flush", "tourism": "camp_site", "website": "http://co.howard.ia.us/offices/conservation/turkeyriver.htm", "osm_id": 3061013030}}, {"type": "Feature", "geometry": {"type": "Point", "coordinates": [-92.1312208, 43.3780316]}, "properties": {"capacity": "42", "charge": "10 USD", "fee": "yes", "name": "Howard County Fairgrounds Campground", "phone": "+1-563-547-4996", "power_supply": "yes", "toilets": "yes", "tourism": "camp_site", "osm_id": 3061030713}}, {"type": "Feature", "geometry": {"type": "Point", "coordinates": [-91.9326459, 43.4153178]}, "properties": {"addr:city": "Cresco", "addr:state": "IA", "backcountry": "yes", "capacity": "20", "fee": "no", "name": "Chimney Rock Campground", "toilets": "vault", "tourism": "camp_site", "osm_id": 3061038809}}, {"type": "Feature", "geometry": {"type": "Point", "coordinates": [-91.9349271, 43.42186]}, "properties": {"description": "No running water", "drinking_water": "no", "fee": "no", "name": "Canoe landing", "toilets": "yes", "tourism": "camp_site", "osm_id": 3061044415}}, {"type": "Feature", "geometry": {"type": "Point", "coordinates": [-92.5666984, 44.1712804]}, "properties": {"source": "Bing", "tourism": "caravan_site", "osm_id": 3066214763}}, {"type": "Feature", "geometry": {"type": "Point", "coordinates": [-92.0077943, 43.5579914]}, "properties": {"capacity": "10", "charge": "10 USD/tent; 15 USD/RV", "drinking_water": "yes", "fee": "yes", "name": "North Park Campground", "phone": "+1-507-886-8122", "power_supply": "yes", "reservation": "no", "shower": "no", "toilets": "vault", "tourism": "camp_site", "osm_id": 3074306647}}, {"type": "Feature", "geometry": {"type": "Point", "coordinates": [-87.7664832, 45.1120188]}, "properties": {"name": "Green's Green Acres Campground", "tourism": "camp_site", "osm_id": 3086865315}}, {"type": "Feature", "geometry": {"type": "Point", "coordinates": [-91.6269178, 43.7766704]}, "properties": {"addr:city": "Houston", "addr:state": "MN", "charge": "28 USD", "description": "$18-$28", "drinking_water": "yes", "fee": "yes", "name": "Cushon's Peak Campground", "reservation": "yes", "toilets": "yes", "tourism": "camp_site", "website": "https://cushonspeakcampground.com/?page_id=25", "osm_id": 3101140131}}, {"type": "Feature", "geometry": {"type": "Point", "coordinates": [-91.6119615, 43.7370547]}, "properties": {"name": "Outback Ranch", "tourism": "camp_site", "osm_id": 3101140632}}, {"type": "Feature", "geometry": {"type": "Point", "coordinates": [-90.762418, 45.7684578]}, "properties": {"backcountry": "yes", "caravans": "no", "fee": "no", "group_only": "yes", "name": "Headquarters Group  Camp", "static_caravans": "no", "tents": "yes", "tourism": "camp_site", "osm_id": 3199377893}}, {"type": "Feature", "geometry": {"type": "Point", "coordinates": [-90.7728062, 45.7609797]}, "properties": {"backcountry": "yes", "bin": "no", "caravans": "no", "drinking_water": "no", "fee": "no", "name": "Boy Scout Camp", "openfire": "yes", "shower": "no", "static_caravans": "no", "tents": "yes", "toilets": "yes", "tourism": "camp_site", "osm_id": 3199380918}}, {"type": "Feature", "geometry": {"type": "Point", "coordinates": [-90.7797611, 45.7536035]}, "properties": {"backcountry": "yes", "bin": "no", "caravans": "no", "drinking_water": "no", "fee": "no", "name": "George's Island Camp", "openfire": "yes", "operator": "Wisconsin Department of Natural Resources", "shower": "no", "static_caravans": "no", "tents": "yes", "toilets": "yes", "tourism": "camp_site", "osm_id": 3199381488}}, {"type": "Feature", "geometry": {"type": "Point", "coordinates": [-92.7413791, 44.3152022]}, "properties": {"source": "Bing", "tourism": "caravan_site", "osm_id": 3199614080}}, {"type": "Feature", "geometry": {"type": "Point", "coordinates": [-92.7449894, 44.3134481]}, "properties": {"source": "Bing", "tourism": "caravan_site", "osm_id": 3199614095}}, {"type": "Feature", "geometry": {"type": "Point", "coordinates": [-92.747693, 44.3139202]}, "properties": {"source": "Bing", "tourism": "caravan_site", "osm_id": 3199614383}}, {"type": "Feature", "geometry": {"type": "Point", "coordinates": [-92.5488728, 43.3732724]}, "properties": {"capacity": "80", "charge": "12 USD/tent; 17 USD/RV", "drinking_water": "yes", "fee": "yes", "name": "Lake Hendricks Park Campground", "phone": "+1-563-547-3634", "power_supply": "yes", "reservation": "yes", "sanitary_dump_station": "yes", "shower": "yes", "toilets:disposal": "flush", "tourism": "camp_site", "osm_id": 3202516381}}, {"type": "Feature", "geometry": {"type": "Point", "coordinates": [-88.8697276, 44.8079431]}, "properties": {"name": "Pine Grove Campground", "tourism": "camp_site", "osm_id": 3217151067}}, {"type": "Feature", "geometry": {"type": "Point", "coordinates": [-92.0877658, 42.8678338]}, "properties": {"addr:city": "Sumner", "addr:state": "IA", "capacity": "9", "charge": "15 USD", "fee": "yes", "name": "North Woods Park Campground", "reservation": "no", "toilets": "yes", "tourism": "camp_site", "osm_id": 3218320581}}, {"type": "Feature", "geometry": {"type": "Point", "coordinates": [-91.4892815, 44.0301113]}, "properties": {"group_only": "yes", "name": "Site C", "tourism": "camp_site", "osm_id": 3219553813}}, {"type": "Feature", "geometry": {"type": "Point", "coordinates": [-91.1276757, 42.5324887]}, "properties": {"addr:city": "Dyersville", "addr:state": "IA", "capacity": "29", "charge": "22 USD", "fee": "yes", "name": "New Wine Park Campground", "power_supply": "yes", "reservation": "yes", "shower": "yes", "tourism": "camp_site", "osm_id": 3310922112}}, {"type": "Feature", "geometry": {"type": "Point", "coordinates": [-88.4256133, 42.5712604]}, "properties": {"name": "RV Camping @ Big Foot Beach State Park", "tourism": "camp_site", "osm_id": 3381577059}}, {"type": "Feature", "geometry": {"type": "Point", "coordinates": [-88.4276899, 42.5696294]}, "properties": {"name": "Tent Camping @ Big Foot Beach State Park", "tourism": "camp_site", "osm_id": 3381618111}}, {"type": "Feature", "geometry": {"type": "Point", "coordinates": [-86.3750348, 45.9987126]}, "properties": {"tourism": "caravan_site", "osm_id": 3383512186}}, {"type": "Feature", "geometry": {"type": "Point", "coordinates": [-89.1512223, 44.3456682]}, "properties": {"max_age": "18", "min_age": "12", "name": "Camp Onaway", "operator": "Boys & Girls Brigade", "source": "http://www.bgbrigade.com/camp-onaway/", "tourism": "camp_site", "osm_id": 3413390390}}, {"type": "Feature", "geometry": {"type": "Point", "coordinates": [-92.6525442, 44.0856739]}, "properties": {"capacity": "30", "charge": "25 USD/tent; 30 USD/RV", "drinking_water": "yes", "fee": "yes", "fee_zone": "$25-$30", "name": "Oxbow Park Campground", "phone": "+1-507-775-2451", "power_supply": "yes", "reservation": "yes", "sanitary_dump_station": "yes", "seasonal": "spring;summer;autumn", "shower": "yes", "source": "Bing", "toilets:type": "flush", "tourism": "camp_site", "website": "https://www.co.olmsted.mn.us/pw/parks/oxbowpark/Pages/CampingatOxbow.aspx", "osm_id": 3582326499}}, {"type": "Feature", "geometry": {"type": "Point", "coordinates": [-91.8813651, 42.780226]}, "properties": {"addr:city": "Maynard", "addr:state": "IA", "capacity": "21", "charge": "12 USD", "fee": "yes", "name": "Maynard City Park Campground", "phone": "+1-563-637-2269", "power_supply": "yes", "tourism": "camp_site", "osm_id": 3584667388}}, {"type": "Feature", "geometry": {"type": "Point", "coordinates": [-86.3758956, 43.5179094]}, "properties": {"group_only": "yes", "name": "Electric Forest General Admission Camping", "tourism": "camp_site", "osm_id": 3590220846}}, {"type": "Feature", "geometry": {"type": "Point", "coordinates": [-86.3733364, 43.5211197]}, "properties": {"group_only": "yes", "name": "Electric Forest Maplewoods Camping", "tourism": "camp_site", "osm_id": 3590244936}}, {"type": "Feature", "geometry": {"type": "Point", "coordinates": [-89.8592263, 42.8102987]}, "properties": {"addr:city": "Blanchardville", "addr:state": "WI", "capacity": "15", "charge": "20 USD", "drinking_water": "yes", "fee": "yes", "name": "McKellar Park Campground", "reservation": "no", "toilets": "no", "tourism": "camp_site", "tourism_1": "camp_site", "osm_id": 3638766891}}, {"type": "Feature", "geometry": {"type": "Point", "coordinates": [-91.7034013, 45.695551]}, "properties": {"name": "Huron", "tourism": "camp_site", "osm_id": 3641028042}}, {"type": "Feature", "geometry": {"type": "Point", "coordinates": [-91.7034442, 45.697889]}, "properties": {"name": "Blackfoot", "tourism": "camp_site", "osm_id": 3641028051}}, {"type": "Feature", "geometry": {"type": "Point", "coordinates": [-91.6991521, 45.6980763]}, "properties": {"name": "Choctaw", "tourism": "camp_site", "osm_id": 3641028062}}, {"type": "Feature", "geometry": {"type": "Point", "coordinates": [-91.7034657, 45.7001677]}, "properties": {"name": "Fox", "tourism": "camp_site", "osm_id": 3641028064}}, {"type": "Feature", "geometry": {"type": "Point", "coordinates": [-91.7034013, 45.7015756]}, "properties": {"name": "Seneca", "tourism": "camp_site", "osm_id": 3641028201}}, {"type": "Feature", "geometry": {"type": "Point", "coordinates": [-91.7035515, 45.6968549]}, "properties": {"name": "Comanche", "tourism": "camp_site", "osm_id": 3641028250}}, {"type": "Feature", "geometry": {"type": "Point", "coordinates": [-91.7029292, 45.6991936]}, "properties": {"name": "Winnebago", "tourism": "camp_site", "osm_id": 3641028265}}, {"type": "Feature", "geometry": {"type": "Point", "coordinates": [-91.7020811, 45.6947191]}, "properties": {"name": "Shoshone", "tourism": "camp_site", "osm_id": 3641032882}}, {"type": "Feature", "geometry": {"type": "Point", "coordinates": [-91.707585, 45.6935726]}, "properties": {"name": "Dakota", "tourism": "camp_site", "osm_id": 3641032884}}, {"type": "Feature", "geometry": {"type": "Point", "coordinates": [-91.7081214, 45.6957008]}, "properties": {"name": "Crow", "tourism": "camp_site", "osm_id": 3641032885}}, {"type": "Feature", "geometry": {"type": "Point", "coordinates": [-91.7083789, 45.6964731]}, "properties": {"name": "Pawnee", "tourism": "camp_site", "osm_id": 3641032886}}, {"type": "Feature", "geometry": {"type": "Point", "coordinates": [-91.7067696, 45.6928985]}, "properties": {"name": "Arapahoe", "tourism": "camp_site", "osm_id": 3641032887}}, {"type": "Feature", "geometry": {"type": "Point", "coordinates": [-91.7082502, 45.6980167]}, "properties": {"name": "Cherokee", "tourism": "camp_site", "osm_id": 3641032888}}, {"type": "Feature", "geometry": {"type": "Point", "coordinates": [-91.7084219, 45.6971846]}, "properties": {"name": "Santee", "tourism": "camp_site", "osm_id": 3641032889}}, {"type": "Feature", "geometry": {"type": "Point", "coordinates": [-91.7062975, 45.6956259]}, "properties": {"name": "Cheyenne", "tourism": "camp_site", "osm_id": 3641032891}}, {"type": "Feature", "geometry": {"type": "Point", "coordinates": [-89.468402, 43.1111282]}, "properties": {"addr:city": "Westport", "addr:state": "WI", "addr:street": "County Rd M", "capacity": "30", "charge": "25 USD", "fee": "yes", "operator": "Dane County", "tourism": "camp_site", "website": "https://www.danecountyparks.com/park/Mendota", "osm_id": 3664654031}}, {"type": "Feature", "geometry": {"type": "Point", "coordinates": [-90.8199921, 44.3747444]}, "properties": {"addr:city": "Black River Falls", "addr:country": "US", "addr:housenumber": "N8390", "addr:postcode": "54615", "addr:state": "WI", "addr:street": "US 12", "name": "Camp NCN North", "nudism": "customary", "phone": "+1-715-299-7138", "tourism": "camp_site", "website": "https://www.campncn.com/", "osm_id": 3665276976}}, {"type": "Feature", "geometry": {"type": "Point", "coordinates": [-87.797842, 44.6361669]}, "properties": {"name": "Cecil B. Depeau Bay Shore Park Campgrounds", "tourism": "camp_site", "osm_id": 3725616615}}, {"type": "Feature", "geometry": {"type": "Point", "coordinates": [-90.5264247, 44.1253597]}, "properties": {"name": "Jellystone Campground", "operator": "Jellystone Park Warrens", "tourism": "camp_site", "osm_id": 3844164780}}, {"type": "Feature", "geometry": {"type": "Point", "coordinates": [-89.9862351, 43.8999406]}, "properties": {"name": "Choctaw", "tourism": "camp_site", "osm_id": 3895721915}}, {"type": "Feature", "geometry": {"type": "Point", "coordinates": [-89.8518758, 44.743544]}, "properties": {"caravans": "yes", "name": "West Unit Campground", "operator": "Marathon County", "static_caravans": "no", "tents": "no", "tourism": "camp_site", "osm_id": 3900770344}}, {"type": "Feature", "geometry": {"type": "Point", "coordinates": [-89.8362505, 44.7368574]}, "properties": {"caravans": "yes", "name": "South Unit Campground", "operator": "Marathon County", "tents": "yes", "tourism": "camp_site", "osm_id": 3900770345}}, {"type": "Feature", "geometry": {"type": "Point", "coordinates": [-86.2617222, 43.1251288]}, "properties": {"name": "Organization Campground", "tourism": "camp_site", "osm_id": 4069703077}}, {"type": "Feature", "geometry": {"type": "Point", "coordinates": [-89.1401417, 44.1487344]}, "properties": {"name": "Badger", "tourism": "camp_site", "osm_id": 4079575436}}, {"type": "Feature", "geometry": {"type": "Point", "coordinates": [-89.1398603, 44.1502288]}, "properties": {"name": "Bear", "tourism": "camp_site", "osm_id": 4079575438}}, {"type": "Feature", "geometry": {"type": "Point", "coordinates": [-89.1435938, 44.1514289]}, "properties": {"name": "Wolf", "tourism": "camp_site", "osm_id": 4079575443}}, {"type": "Feature", "geometry": {"type": "Point", "coordinates": [-89.1502299, 44.1536498]}, "properties": {"name": "Sioux", "tourism": "camp_site", "osm_id": 4079575444}}, {"type": "Feature", "geometry": {"type": "Point", "coordinates": [-89.1493749, 44.1524925]}, "properties": {"name": "Apache", "tourism": "camp_site", "osm_id": 4079575445}}, {"type": "Feature", "geometry": {"type": "Point", "coordinates": [-89.1522447, 44.1546117]}, "properties": {"name": "Ojibwa", "tourism": "camp_site", "osm_id": 4079575446}}, {"type": "Feature", "geometry": {"type": "Point", "coordinates": [-89.1520417, 44.1532754]}, "properties": {"name": "Blackhawk", "tourism": "camp_site", "osm_id": 4079575447}}, {"type": "Feature", "geometry": {"type": "Point", "coordinates": [-89.1528172, 44.1522302]}, "properties": {"name": "Iroquois", "tourism": "camp_site", "osm_id": 4079575448}}, {"type": "Feature", "geometry": {"type": "Point", "coordinates": [-89.1503631, 44.1504799]}, "properties": {"name": "Cheyenne", "tourism": "camp_site", "osm_id": 4079575453}}, {"type": "Feature", "geometry": {"type": "Point", "coordinates": [-89.1494017, 44.1501603]}, "properties": {"name": "Cherokee", "tourism": "camp_site", "osm_id": 4079575454}}, {"type": "Feature", "geometry": {"type": "Point", "coordinates": [-89.1417925, 44.1506131]}, "properties": {"name": "Elk", "tourism": "camp_site", "osm_id": 4079575457}}, {"type": "Feature", "geometry": {"type": "Point", "coordinates": [-89.1413173, 44.1514868]}, "properties": {"name": "Fox", "tourism": "camp_site", "osm_id": 4079575458}}, {"type": "Feature", "geometry": {"type": "Point", "coordinates": [-91.2282767, 43.1542554]}, "properties": {"name": "Brown's Hollow Camp", "tourism": "camp_site", "osm_id": 4117839057}}, {"type": "Feature", "geometry": {"type": "Point", "coordinates": [-91.2596572, 43.1661535]}, "properties": {"name": "Camp Glen Wendel", "tourism": "camp_site", "osm_id": 4117839058}}, {"type": "Feature", "geometry": {"type": "Point", "coordinates": [-91.2496344, 43.1585033]}, "properties": {"name": "Camp John Schultz", "tourism": "camp_site", "osm_id": 4117839059}}, {"type": "Feature", "geometry": {"type": "Point", "coordinates": [-91.2153256, 43.1721939]}, "properties": {"name": "Heffern's Hill Camp", "tourism": "camp_site", "osm_id": 4117839060}}, {"type": "Feature", "geometry": {"type": "Point", "coordinates": [-91.7077362, 44.921664]}, "properties": {"name": "Hoffman's Hills", "tourism": "camp_site", "osm_id": 4149667050}}, {"type": "Feature", "geometry": {"type": "Point", "coordinates": [-89.8274187, 46.7707065]}, "properties": {"backcountry": "yes", "name": "Backcountry campsite BC3", "tourism": "camp_site", "osm_id": 4160125587}}, {"type": "Feature", "geometry": {"type": "Point", "coordinates": [-89.8273346, 46.7702268]}, "properties": {"backcountry": "yes", "name": "Backcountry campsite BC4", "tourism": "camp_site", "osm_id": 4160125588}}, {"type": "Feature", "geometry": {"type": "Point", "coordinates": [-89.8258541, 46.7734891]}, "properties": {"backcountry": "yes", "name": "Backcountry campsite BC2", "tourism": "camp_site", "osm_id": 4160125689}}, {"type": "Feature", "geometry": {"type": "Point", "coordinates": [-89.7906398, 46.792467]}, "properties": {"backcountry": "yes", "name": "Backcountry Campsite #BC-2", "note": "BC-3 is nearby", "ref": "BC-2", "tourism": "camp_site", "osm_id": 4160125690}}, {"type": "Feature", "geometry": {"type": "Point", "coordinates": [-88.9616525, 45.3698369]}, "properties": {"backcountry": "no", "cabins": "no", "lit": "no", "motorhome": "no", "name": "Whitney", "openfire": "yes", "operator": "Ma-Ka-Ja-Wan Scout Reservation", "scout": "yes", "smoking": "no", "tourism": "camp_site", "osm_id": 4172285790}}, {"type": "Feature", "geometry": {"type": "Point", "coordinates": [-88.9645775, 45.3704445]}, "properties": {"backcountry": "no", "cabins": "no", "lit": "no", "motorhome": "no", "name": "Crockett", "openfire": "yes", "operator": "Ma-Ka-Ja-Wan Scout Reservation", "scout": "yes", "smoking": "no", "tourism": "camp_site", "osm_id": 4172285791}}, {"type": "Feature", "geometry": {"type": "Point", "coordinates": [-88.983819, 45.3770202]}, "properties": {"access": "private", "name": "Jack Pine", "tourism": "camp_site", "osm_id": 4172292856}}, {"type": "Feature", "geometry": {"type": "Point", "coordinates": [-88.9808579, 45.3772539]}, "properties": {"access": "private", "name": "Birch", "tourism": "camp_site", "osm_id": 4172292857}}, {"type": "Feature", "geometry": {"type": "Point", "coordinates": [-90.7025951, 44.4206936]}, "properties": {"name": "East Arbutus", "operator": "Jackson County", "tourism": "camp_site", "website": "https://jacksoncountyparks.us/parks/camping/east_arbutus/", "osm_id": 4242342911}}, {"type": "Feature", "geometry": {"type": "Point", "coordinates": [-91.7013879, 45.6876534]}, "properties": {"name": "Menomonee", "tourism": "camp_site", "osm_id": 4250487021}}, {"type": "Feature", "geometry": {"type": "Point", "coordinates": [-91.6984053, 45.6855102]}, "properties": {"name": "Mingo", "tourism": "camp_site", "osm_id": 4250487025}}, {"type": "Feature", "geometry": {"type": "Point", "coordinates": [-91.6945644, 45.6911908]}, "properties": {"name": "Sac", "tourism": "camp_site", "osm_id": 4250487031}}, {"type": "Feature", "geometry": {"type": "Point", "coordinates": [-91.7020102, 45.6901037]}, "properties": {"name": "Miami", "tourism": "camp_site", "osm_id": 4250487034}}, {"type": "Feature", "geometry": {"type": "Point", "coordinates": [-91.7042192, 45.6921797]}, "properties": {"name": "Oneida", "tourism": "camp_site", "osm_id": 4250487043}}, {"type": "Feature", "geometry": {"type": "Point", "coordinates": [-91.7015596, 45.6907333]}, "properties": {"name": "Tuscarora", "tourism": "camp_site", "osm_id": 4250487061}}, {"type": "Feature", "geometry": {"type": "Point", "coordinates": [-91.697429, 45.6866644]}, "properties": {"name": "Tonkawa", "tourism": "camp_site", "osm_id": 4250487074}}, {"type": "Feature", "geometry": {"type": "Point", "coordinates": [-91.6992529, 45.6864021]}, "properties": {"name": "Quapaw", "tourism": "camp_site", "osm_id": 4250487077}}, {"type": "Feature", "geometry": {"type": "Point", "coordinates": [-91.6970427, 45.6845729]}, "properties": {"name": "Mohican", "tourism": "camp_site", "osm_id": 4250487078}}, {"type": "Feature", "geometry": {"type": "Point", "coordinates": [-91.6954656, 45.6851954]}, "properties": {"name": "Paiute", "tourism": "camp_site", "osm_id": 4250487082}}, {"type": "Feature", "geometry": {"type": "Point", "coordinates": [-91.6968389, 45.6926522]}, "properties": {"name": "Potawatami", "tourism": "camp_site", "osm_id": 4250487084}}, {"type": "Feature", "geometry": {"type": "Point", "coordinates": [-91.7031582, 45.6907262]}, "properties": {"name": "Mohawk", "tourism": "camp_site", "osm_id": 4250487087}}, {"type": "Feature", "geometry": {"type": "Point", "coordinates": [-91.6996176, 45.6904485]}, "properties": {"name": "Iroquois", "tourism": "camp_site", "osm_id": 4250487088}}, {"type": "Feature", "geometry": {"type": "Point", "coordinates": [-91.7040798, 45.6912732]}, "properties": {"name": "Cayuga", "tourism": "camp_site", "osm_id": 4250487189}}, {"type": "Feature", "geometry": {"type": "Point", "coordinates": [-91.6958089, 45.690486]}, "properties": {"name": "Chickasaw", "tourism": "camp_site", "osm_id": 4250487194}}, {"type": "Feature", "geometry": {"type": "Point", "coordinates": [-89.9801771, 43.9457277]}, "properties": {"name": "North Backpack Sites 20-22", "ref": "22", "tourism": "camp_site", "osm_id": 4250861390}}, {"type": "Feature", "geometry": {"type": "Point", "coordinates": [-88.8584926, 46.8891205]}, "properties": {"tourism": "caravan_site", "osm_id": 4271966422}}, {"type": "Feature", "geometry": {"type": "Point", "coordinates": [-86.2008407, 46.647032]}, "properties": {"name": "Benchmark Campsite", "tourism": "camp_site", "osm_id": 4296967452}}, {"type": "Feature", "geometry": {"type": "Point", "coordinates": [-87.2130029, 45.1649729]}, "properties": {"name": "Group Camp", "tourism": "camp_site", "osm_id": 4321830186}}, {"type": "Feature", "geometry": {"type": "Point", "coordinates": [-87.2189678, 45.1639737]}, "properties": {"name": "South Nicolet Bay", "tourism": "camp_site", "osm_id": 4321830187}}, {"type": "Feature", "geometry": {"type": "Point", "coordinates": [-87.2326292, 45.1596054]}, "properties": {"camp_site": "serviced", "caravans": "yes", "name": "Tennison Bay", "tents": "yes", "tourism": "camp_site", "osm_id": 4321832299}}, {"type": "Feature", "geometry": {"type": "Point", "coordinates": [-87.2248359, 45.1723865]}, "properties": {"name": "Welcker's", "tourism": "camp_site", "osm_id": 4321832300}}, {"type": "Feature", "geometry": {"type": "Point", "coordinates": [-87.2240082, 45.1687071]}, "properties": {"name": "North Nicolet Bay", "tourism": "camp_site", "osm_id": 4321832304}}, {"type": "Feature", "geometry": {"type": "Point", "coordinates": [-87.4102032, 44.8533169]}, "properties": {"name": "Group Camp @ Potawatomi State Park", "tourism": "camp_site", "osm_id": 4328272688}}, {"type": "Feature", "geometry": {"type": "Point", "coordinates": [-87.4129173, 44.8628491]}, "properties": {"name": "South Camp Area @ Potawatomi State Park", "tourism": "camp_site", "osm_id": 4328280073}}, {"type": "Feature", "geometry": {"type": "Point", "coordinates": [-87.4147631, 44.8662337]}, "properties": {"name": "North Camp Area @ Potawatomi State Park", "tourism": "camp_site", "osm_id": 4328280087}}, {"type": "Feature", "geometry": {"type": "Point", "coordinates": [-91.2820562, 44.0553164]}, "properties": {"name": "Arapahoe", "tourism": "camp_site", "osm_id": 4341390711}}, {"type": "Feature", "geometry": {"type": "Point", "coordinates": [-91.283668, 44.0634014]}, "properties": {"name": "Champions Riverside Resort", "tourism": "camp_site", "osm_id": 4341748765}}, {"type": "Feature", "geometry": {"type": "Point", "coordinates": [-90.6715411, 43.5050939]}, "properties": {"tourism": "camp_site", "osm_id": 4371590482}}, {"type": "Feature", "geometry": {"type": "Point", "coordinates": [-88.8606186, 45.9299663]}, "properties": {"capacity": "8", "drinking_water": "yes", "fee": "no", "name": "Windsor Dam Campground", "operator": "USFS", "toilets": "vault", "tourism": "camp_site", "website": "https://www.fs.usda.gov/recarea/cnnf/recreation/camping-cabins/recarea/?recid=27889&actid=29", "osm_id": 4396393782}}, {"type": "Feature", "geometry": {"type": "Point", "coordinates": [-88.7120633, 45.9239174]}, "properties": {"capacity": "6", "drinking_water": "yes", "fee": "yes", "name": "Stevens Lake Campground", "toilets": "vault", "tourism": "camp_site", "website": "https://www.fs.usda.gov/recarea/cnnf/recreation/camping-cabins/recarea/?recid=27887&actid=29", "osm_id": 4396402129}}, {"type": "Feature", "geometry": {"type": "Point", "coordinates": [-90.6556383, 42.5776894]}, "properties": {"tourism": "camp_site", "osm_id": 4403475135}}, {"type": "Feature", "geometry": {"type": "Point", "coordinates": [-91.0295896, 42.7401528]}, "properties": {"name": "A", "tourism": "camp_site", "osm_id": 4403634644}}, {"type": "Feature", "geometry": {"type": "Point", "coordinates": [-91.0300562, 42.7405215]}, "properties": {"name": "B", "tourism": "camp_site", "osm_id": 4403634645}}, {"type": "Feature", "geometry": {"type": "Point", "coordinates": [-91.0291409, 42.7399956]}, "properties": {"name": "D", "tourism": "camp_site", "osm_id": 4403634672}}, {"type": "Feature", "geometry": {"type": "Point", "coordinates": [-91.0305568, 42.7406375]}, "properties": {"name": "C", "tourism": "camp_site", "osm_id": 4403634673}}, {"type": "Feature", "geometry": {"type": "Point", "coordinates": [-91.027621, 42.7408772]}, "properties": {"name": "22E", "tourism": "camp_site", "osm_id": 4403634678}}, {"type": "Feature", "geometry": {"type": "Point", "coordinates": [-91.0278826, 42.7408298]}, "properties": {"name": "21E", "tourism": "camp_site", "osm_id": 4403634679}}, {"type": "Feature", "geometry": {"type": "Point", "coordinates": [-91.0282866, 42.7406875]}, "properties": {"name": "20E", "tourism": "camp_site", "osm_id": 4403634680}}, {"type": "Feature", "geometry": {"type": "Point", "coordinates": [-91.0286243, 42.7406753]}, "properties": {"name": "19E", "tourism": "camp_site", "osm_id": 4403634681}}, {"type": "Feature", "geometry": {"type": "Point", "coordinates": [-91.0288444, 42.7405596]}, "properties": {"name": "18", "tourism": "camp_site", "osm_id": 4403634682}}, {"type": "Feature", "geometry": {"type": "Point", "coordinates": [-91.0292395, 42.7406942]}, "properties": {"name": "17", "tourism": "camp_site", "osm_id": 4403634683}}, {"type": "Feature", "geometry": {"type": "Point", "coordinates": [-91.0290094, 42.7408541]}, "properties": {"name": "16", "tourism": "camp_site", "osm_id": 4403634684}}, {"type": "Feature", "geometry": {"type": "Point", "coordinates": [-91.0285988, 42.7408566]}, "properties": {"name": "15E", "tourism": "camp_site", "osm_id": 4403634685}}, {"type": "Feature", "geometry": {"type": "Point", "coordinates": [-91.0281153, 42.7409283]}, "properties": {"name": "14E", "tourism": "camp_site", "osm_id": 4403634686}}, {"type": "Feature", "geometry": {"type": "Point", "coordinates": [-91.0277528, 42.7410305]}, "properties": {"name": "13E", "tourism": "camp_site", "osm_id": 4403634687}}, {"type": "Feature", "geometry": {"type": "Point", "coordinates": [-91.0253433, 42.7395795]}, "properties": {"name": "1", "tourism": "camp_site", "osm_id": 4404183065}}, {"type": "Feature", "geometry": {"type": "Point", "coordinates": [-91.0257672, 42.7399209]}, "properties": {"name": "4", "tourism": "camp_site", "osm_id": 4404183066}}, {"type": "Feature", "geometry": {"type": "Point", "coordinates": [-91.0258619, 42.7399967]}, "properties": {"name": "5", "tourism": "camp_site", "osm_id": 4404183067}}, {"type": "Feature", "geometry": {"type": "Point", "coordinates": [-91.0262253, 42.7401769]}, "properties": {"name": "6", "tourism": "camp_site", "osm_id": 4404183200}}, {"type": "Feature", "geometry": {"type": "Point", "coordinates": [-91.0267632, 42.7403459]}, "properties": {"name": "8", "tourism": "camp_site", "osm_id": 4404183201}}, {"type": "Feature", "geometry": {"type": "Point", "coordinates": [-91.0269504, 42.7404471]}, "properties": {"name": "10", "tourism": "camp_site", "osm_id": 4404183202}}, {"type": "Feature", "geometry": {"type": "Point", "coordinates": [-91.0271849, 42.7406478]}, "properties": {"name": "11", "tourism": "camp_site", "osm_id": 4404183203}}, {"type": "Feature", "geometry": {"type": "Point", "coordinates": [-91.0252745, 42.7397509]}, "properties": {"name": "2", "tourism": "camp_site", "osm_id": 4404183204}}, {"type": "Feature", "geometry": {"type": "Point", "coordinates": [-91.0254194, 42.7399201]}, "properties": {"name": "3", "tourism": "camp_site", "osm_id": 4404183205}}, {"type": "Feature", "geometry": {"type": "Point", "coordinates": [-91.0265579, 42.7404377]}, "properties": {"name": "7E", "tourism": "camp_site", "osm_id": 4404183209}}, {"type": "Feature", "geometry": {"type": "Point", "coordinates": [-91.0267978, 42.7406]}, "properties": {"name": "9E", "tourism": "camp_site", "osm_id": 4404183210}}, {"type": "Feature", "geometry": {"type": "Point", "coordinates": [-91.0270964, 42.7408459]}, "properties": {"name": "12E", "tourism": "camp_site", "osm_id": 4404183211}}, {"type": "Feature", "geometry": {"type": "Point", "coordinates": [-91.0271219, 42.7410812]}, "properties": {"name": "23E Host Site", "tourism": "camp_site", "osm_id": 4404183212}}, {"type": "Feature", "geometry": {"type": "Point", "coordinates": [-91.0267117, 42.7414518]}, "properties": {"name": "24", "tourism": "camp_site", "osm_id": 4404183218}}, {"type": "Feature", "geometry": {"type": "Point", "coordinates": [-91.0270663, 42.7415251]}, "properties": {"name": "31E", "tourism": "camp_site", "osm_id": 4404183219}}, {"type": "Feature", "geometry": {"type": "Point", "coordinates": [-91.0272496, 42.7415787]}, "properties": {"name": "30E", "tourism": "camp_site", "osm_id": 4404183220}}, {"type": "Feature", "geometry": {"type": "Point", "coordinates": [-91.0269799, 42.7419935]}, "properties": {"name": "25E", "tourism": "camp_site", "osm_id": 4404183221}}, {"type": "Feature", "geometry": {"type": "Point", "coordinates": [-91.0270887, 42.7421336]}, "properties": {"name": "26E", "tourism": "camp_site", "osm_id": 4404183222}}, {"type": "Feature", "geometry": {"type": "Point", "coordinates": [-91.0276177, 42.7419585]}, "properties": {"name": "29E", "tourism": "camp_site", "osm_id": 4404183231}}, {"type": "Feature", "geometry": {"type": "Point", "coordinates": [-91.0273167, 42.7420624]}, "properties": {"name": "27E", "tourism": "camp_site", "osm_id": 4404183232}}, {"type": "Feature", "geometry": {"type": "Point", "coordinates": [-91.0274523, 42.7420383]}, "properties": {"name": "28E", "tourism": "camp_site", "osm_id": 4404183233}}, {"type": "Feature", "geometry": {"type": "Point", "coordinates": [-91.024763, 42.7397076]}, "properties": {"name": "41", "tourism": "camp_site", "osm_id": 4404183235}}, {"type": "Feature", "geometry": {"type": "Point", "coordinates": [-91.0248977, 42.7398737]}, "properties": {"name": "40", "tourism": "camp_site", "osm_id": 4404183236}}, {"type": "Feature", "geometry": {"type": "Point", "coordinates": [-91.0246138, 42.7399668]}, "properties": {"name": "39", "tourism": "camp_site", "osm_id": 4404183237}}, {"type": "Feature", "geometry": {"type": "Point", "coordinates": [-91.0250725, 42.7404344]}, "properties": {"name": "38", "tourism": "camp_site", "osm_id": 4404183239}}, {"type": "Feature", "geometry": {"type": "Point", "coordinates": [-91.0253579, 42.7403378]}, "properties": {"name": "37", "tourism": "camp_site", "osm_id": 4404183240}}, {"type": "Feature", "geometry": {"type": "Point", "coordinates": [-91.0254606, 42.7405415]}, "properties": {"name": "36", "tourism": "camp_site", "osm_id": 4404183241}}, {"type": "Feature", "geometry": {"type": "Point", "coordinates": [-91.0257011, 42.7403931]}, "properties": {"name": "35", "tourism": "camp_site", "osm_id": 4404183242}}, {"type": "Feature", "geometry": {"type": "Point", "coordinates": [-91.025831, 42.7406534]}, "properties": {"name": "34", "tourism": "camp_site", "osm_id": 4404183243}}, {"type": "Feature", "geometry": {"type": "Point", "coordinates": [-91.0261935, 42.7408537]}, "properties": {"name": "32", "tourism": "camp_site", "osm_id": 4404183244}}, {"type": "Feature", "geometry": {"type": "Point", "coordinates": [-91.026325, 42.7407064]}, "properties": {"name": "33", "tourism": "camp_site", "osm_id": 4404183245}}, {"type": "Feature", "geometry": {"type": "Point", "coordinates": [-90.7036993, 42.6169568]}, "properties": {"addr:city": "Dubuque", "addr:housenumber": "22312", "addr:state": "IA", "addr:street": "Golf Lake Road", "charge": "24 USD", "drinking_water": "yes", "fee": "yes", "name": "Mud Lake Park Campground", "power_supply": "yes", "reservation": "accepted", "toilets": "yes", "tourism": "camp_site", "osm_id": 4414681588}}, {"type": "Feature", "geometry": {"type": "Point", "coordinates": [-89.8060559, 44.1254616]}, "properties": {"name": "Pineland Camping", "name:en": "Pineland Camping", "tourism": "camp_site", "osm_id": 4482637395}}, {"type": "Feature", "geometry": {"type": "Point", "coordinates": [-90.6117571, 46.1674678]}, "properties": {"addr:housenumber": "23913", "addr:postcode": "54527", "addr:street": "Prieb Road", "caravans": "yes", "fee": "yes", "name": "Northern Lure Resort & Campground", "name:en": "Northern Lure Resort & Campground", "tents": "yes", "tourism": "camp_site", "website": "https://www.northernlure.com/", "osm_id": 4486881592}}, {"type": "Feature", "geometry": {"type": "Point", "coordinates": [-91.439912, 46.05049]}, "properties": {"name:en": "KOA - Hayward", "tourism": "camp_site", "osm_id": 4486938990}}, {"type": "Feature", "geometry": {"type": "Point", "coordinates": [-89.0522738, 46.3127515]}, "properties": {"name": "Burned Dam Campground", "name:en": "Burned Dam Campground", "tourism": "camp_site", "osm_id": 4568464989}}, {"type": "Feature", "geometry": {"type": "Point", "coordinates": [-91.9375636, 47.0143153]}, "properties": {"name": "Sucker River Campsite", "source": "SHT GPS Track", "tourism": "camp_site", "osm_id": 4696068733}}, {"type": "Feature", "geometry": {"type": "Point", "coordinates": [-91.9722514, 46.9892484]}, "properties": {"name": "Heron Pond", "source": "SHT GPS Track", "tourism": "camp_site", "osm_id": 4696069702}}, {"type": "Feature", "geometry": {"type": "Point", "coordinates": [-92.0136808, 46.9637121]}, "properties": {"name": "Lone Tree", "source": "SHT GPS track", "tourism": "camp_site", "osm_id": 4696616264}}, {"type": "Feature", "geometry": {"type": "Point", "coordinates": [-92.0669282, 46.9309029]}, "properties": {"name": "White Pines Camp Stie", "source": "Strava Heatmap data, Mapbox Imagery and SHT gps track", "tourism": "camp_site", "osm_id": 4698483407}}, {"type": "Feature", "geometry": {"type": "Point", "coordinates": [-92.0711342, 46.9170267]}, "properties": {"name": "Bald Eagle Camp site", "source": "Strava Heatmap data, Mapbox Imagery and SHT gps track", "tourism": "camp_site", "osm_id": 4698483581}}, {"type": "Feature", "geometry": {"type": "Point", "coordinates": [-91.9134446, 47.033095]}, "properties": {"name": "Fox Farm Beaver Pound Campsite", "tourism": "camp_site", "osm_id": 4700557804}}, {"type": "Feature", "geometry": {"type": "Point", "coordinates": [-92.5066117, 42.9827355]}, "properties": {"tourism": "camp_site", "osm_id": 4707549520}}, {"type": "Feature", "geometry": {"type": "Point", "coordinates": [-90.6990109, 42.650282]}, "properties": {"capacity": "73", "charge": "20 USD", "fee": "yes", "name": "Grant River Campground", "operator": "United States Army Corps of Engineers", "power_supply": "yes", "reservation": "accepted", "sanitary_dump_station": "yes", "shelter_type": "picnic_shelter", "shower": "yes", "tents": "yes", "tourism": "camp_site", "osm_id": 4785461695}}, {"type": "Feature", "geometry": {"type": "Point", "coordinates": [-92.2391763, 44.879329]}, "properties": {"name": "Equestrian Campground", "operator": "United States Army Corps of Engineers", "tourism": "camp_site", "osm_id": 4794544816}}, {"type": "Feature", "geometry": {"type": "Point", "coordinates": [-89.514587, 44.5590362]}, "properties": {"name": "Boy Scouts of America: Camp Fletcher", "tourism": "camp_site", "osm_id": 4814532965}}, {"type": "Feature", "geometry": {"type": "Point", "coordinates": [-90.4398926, 43.1969222]}, "properties": {"addr:city": "Muscoda", "addr:housenumber": "1202", "addr:state": "WI", "addr:street": "N 4th Street,", "capacity": "45", "drinking_water": "yes", "fee": "yes", "fee_zone": "$10-$25", "internet_access": "no", "name": "Muscoda Campground", "operator": "Village of Muscoda", "phone": "+1-608-739-2924", "shelter_type": "picnic_shelter", "toilets": "yes", "tourism": "camp_site", "osm_id": 4856623063}}, {"type": "Feature", "geometry": {"type": "Point", "coordinates": [-92.657598, 45.3875943]}, "properties": {"fee": "yes", "internet_access": "no", "name": "Interstate State Park WI - Group Campground", "operator": "Interstate State Park", "tourism": "camp_site", "osm_id": 4939261382}}, {"type": "Feature", "geometry": {"type": "Point", "coordinates": [-87.7522107, 45.0610088]}, "properties": {"backcountry": "no", "check_date": "2023-09-30", "dog": "yes", "shower": "yes", "toilets": "yes", "tourism": "camp_site", "osm_id": 4944811023}}, {"type": "Feature", "geometry": {"type": "Point", "coordinates": [-91.8728255, 45.6614678]}, "properties": {"name": "WhitetailRidge Campground", "tourism": "camp_site", "osm_id": 5010361809}}, {"type": "Feature", "geometry": {"type": "Point", "coordinates": [-91.675807, 44.0745678]}, "properties": {"drinking_water": "yes", "name": "Prairie Island Campground", "power_supply": "yes", "reservation": "yes", "seasonal": "spring;summer;autumn", "shower": "yes", "tents": "yes", "toilets": "yes", "tourism": "camp_site", "osm_id": 5025457305}}, {"type": "Feature", "geometry": {"type": "Point", "coordinates": [-88.1914708, 43.5010743]}, "properties": {"backcountry": "yes", "capacity": "10", "name": "Shelter #1", "reservation": "required", "tourism": "camp_site", "osm_id": 5084440710}}, {"type": "Feature", "geometry": {"type": "Point", "coordinates": [-91.0906887, 42.8984023]}, "properties": {"addr:city": "Bagley", "addr:state": "WI", "capacity": "100", "name": "River of Lakes Riverfront Campground", "tourism": "camp_site", "osm_id": 5085109517}}, {"type": "Feature", "geometry": {"type": "Point", "coordinates": [-90.9504495, 44.4223953]}, "properties": {"addr:city": "Alma Center", "addr:housenumber": "N9657", "addr:postcode": "54611", "addr:street": "State Highway 95", "name": "KOA", "operator": "Hixton Alma Center", "tourism": "caravan_site", "osm_id": 5138769674}}, {"type": "Feature", "geometry": {"type": "Point", "coordinates": [-89.5198475, 45.9260056]},