{
  "type": "FeatureCollection",
  "features": [
    {
      "type": "Feature",
      "geometry": {
        "type": "Point",
        "coordinates": [
          -81.8208306,
          29.0424861
        ]
      },
      "properties": {
        "id": "FL-001",
        "name": "DOE LAKE GROUP SITE",
        "type": "established",
        "cost": 0,
        "rating": null,
        "reviews_count": 0,
        "amenities": [
          "toilets",
          "water",
          "showers",
          "picnic_tables"
        ],
        "rig_friendly": [
          "tent",
          "RV",
          "trailer"
        ],
        "road_difficulty": "paved",
        "state": "FL",
        "source": "recreation.gov",
        "facility_id": "234599",
        "description": "<h2>Overview</h2>\n<p>Doe Lake is a group campsite with a variety of activities. Centered around a historic lodge with a large group kitchen, it's an ideal place for major outdoor gatherings of up to 2",
        "sources": [
          "recreation.gov"
        ]
      }
    },
    {
      "type": "Feature",
      "geometry": {
        "type": "Point",
        "coordinates": [
          -81.8311111,
          29.1811111
        ]
      },
      "properties": {
        "id": "FL-002",
        "name": "MILL DAM GROUP CAMP",
        "type": "established",
        "cost": 0,
        "rating": null,
        "reviews_count": 0,
        "amenities": [
          "toilets",
          "water",
          "picnic_tables"
        ],
        "rig_friendly": [
          "tent",
          "RV",
          "trailer"
        ],
        "road_difficulty": "paved",
        "state": "FL",
        "source": "recreation.gov",
        "facility_id": "234516",
        "description": "<h2>Overview</h2>\nMill Dam Group Campground offers a fun and relaxing setting for groups of up to 150 to enjoy Ocala National Forest. Large picnic shelters and access to outdoor and water recreation m",
        "sources": [
          "recreation.gov"
        ]
      }
    },
    {
      "type": "Feature",
      "geometry": {
        "type": "Point",
        "coordinates": [
          -81.3907611,
          29.0128694
        ]
      },
      "properties": {
        "name": "RIVER FOREST GROUP SITE",
        "rating": null,
        "reviews_count": 0,
        "cost": 0,
        "amenities": [
          "water",
          "picnic_tables"
        ],
        "rig_friendly": [
          "tent",
          "RV",
          "trailer"
        ],
        "type": "established",
        "sources": [
          "recreation.gov",
          "http://www.campingroadtrip.com/campgrounds/campground/campground/20377/florida/ocala-national-forest-river-forest-group-camp"
        ],
        "tourism": "camp_site",
        "osm_id": 154201254
      }
    },
    {
      "type": "Feature",
      "geometry": {
        "type": "Point",
        "coordinates": [
          -81.9158333,
          29.2741667
        ]
      },
      "properties": {
        "id": "FL-004",
        "name": "LAKE SHORE GROUP CAMP",
        "type": "established",
        "cost": 0,
        "rating": null,
        "reviews_count": 0,
        "amenities": [
          "toilets",
          "water",
          "showers",
          "picnic_tables"
        ],
        "rig_friendly": [
          "tent",
          "RV",
          "trailer"
        ],
        "road_difficulty": "paved",
        "state": "FL",
        "source": "recreation.gov",
        "facility_id": "234514",
        "description": "<h2>Overview</h2>\n<p>Lake Shore Group Campground sits on the north shore of Fore Lake in Ocala National Forest. It is a favorite for scout, church and civic groups, as well as large families and reuni",
        "sources": [
          "recreation.gov"
        ]
      }
    },
    {
      "type": "Feature",
      "geometry": {
        "type": "Point",
        "coordinates": [
          -84.84480937,
          30.74609636
        ]
      },
      "properties": {
        "id": "FL-005",
        "name": "River Junction",
        "type": "established",
        "cost": 0,
        "rating": null,
        "reviews_count": 0,
        "amenities": [],
        "rig_friendly": [],
        "road_difficulty": "paved",
        "state": "FL",
        "source": "recreation.gov",
        "facility_id": "247888",
        "description": "This recreation area is part of <a href=\"http://www.recreation.gov/recreationalAreaDetails.do?contractCode=NRSO&recAreaId=445&agencyCode=130\" rel=\"nofollow\">Lake Seminole</a>",
        "sources": [
          "recreation.gov"
        ]
      }
    },
    {
      "type": "Feature",
      "geometry": {
        "type": "Point",
        "coordinates": [
          -81.0875028,
          26.84057789
        ]
      },
      "properties": {
        "id": "FL-006",
        "name": "Moore Haven West",
        "type": "established",
        "cost": 0,
        "rating": null,
        "reviews_count": 0,
        "amenities": [],
        "rig_friendly": [],
        "road_difficulty": "paved",
        "state": "FL",
        "source": "recreation.gov",
        "facility_id": "247884",
        "description": "This recreation area is part of <a href=\"http://www.recreation.gov/recreationalAreaDetails.do?contractCode=NRSO&recAreaId=437&agencyCode=130\" rel=\"nofollow\">Lake Okeechobee</a>",
        "sources": [
          "recreation.gov"
        ]
      }
    },
    {
      "type": "Feature",
      "geometry": {
        "type": "Point",
        "coordinates": [
          -84.660102,
          30.8504
        ]
      },
      "properties": {
        "id": "FL-007",
        "name": "Hales Landing",
        "type": "established",
        "cost": 0,
        "rating": null,
        "reviews_count": 0,
        "amenities": [],
        "rig_friendly": [],
        "road_difficulty": "paved",
        "state": "FL",
        "source": "recreation.gov",
        "facility_id": "247889",
        "description": "This recreation area is part of <a href=\"http://www.recreation.gov/recreationalAreaDetails.do?contractCode=NRSO&recAreaId=445&agencyCode=130\" rel=\"nofollow\">Lake Seminole</a>",
        "sources": [
          "recreation.gov"
        ]
      }
    },
    {
      "type": "Feature",
      "geometry": {
        "type": "Point",
        "coordinates": [
          -80.86656166,
          27.14785546
        ]
      },
      "properties": {
        "id": "FL-008",
        "name": "Okeetantie",
        "type": "established",
        "cost": 0,
        "rating": null,
        "reviews_count": 0,
        "amenities": [],
        "rig_friendly": [],
        "road_difficulty": "paved",
        "state": "FL",
        "source": "recreation.gov",
        "facility_id": "247886",
        "description": "This recreation area is part of <a href=\"http://www.recreation.gov/recreationalAreaDetails.do?contractCode=NRSO&recAreaId=437&agencyCode=130\" rel=\"nofollow\">Lake Okeechobee</a>",
        "sources": [
          "recreation.gov"
        ]
      }
    },
    {
      "type": "Feature",
      "geometry": {
        "type": "Point",
        "coordinates": [
          -81.6927778,
          26.7241667
        ]
      },
      "properties": {
        "name": "W.P. FRANKLIN N",
        "rating": null,
        "reviews_count": 0,
        "cost": 0,
        "amenities": [
          "water"
        ],
        "rig_friendly": [
          "RV",
          "trailer"
        ],
        "type": "established",
        "sources": [
          "recreation.gov"
        ],
        "tourism": "camp_site",
        "osm_id": 194360457
      }
    },
    {
      "type": "Feature",
      "geometry": {
        "type": "Point",
        "coordinates": [
          -84.926472,
          30.741324
        ]
      },
      "properties": {
        "id": "FL-010",
        "name": "Three Rivers State Park",
        "type": "established",
        "cost": 0,
        "rating": null,
        "reviews_count": 0,
        "amenities": [],
        "rig_friendly": [],
        "road_difficulty": "paved",
        "state": "FL",
        "source": "recreation.gov",
        "facility_id": "247892",
        "description": "This recreation area is part of <a href=\"http://www.recreation.gov/recreationalAreaDetails.do?contractCode=NRSO&recAreaId=445&agencyCode=130\" rel=\"nofollow\">Lake Seminole</a>",
        "sources": [
          "recreation.gov"
        ]
      }
    },
    {
      "type": "Feature",
      "geometry": {
        "type": "Point",
        "coordinates": [
          -82.4245333,
          30.2128778
        ]
      },
      "properties": {
        "id": "FL-011",
        "name": "GROUP LANDING",
        "type": "established",
        "cost": 0,
        "rating": null,
        "reviews_count": 0,
        "amenities": [
          "toilets",
          "water",
          "showers",
          "fire_rings",
          "picnic_tables",
          "trash"
        ],
        "rig_friendly": [
          "RV",
          "trailer"
        ],
        "road_difficulty": "paved",
        "state": "FL",
        "source": "recreation.gov",
        "facility_id": "251903",
        "description": "<h2>Overview</h2>\nGroup Landing is a secluded area that offers a flexible space accommodating many outdoor activities, from a weekend family camping trip to a midweek company picnic.<h2>Recreation</h2",
        "sources": [
          "recreation.gov"
        ]
      }
    },
    {
      "type": "Feature",
      "geometry": {
        "type": "Point",
        "coordinates": [
          -81.58,
          29.0788889
        ]
      },
      "properties": {
        "name": "Alexander Springs Recreation Area",
        "rating": null,
        "reviews_count": 0,
        "cost": 0,
        "amenities": [
          "toilets",
          "water",
          "showers",
          "fire_rings",
          "picnic_tables"
        ],
        "rig_friendly": [
          "tent",
          "RV",
          "trailer"
        ],
        "type": "established",
        "sources": [
          "recreation.gov"
        ],
        "tourism": "camp_site",
        "osm_id": 1232366666
      }
    },
    {
      "type": "Feature",
      "geometry": {
        "type": "Point",
        "coordinates": [
          -81.6194444,
          28.985
        ]
      },
      "properties": {
        "id": "FL-013",
        "name": "LAKE DORR CABIN",
        "type": "established",
        "cost": 15,
        "rating": null,
        "reviews_count": 0,
        "amenities": [
          "toilets",
          "water",
          "showers",
          "fire_rings",
          "picnic_tables"
        ],
        "rig_friendly": [
          "tent",
          "RV",
          "trailer"
        ],
        "road_difficulty": "paved",
        "state": "FL",
        "source": "recreation.gov",
        "facility_id": "234657",
        "description": "<h2>Overview</h2>\nLake Dorr Cabin is set along the south shore of beautiful Lake Dorr, ideal for a family getaway. The cabin is open year-round and creates a great setting for plenty of outdoor water ",
        "sources": [
          "recreation.gov"
        ]
      }
    },
    {
      "type": "Feature",
      "geometry": {
        "type": "Point",
        "coordinates": [
          -84.920174,
          30.801073
        ]
      },
      "properties": {
        "id": "FL-014",
        "name": "Butlers Ferry (Trails End Marina)",
        "type": "established",
        "cost": 0,
        "rating": null,
        "reviews_count": 0,
        "amenities": [],
        "rig_friendly": [],
        "road_difficulty": "paved",
        "state": "FL",
        "source": "recreation.gov",
        "facility_id": "247891",
        "description": "This recreation area is part of <a href=\"http://www.recreation.gov/recreationalAreaDetails.do?contractCode=NRSO&recAreaId=445&agencyCode=130\" rel=\"nofollow\">Lake Seminole</a>",
        "sources": [
          "recreation.gov"
        ]
      }
    },
    {
      "type": "Feature",
      "geometry": {
        "type": "Point",
        "coordinates": [
          -80.66730571,
          26.82505153
        ]
      },
      "properties": {
        "id": "FL-015",
        "name": "Pahokee City Park",
        "type": "established",
        "cost": 0,
        "rating": null,
        "reviews_count": 0,
        "amenities": [],
        "rig_friendly": [],
        "road_difficulty": "paved",
        "state": "FL",
        "source": "recreation.gov",
        "facility_id": "247885",
        "description": "This recreation area is part of <a href=\"http://www.recreation.gov/recreationalAreaDetails.do?contractCode=NRSO&recAreaId=437&agencyCode=130\" rel=\"nofollow\">Lake Okeechobee</a>",
        "sources": [
          "recreation.gov"
        ]
      }
    },
    {
      "type": "Feature",
      "geometry": {
        "type": "Point",
        "coordinates": [
          -84.9866,
          30.27715
        ]
      },
      "properties": {
        "id": "FL-016",
        "name": "CAMEL LAKE CAMPGROUND",
        "type": "established",
        "cost": 0,
        "rating": null,
        "reviews_count": 0,
        "amenities": [
          "toilets",
          "water",
          "picnic_tables"
        ],
        "rig_friendly": [
          "tent",
          "RV",
          "trailer"
        ],
        "road_difficulty": "paved",
        "state": "FL",
        "source": "recreation.gov",
        "facility_id": "251904",
        "description": "<h2>Overview</h2>\nCamel Lake Recreation Area provides a quiet place to relax and take in the beauty of the longleaf pine forest. Camping, swimming, hiking, and boating opportunities are all available,",
        "sources": [
          "recreation.gov"
        ]
      }
    },
    {
      "type": "Feature",
      "geometry": {
        "type": "Point",
        "coordinates": [
          -81.555,
          28.9794444
        ]
      },
      "properties": {
        "name": "CLEARWATER LAKE REC AREA",
        "rating": null,
        "reviews_count": 0,
        "cost": 0,
        "amenities": [
          "toilets",
          "water",
          "showers",
          "picnic_tables"
        ],
        "rig_friendly": [
          "tent",
          "RV",
          "trailer"
        ],
        "type": "established",
        "sources": [
          "recreation.gov"
        ],
        "tourism": "caravan_site",
        "osm_id": 1132353821
      }
    },
    {
      "type": "Feature",
      "geometry": {
        "type": "Point",
        "coordinates": [
          -80.285,
          27.1102778
        ]
      },
      "properties": {
        "id": "FL-018",
        "name": "ST LUCIE SOUTH",
        "type": "established",
        "cost": 0,
        "rating": null,
        "reviews_count": 0,
        "amenities": [
          "water",
          "picnic_tables"
        ],
        "rig_friendly": [
          "tent",
          "RV",
          "trailer"
        ],
        "road_difficulty": "paved",
        "state": "FL",
        "source": "recreation.gov",
        "facility_id": "233638",
        "description": "<h2>Overview</h2>\nSt. Lucie Campground provides a relaxing camping experience on the St. Lucie Canal, part of the 152 mile Okeechobee Waterway that spans South Florida from the Atlantic Ocean to the G",
        "sources": [
          "recreation.gov"
        ]
      }
    },
    {
      "type": "Feature",
      "geometry": {
        "type": "Point",
        "coordinates": [
          -84.87397571,
          30.80131313
        ]
      },
      "properties": {
        "id": "FL-019",
        "name": "Seminole State Park",
        "type": "established",
        "cost": 0,
        "rating": null,
        "reviews_count": 0,
        "amenities": [],
        "rig_friendly": [],
        "road_difficulty": "paved",
        "state": "FL",
        "source": "recreation.gov",
        "facility_id": "247890",
        "description": "This recreation area is part of <a href=\"http://www.recreation.gov/recreationalAreaDetails.do?contractCode=NRSO&recAreaId=445&agencyCode=130\" rel=\"nofollow\">Lake Seminole</a>",
        "sources": [
          "recreation.gov"
        ]
      }
    },
    {
      "type": "Feature",
      "geometry": {
        "type": "Point",
        "coordinates": [
          -84.904221,
          30.72428
        ]
      },
      "properties": {
        "name": "Seminole Lodge",
        "rating": null,
        "reviews_count": 0,
        "cost": 0,
        "amenities": [],
        "rig_friendly": [],
        "type": "established",
        "sources": [
          "recreation.gov"
        ],
        "tourism": "caravan_site",
        "osm_id": 1124552973
      }
    },
    {
      "type": "Feature",
      "geometry": {
        "type": "Point",
        "coordinates": [
          -84.810583,
          30.807613
        ]
      },
      "properties": {
        "id": "FL-021",
        "name": "Spring Creek Resort",
        "type": "established",
        "cost": 0,
        "rating": null,
        "reviews_count": 0,
        "amenities": [],
        "rig_friendly": [],
        "road_difficulty": "paved",
        "state": "FL",
        "source": "recreation.gov",
        "facility_id": "247895",
        "description": "This recreation area is part of <a href=\"http://www.recreation.gov/recreationalAreaDetails.do?contractCode=NRSO&recAreaId=445&agencyCode=130\" rel=\"nofollow\">Lake Seminole</a>",
        "sources": [
          "recreation.gov"
        ]
      }
    },
    {
      "type": "Feature",
      "geometry": {
        "type": "Point",
        "coordinates": [
          -81.6939,
          26.7202667
        ]
      },
      "properties": {
        "name": "W.P. FRANKLIN SOUTH RECREATION AREA",
        "rating": null,
        "reviews_count": 0,
        "cost": 0,
        "amenities": [
          "toilets",
          "water",
          "picnic_tables"
        ],
        "rig_friendly": [
          "RV",
          "trailer"
        ],
        "type": "established",
        "sources": [
          "recreation.gov"
        ],
        "tourism": "caravan_site",
        "osm_id": 3646821742
      }
    },
    {
      "type": "Feature",
      "geometry": {
        "type": "Point",
        "coordinates": [
          -80.466904,
          27.010972
        ]
      },
      "properties": {
        "id": "FL-023",
        "name": "Indiantown Marina",
        "type": "established",
        "cost": 0,
        "rating": null,
        "reviews_count": 0,
        "amenities": [],
        "rig_friendly": [],
        "road_difficulty": "paved",
        "state": "FL",
        "source": "recreation.gov",
        "facility_id": "247887",
        "description": "This recreation area is part of <a href=\"http://www.recreation.gov/recreationalAreaDetails.do?contractCode=NRSO&recAreaId=437&agencyCode=130\" rel=\"nofollow\">Lake Okeechobee</a>",
        "sources": [
          "recreation.gov"
        ]
      }
    },
    {
      "type": "Feature",
      "geometry": {
        "type": "Point",
        "coordinates": [
          -81.7125,
          29.1822222
        ]
      },
      "properties": {
        "name": "JUNIPER SPRINGS REC AREA",
        "rating": null,
        "reviews_count": 0,
        "cost": 0,
        "amenities": [
          "toilets",
          "water",
          "showers",
          "fire_rings",
          "picnic_tables"
        ],
        "rig_friendly": [
          "tent",
          "RV",
          "trailer"
        ],
        "type": "established",
        "sources": [
          "recreation.gov"
        ],
        "tourism": "camp_site",
        "osm_id": 4377375590
      }
    },
    {
      "type": "Feature",
      "geometry": {
        "type": "Point",
        "coordinates": [
          -81.7625,
          29.0502778
        ]
      },
      "properties": {
        "id": "FL-025",
        "name": "BIG SCRUB CAMPGROUND",
        "type": "established",
        "cost": 12,
        "rating": null,
        "reviews_count": 0,
        "amenities": [
          "toilets",
          "water",
          "showers"
        ],
        "rig_friendly": [
          "tent",
          "RV",
          "trailer"
        ],
        "road_difficulty": "paved",
        "state": "FL",
        "source": "recreation.gov",
        "facility_id": "234513",
        "description": "<h2>Overview</h2>\n<p>Perennially popular with off-road vehicle enthusiasts, Big Scrub Campground sits in the Ocala National Forest in central Florida. A trailhead within the facility offers riders cam",
        "sources": [
          "recreation.gov"
        ]
      }
    },
    {
      "type": "Feature",
      "geometry": {
        "type": "Point",
        "coordinates": [
          -85.0018028,
          29.9994306
        ]
      },
      "properties": {
        "name": "WRIGHT LAKE CAMPGROUND",
        "rating": null,
        "reviews_count": 0,
        "cost": 0,
        "amenities": [
          "toilets",
          "showers",
          "fire_rings",
          "picnic_tables"
        ],
        "rig_friendly": [
          "tent",
          "RV",
          "trailer"
        ],
        "type": "established",
        "sources": [
          "recreation.gov"
        ],
        "tourism": "caravan_site",
        "osm_id": 1121108605
      }
    },
    {
      "type": "Feature",
      "geometry": {
        "type": "Point",
        "coordinates": [
          -81.3086111,
          26.7872222
        ]
      },
      "properties": {
        "id": "FL-027",
        "name": "ORTONA SOUTH",
        "type": "established",
        "cost": 0,
        "rating": null,
        "reviews_count": 0,
        "amenities": [
          "toilets",
          "water",
          "showers",
          "fire_rings",
          "picnic_tables"
        ],
        "rig_friendly": [
          "RV",
          "trailer"
        ],
        "road_difficulty": "paved",
        "state": "FL",
        "source": "recreation.gov",
        "facility_id": "233570",
        "description": "<h2>Overview</h2>\n<p>Ortona South is a perfect campground for a quiet, sunny escape to South Florida.  The campground is set along the Caloosahatchie River.</p>\n<h2>Recreation</h2>\n<p>Activities here ",
        "sources": [
          "recreation.gov"
        ]
      }
    },
    {
      "type": "Feature",
      "geometry": {
        "type": "Point",
        "coordinates": [
          -85.9070249,
          30.2321109
        ]
      },
      "properties": {
        "tourism": "camp_site",
        "osm_id": 95855262,
        "sources": [
          "unknown"
        ]
      }
    },
    {
      "type": "Feature",
      "geometry": {
        "type": "Point",
        "coordinates": [
          -84.8251848,
          29.8193762
        ]
      },
      "properties": {
        "gnis:feature_id": "295349",
        "name": "High Bluff",
        "tourism": "camp_site",
        "osm_id": 154035129,
        "sources": [
          "unknown"
        ]
      }
    },
    {
      "type": "Feature",
      "geometry": {
        "type": "Point",
        "coordinates": [
          -81.4448171,
          30.8974573
        ]
      },
      "properties": {
        "access": "permit",
        "amenity": "drinking_water",
        "ele": "3",
        "gnis:feature_id": "311777",
        "name": "Brickhill Bluff",
        "natural": "cliff",
        "operator": "NPS",
        "tourism": "camp_site",
        "wheelchair": "no",
        "wikidata": "Q31579401",
        "osm_id": 358681372,
        "sources": [
          "unknown"
        ]
      }
    },
    {
      "type": "Feature",
      "geometry": {
        "type": "Point",
        "coordinates": [
          -82.5483055,
          29.8745542
        ]
      },
      "properties": {
        "name": "Old Bellamy Camp Park",
        "rating": null,
        "reviews_count": 0,
        "cost": 0,
        "amenities": [],
        "rig_friendly": [],
        "type": "established",
        "sources": [
          "unknown"
        ],
        "tourism": "caravan_site",
        "osm_id": 1183551446
      }
    },
    {
      "type": "Feature",
      "geometry": {
        "type": "Point",
        "coordinates": [
          -81.9017121,
          28.8598437
        ]
      },
      "properties": {
        "FIXME": "no water here, but tagged as bay",
        "addr:state": "FL",
        "designation": "Lake Griffin State Park Campground",
        "ele": "17",
        "gnis:feature_id": "281383",
        "name": "Lake Griffin State Park Campground",
        "natural": "bay",
        "source": "Florida DEP - Rec. & Parks",
        "tourism": "caravan_site",
        "osm_id": 369135157,
        "sources": [
          "Florida DEP - Rec. & Parks"
        ]
      }
    },
    {
      "type": "Feature",
      "geometry": {
        "type": "Point",
        "coordinates": [
          -80.7306867,
          26.6809192
        ]
      },
      "properties": {
        "name": "South Bay RV Park",
        "rating": null,
        "reviews_count": 0,
        "cost": 0,
        "amenities": [],
        "rig_friendly": [],
        "type": "established",
        "sources": [
          "unknown"
        ],
        "tourism": "caravan_site",
        "osm_id": 49250528
      }
    },
    {
      "type": "Feature",
      "geometry": {
        "type": "Point",
        "coordinates": [
          -82.6014742,
          29.9209019
        ]
      },
      "properties": {
        "name": "Dogwood Campsite",
        "tourism": "camp_site",
        "osm_id": 841087536,
        "sources": [
          "unknown"
        ]
      }
    },
    {
      "type": "Feature",
      "geometry": {
        "type": "Point",
        "coordinates": [
          -82.5808319,
          29.9137415
        ]
      },
      "properties": {
        "name": "O'Kemp Group Camp",
        "tourism": "camp_site",
        "osm_id": 841347555,
        "sources": [
          "unknown"
        ]
      }
    },
    {
      "type": "Feature",
      "geometry": {
        "type": "Point",
        "coordinates": [
          -87.5930476,
          30.6234616
        ]
      },
      "properties": {
        "addr:city": "Robertsdale",
        "addr:housenumber": "25625",
        "addr:postcode": "36567",
        "addr:state": "AL",
        "addr:street": "Water Rapids Road",
        "internet_access": "wlan",
        "name": "Riverside RV Resort",
        "opening_hours": "Mo-Sa 9:00 - 15:00",
        "operator": "April Givens",
        "phone": "+1-251-945-1110",
        "start_date": "2016",
        "tourism": "caravan_site",
        "website": "https://www.riverside-rvresort.com/",
        "osm_id": 891268478,
        "sources": [
          "unknown"
        ]
      }
    },
    {
      "type": "Feature",
      "geometry": {
        "type": "Point",
        "coordinates": [
          -84.6004584,
          30.8967797
        ]
      },
      "properties": {
        "access": "yes",
        "addr:city": "Bainbridge",
        "addr:housenumber": "1000",
        "addr:postcode": "39819",
        "addr:state": "GA",
        "addr:street": "Basin View Dr",
        "caravans": "yes",
        "charge": "$35/night",
        "fee": "yes",
        "internet_access": "wlan",
        "name": "Bainbridge Riverview Campground",
        "operator": "City of Bainbridge",
        "payment:credit_cards": "yes",
        "reservation": "yes",
        "shower": "yes",
        "tents": "yes",
        "tourism": "camp_site",
        "osm_id": 917892986,
        "sources": [
          "unknown"
        ]
      }
    },
    {
      "type": "Feature",
      "geometry": {
        "type": "Point",
        "coordinates": [
          -85.880838,
          30.4298666
        ]
      },
      "properties": {
        "name": "Sand Pond Recreation Area",
        "rating": null,
        "reviews_count": 0,
        "cost": 0,
        "amenities": [],
        "rig_friendly": [],
        "type": "established",
        "sources": [
          "unknown"
        ],
        "tourism": "caravan_site",
        "osm_id": 1280898102
      }
    },
    {
      "type": "Feature",
      "geometry": {
        "type": "Point",
        "coordinates": [
          -80.1424849,
          26.9897808
        ]
      },
      "properties": {
        "designation": "River Camp",
        "name": "River Camp",
        "tourism": "camp_site",
        "osm_id": 997246940,
        "sources": [
          "unknown"
        ]
      }
    },
    {
      "type": "Feature",
      "geometry": {
        "type": "Point",
        "coordinates": [
          -86.5593656,
          30.6875195
        ]
      },
      "properties": {
        "backcountry": "yes",
        "capacity:tents": "6",
        "name": "Pearl Creek",
        "tourism": "camp_site",
        "osm_id": 1074243092,
        "sources": [
          "unknown"
        ]
      }
    },
    {
      "type": "Feature",
      "geometry": {
        "type": "Point",
        "coordinates": [
          -86.4709963,
          30.6945083
        ]
      },
      "properties": {
        "backcountry": "yes",
        "capacity:tents": "5",
        "fee": "yes",
        "name": "Jr. Walton Pond",
        "tourism": "camp_site",
        "osm_id": 1074280364,
        "sources": [
          "unknown"
        ]
      }
    },
    {
      "type": "Feature",
      "geometry": {
        "type": "Point",
        "coordinates": [
          -86.3882931,
          30.6975999
        ]
      },
      "properties": {
        "name": "Speck Pond",
        "tourism": "camp_site",
        "osm_id": 1099957949,
        "sources": [
          "unknown"
        ]
      }
    },
    {
      "type": "Feature",
      "geometry": {
        "type": "Point",
        "coordinates": [
          -86.3476308,
          30.7259363
        ]
      },
      "properties": {
        "backcountry": "yes",
        "capacity:tents": "6",
        "name": "Red Deer",
        "picnic_table": "yes",
        "tourism": "camp_site",
        "osm_id": 1099973602,
        "sources": [
          "unknown"
        ]
      }
    },
    {
      "type": "Feature",
      "geometry": {
        "type": "Point",
        "coordinates": [
          -81.1494245,
          25.6409256
        ]
      },
      "properties": {
        "name": "Plate Creek Bay Chickadee",
        "tourism": "camp_site",
        "osm_id": 1154651937,
        "sources": [
          "unknown"
        ]
      }
    },
    {
      "type": "Feature",
      "geometry": {
        "type": "Point",
        "coordinates": [
          -81.2042704,
          25.6927675
        ]
      },
      "properties": {
        "name": "Darwin's Place Campsite",
        "tourism": "camp_site",
        "osm_id": 1154927458,
        "sources": [
          "unknown"
        ]
      }
    },
    {
      "type": "Feature",
      "geometry": {
        "type": "Point",
        "coordinates": [
          -81.2457534,
          25.7092021
        ]
      },
      "properties": {
        "name": "The Watson's Place Campsite",
        "operator": "National Park Service",
        "tourism": "camp_site",
        "website": "https://www.nps.gov/places/the-watson-place.htm",
        "osm_id": 1154927473,
        "sources": [
          "unknown"
        ]
      }
    },
    {
      "type": "Feature",
      "geometry": {
        "type": "Point",
        "coordinates": [
          -81.3061517,
          25.7875654
        ]
      },
      "properties": {
        "access": "permit",
        "backcountry": "yes",
        "camp_site": "basic",
        "caravans": "no",
        "fee": "no",
        "name": "Lopez River Campsite",
        "operator": "NPS",
        "static_caravans": "no",
        "tents": "yes",
        "tourism": "camp_site",
        "osm_id": 1154927485,
        "sources": [
          "unknown"
        ]
      }
    },
    {
      "type": "Feature",
      "geometry": {
        "type": "Point",
        "coordinates": [
          -81.1434164,
          25.6337388
        ]
      },
      "properties": {
        "name": "Lostman's Five Campsite",
        "tourism": "camp_site",
        "osm_id": 1154927501,
        "sources": [
          "unknown"
        ]
      }
    },
    {
      "type": "Feature",
      "geometry": {
        "type": "Point",
        "coordinates": [
          -81.0585728,
          25.5807197
        ]
      },
      "properties": {
        "name": "Willy Willy Indian Mound Campsite",
        "tourism": "camp_site",
        "osm_id": 1154958934,
        "sources": [
          "unknown"
        ]
      }
    },
    {
      "type": "Feature",
      "geometry": {
        "type": "Point",
        "coordinates": [
          -81.2118984,
          25.7445213
        ]
      },
      "properties": {
        "name": "Sweetwater Chickadee #2",
        "rating": null,
        "reviews_count": 0,
        "cost": 0,
        "amenities": [],
        "rig_friendly": [],
        "type": "established",
        "sources": [
          "unknown"
        ],
        "tourism": "camp_site",
        "osm_id": 1154958949
      }
    },
    {
      "type": "Feature",
      "geometry": {
        "type": "Point",
        "coordinates": [
          -81.2701025,
          25.7999963
        ]
      },
      "properties": {
        "name": "Sunday Bay Chickadee #1",
        "rating": null,
        "reviews_count": 0,
        "cost": 0,
        "amenities": [],
        "rig_friendly": [],
        "type": "established",
        "sources": [
          "unknown"
        ],
        "tourism": "camp_site",
        "osm_id": 1154958963
      }
    },
    {
      "type": "Feature",
      "geometry": {
        "type": "Point",
        "coordinates": [
          -81.0639941,
          25.5367278
        ]
      },
      "properties": {
        "name": "Rodgers River Bay Chickadee",
        "tourism": "camp_site",
        "osm_id": 1154979901,
        "sources": [
          "unknown"
        ]
      }
    },
    {
      "type": "Feature",
      "geometry": {
        "type": "Point",
        "coordinates": [
          -81.1368504,
          25.4821462
        ]
      },
      "properties": {
        "name": "Broad River Campsite",
        "tourism": "camp_site",
        "osm_id": 1155042629,
        "sources": [
          "unknown"
        ]
      }
    },
    {
      "type": "Feature",
      "geometry": {
        "type": "Point",
        "coordinates": [
          -81.0884848,
          25.4291956
        ]
      },
      "properties": {
        "name": "Harney River Chickadee Campsite",
        "rating": null,
        "reviews_count": 0,
        "cost": 0,
        "amenities": [],
        "rig_friendly": [],
        "type": "established",
        "sources": [
          "unknown"
        ],
        "description": "This backcountry campsite is a plateform over the water.",
        "tourism": "camp_site",
        "osm_id": 1363855410
      }
    },
    {
      "type": "Feature",
      "geometry": {
        "type": "Point",
        "coordinates": [
          -81.041707,
          25.371433
        ]
      },
      "properties": {
        "name": "Shark River Chickee Campsite",
        "rating": null,
        "reviews_count": 0,
        "cost": 0,
        "amenities": [],
        "rig_friendly": [],
        "type": "established",
        "sources": [
          "unknown"
        ],
        "description": "This backcountry campsite is a plateform over the water.",
        "tourism": "camp_site",
        "osm_id": 1363854336
      }
    },
    {
      "type": "Feature",
      "geometry": {
        "type": "Point",
        "coordinates": [
          -82.3833842,
          30.823142
        ]
      },
      "properties": {
        "name": "Mixons Hammock Campsite",
        "tourism": "camp_site",
        "osm_id": 1223793847,
        "sources": [
          "unknown"
        ]
      }
    },
    {
      "type": "Feature",
      "geometry": {
        "type": "Point",
        "coordinates": [
          -84.9502266,
          30.5691526
        ]
      },
      "properties": {
        "rating": null,
        "reviews_count": 0,
        "cost": 0,
        "amenities": [],
        "rig_friendly": [],
        "type": "established",
        "sources": [
          "unknown"
        ],
        "tourism": "camp_site",
        "osm_id": 1173757504
      }
    },
    {
      "type": "Feature",
      "geometry": {
        "type": "Point",
        "coordinates": [
          -86.8344237,
          30.8619225
        ]
      },
      "properties": {
        "name": "Bear Lake Campground",
        "rating": null,
        "reviews_count": 0,
        "cost": 0,
        "amenities": [],
        "rig_friendly": [],
        "type": "established",
        "sources": [
          "unknown"
        ],
        "tourism": "caravan_site",
        "osm_id": 1151306612
      }
    },
    {
      "type": "Feature",
      "geometry": {
        "type": "Point",
        "coordinates": [
          -86.8518843,
          30.8615214
        ]
      },
      "properties": {
        "rating": null,
        "reviews_count": 0,
        "cost": 0,
        "amenities": [],
        "rig_friendly": [],
        "type": "established",
        "sources": [
          "unknown"
        ],
        "tourism": "caravan_site",
        "osm_id": 1277538208
      }
    },
    {
      "type": "Feature",
      "geometry": {
        "type": "Point",
        "coordinates": [
          -84.9104053,
          30.5667827
        ]
      },
      "properties": {
        "name": "Torreya Challenge Primitive Camp",
        "tourism": "camp_site",
        "osm_id": 1295596635,
        "sources": [
          "unknown"
        ]
      }
    },
    {
      "type": "Feature",
      "geometry": {
        "type": "Point",
        "coordinates": [
          -84.9394912,
          30.5809526
        ]
      },
      "properties": {
        "name": "Rock Creek Primitive Camp",
        "tourism": "camp_site",
        "osm_id": 1295597960,
        "sources": [
          "unknown"
        ]
      }
    },
    {
      "type": "Feature",
      "geometry": {
        "type": "Point",
        "coordinates": [
          -84.959911,
          30.5638499
        ]
      },
      "properties": {
        "name": "Rock Bluff Primitive Camp",
        "tourism": "camp_site",
        "osm_id": 1295608837,
        "sources": [
          "unknown"
        ]
      }
    },
    {
      "type": "Feature",
      "geometry": {
        "type": "Point",
        "coordinates": [
          -84.9865361,
          30.2756475
        ]
      },
      "properties": {
        "name": "Camel Lake Recreation Area Apalachicola National Forest",
        "rating": null,
        "reviews_count": 0,
        "cost": 0,
        "amenities": [],
        "rig_friendly": [],
        "type": "established",
        "sources": [
          "unknown"
        ],
        "tourism": "caravan_site",
        "osm_id": 1119318389
      }
    },
    {
      "type": "Feature",
      "geometry": {
        "type": "Point",
        "coordinates": [
          -80.5090292,
          25.154009
        ]
      },
      "properties": {
        "backcountry": "yes",
        "caravans": "no",
        "group_only": "no",
        "name": "North Nest Key",
        "operator": "National Park Service",
        "reservation": "recommended",
        "tents": "yes",
        "toilets": "yes",
        "tourism": "camp_site",
        "website": "https://www.nps.gov/ever/planyourvisit/wilderness-trip-planner.htm",
        "osm_id": 1313997614,
        "sources": [
          "unknown"
        ]
      }
    },
    {
      "type": "Feature",
      "geometry": {
        "type": "Point",
        "coordinates": [
          -81.1400971,
          29.0234694
        ]
      },
      "properties": {
        "fixme": "verify - the mapper who added these made some questionable additions nearby",
        "tourism": "camp_site",
        "osm_id": 1349349489,
        "sources": [
          "unknown"
        ]
      }
    },
    {
      "type": "Feature",
      "geometry": {
        "type": "Point",
        "coordinates": [
          -81.6358727,
          28.0188964
        ]
      },
      "properties": {
        "name": "Royal Oaks Mobile Home Park",
        "tourism": "caravan_site",
        "osm_id": 1584100325,
        "sources": [
          "unknown"
        ]
      }
    },
    {
      "type": "Feature",
      "geometry": {
        "type": "Point",
        "coordinates": [
          -80.1638807,
          27.0043454
        ]
      },
      "properties": {
        "backcountry": "yes",
        "designation": "Kitching Creek Primitive Camp",
        "name": "Kitching Creek Primitive Camp",
        "open_fire": "yes",
        "tourism": "camp_site",
        "osm_id": 1645162072,
        "sources": [
          "unknown"
        ]
      }
    },
    {
      "type": "Feature",
      "geometry": {
        "type": "Point",
        "coordinates": [
          -80.134426,
          27.0113472
        ]
      },
      "properties": {
        "designation": "Youth Camp",
        "name": "Youth Camp",
        "tourism": "camp_site",
        "osm_id": 1645162074,
        "sources": [
          "unknown"
        ]
      }
    },
    {
      "type": "Feature",
      "geometry": {
        "type": "Point",
        "coordinates": [
          -80.1426845,
          27.0057482
        ]
      },
      "properties": {
        "designation": "Eaglesview Equestrian Camp",
        "name": "Eaglesview Equestrian Camp",
        "tourism": "camp_site",
        "osm_id": 1645162075,
        "sources": [
          "unknown"
        ]
      }
    },
    {
      "type": "Feature",
      "geometry": {
        "type": "Point",
        "coordinates": [
          -80.1423401,
          26.9932569
        ]
      },
      "properties": {
        "tourism": "camp_site",
        "osm_id": 1645166244,
        "sources": [
          "unknown"
        ]
      }
    },
    {
      "type": "Feature",
      "geometry": {
        "type": "Point",
        "coordinates": [
          -80.1371812,
          27.0329819
        ]
      },
      "properties": {
        "designation": "Scrub Jay Primitive Camp",
        "name": "Scrub Jay Primitive Camp",
        "tourism": "camp_site",
        "osm_id": 1645166248,
        "sources": [
          "unknown"
        ]
      }
    },
    {
      "type": "Feature",
      "geometry": {
        "type": "Point",
        "coordinates": [
          -80.1396457,
          27.0299442
        ]
      },
      "properties": {
        "name": "ScrubJay Camp Site",
        "tourism": "camp_site",
        "osm_id": 1650613385,
        "sources": [
          "unknown"
        ]
      }
    },
    {
      "type": "Feature",
      "geometry": {
        "type": "Point",
        "coordinates": [
          -81.9522897,
          26.4605676
        ]
      },
      "properties": {
        "name": "Gulf Cove Mobile Home Park",
        "tourism": "caravan_site",
        "osm_id": 1793687011,
        "sources": [
          "unknown"
        ]
      }
    },
    {
      "type": "Feature",
      "geometry": {
        "type": "Point",
        "coordinates": [
          -81.8107027,
          26.7203474
        ]
      },
      "properties": {
        "name": "Seminole RV Park",
        "tourism": "caravan_site",
        "osm_id": 1798635291,
        "sources": [
          "unknown"
        ]
      }
    },
    {
      "type": "Feature",
      "geometry": {
        "type": "Point",
        "coordinates": [
          -81.949431,
          26.4682927
        ]
      },
      "properties": {
        "name": "San Carlos RV Park and Island Resort",
        "tourism": "caravan_site",
        "osm_id": 1816148616,
        "sources": [
          "unknown"
        ]
      }
    },
    {
      "type": "Feature",
      "geometry": {
        "type": "Point",
        "coordinates": [
          -82.383446,
          27.6716293
        ]
      },
      "properties": {
        "name": "Family Camp Sites 1 - 30",
        "rating": null,
        "reviews_count": 0,
        "cost": 0,
        "amenities": [],
        "rig_friendly": [],
        "type": "established",
        "sources": [
          "LMRSP"
        ],
        "tourism": "caravan_site",
        "osm_id": 1821601303
      }
    },
    {
      "type": "Feature",
      "geometry": {
        "type": "Point",
        "coordinates": [
          -82.3866646,
          27.6667929
        ]
      },
      "properties": {
        "designation": "Primative Youth Camp",
        "name": "Youth Camping",
        "source": "Fl State Parks",
        "tourism": "camp_site",
        "osm_id": 1821601302,
        "sources": [
          "Fl State Parks"
        ]
      }
    },
    {
      "type": "Feature",
      "geometry": {
        "type": "Point",
        "coordinates": [
          -82.3732489,
          27.6818379
        ]
      },
      "properties": {
        "designation": "Hiking Trail Primative Camp Site",
        "name": "Primative Camp Site",
        "source": "LMRSP",
        "tourism": "camp_site",
        "osm_id": 1821683075,
        "sources": [
          "LMRSP"
        ]
      }
    },
    {
      "type": "Feature",
      "geometry": {
        "type": "Point",
        "coordinates": [
          -81.9414485,
          26.4900636
        ]
      },
      "properties": {
        "name": "Gulf Air MHP",
        "tourism": "caravan_site",
        "osm_id": 1843533103,
        "sources": [
          "unknown"
        ]
      }
    },
    {
      "type": "Feature",
      "geometry": {
        "type": "Point",
        "coordinates": [
          -81.9372019,
          26.4898503
        ]
      },
      "properties": {
        "name": "Gulf Waters RV Resort",
        "tourism": "caravan_site",
        "osm_id": 1843539997,
        "sources": [
          "unknown"
        ]
      }
    },
    {
      "type": "Feature",
      "geometry": {
        "type": "Point",
        "coordinates": [
          -81.8121822,
          26.4285603
        ]
      },
      "properties": {
        "name": "Covered Wagon Mobile Home Park",
        "tourism": "caravan_site",
        "osm_id": 1868466242,
        "sources": [
          "unknown"
        ]
      }
    },
    {
      "type": "Feature",
      "geometry": {
        "type": "Point",
        "coordinates": [
          -82.1522693,
          26.6822147
        ]
      },
      "properties": {
        "addr:city": "Bokeelia",
        "addr:housenumber": "15175",
        "addr:postcode": "33922",
        "addr:state": "FL",
        "addr:street": "Stringfellow Road",
        "contact:facebook": "https://www.facebook.com/TropicalWatersRVPark/",
        "name": "Tropical Waters RV Park",
        "tourism": "caravan_site",
        "osm_id": 1911678616,
        "sources": [
          "unknown"
        ]
      }
    },
    {
      "type": "Feature",
      "geometry": {
        "type": "Point",
        "coordinates": [
          -82.4591894,
          28.0240269
        ]
      },
      "properties": {
        "caravans": "yes",
        "impromptu": "yes",
        "tourism": "camp_site",
        "osm_id": 1940346481,
        "sources": [
          "unknown"
        ]
      }
    },
    {
      "type": "Feature",
      "geometry": {
        "type": "Point",
        "coordinates": [
          -81.8105134,
          26.3848011
        ]
      },
      "properties": {
        "name": "Leisure Time RV Park",
        "tourism": "caravan_site",
        "osm_id": 1956473089,
        "sources": [
          "unknown"
        ]
      }
    },
    {
      "type": "Feature",
      "geometry": {
        "type": "Point",
        "coordinates": [
          -81.6912087,
          26.7233442
        ]
      },
      "properties": {
        "rating": null,
        "reviews_count": 0,
        "cost": 0,
        "amenities": [],
        "rig_friendly": [],
        "type": "established",
        "sources": [
          "unknown"
        ],
        "tourism": "caravan_site",
        "osm_id": 2048760286
      }
    },
    {
      "type": "Feature",
      "geometry": {
        "type": "Point",
        "coordinates": [
          -81.6471953,
          26.7230232
        ]
      },
      "properties": {
        "name": "Site G13",
        "rating": null,
        "reviews_count": 0,
        "cost": 0,
        "amenities": [],
        "rig_friendly": [],
        "type": "established",
        "sources": [
          "unknown"
        ],
        "tourism": "camp_site",
        "osm_id": 2176614169
      }
    },
    {
      "type": "Feature",
      "geometry": {
        "type": "Point",
        "coordinates": [
          -82.218721,
          26.9667015
        ]
      },
      "properties": {
        "designation": "RV Park",
        "name": "Myakka River Motorcoach Resort",
        "source": "GPS",
        "tourism": "caravan_site",
        "osm_id": 2177359650,
        "sources": [
          "GPS"
        ]
      }
    },
    {
      "type": "Feature",
      "geometry": {
        "type": "Point",
        "coordinates": [
          -80.8062282,
          28.6134041
        ]
      },
      "properties": {
        "addr:city": "Titusville",
        "addr:housenumber": "5",
        "addr:postcode": "32796",
        "addr:street": "Broad Street",
        "capacity:caravans": "32",
        "internet_access": "yes",
        "internet_access:fee": "customers",
        "name": "Indian River RV Park",
        "tourism": "caravan_site",
        "osm_id": 2351319481,
        "sources": [
          "unknown"
        ]
      }
    },
    {
      "type": "Feature",
      "geometry": {
        "type": "Point",
        "coordinates": [
          -82.644739,
          27.8350576
        ]
      },
      "properties": {
        "tourism": "camp_site",
        "osm_id": 2367906363,
        "sources": [
          "unknown"
        ]
      }
    },
    {
      "type": "Feature",
      "geometry": {
        "type": "Point",
        "coordinates": [
          -82.2580847,
          26.6854363
        ]
      },
      "properties": {
        "name": "Cayo Costa SP Tent Camping",
        "tourism": "camp_site",
        "osm_id": 2395523684,
        "sources": [
          "unknown"
        ]
      }
    },
    {
      "type": "Feature",
      "geometry": {
        "type": "Point",
        "coordinates": [
          -81.4623364,
          30.7644804
        ]
      },
      "properties": {
        "source": "NPS_map",
        "tourism": "camp_site",
        "osm_id": 2413820630,
        "sources": [
          "NPS_map"
        ]
      }
    },
    {
      "type": "Feature",
      "geometry": {
        "type": "Point",
        "coordinates": [
          -81.4597405,
          30.7003132
        ]
      },
      "properties": {
        "source": "local_knowledge",
        "tourism": "camp_site",
        "osm_id": 2413976714,
        "sources": [
          "local_knowledge"
        ]
      }
    },
    {
      "type": "Feature",
      "geometry": {
        "type": "Point",
        "coordinates": [
          -81.4346881,
          30.7026937
        ]
      },
      "properties": {
        "tourism": "camp_site",
        "osm_id": 2413976715,
        "sources": [
          "unknown"
        ]
      }
    },
    {
      "type": "Feature",
      "geometry": {
        "type": "Point",
        "coordinates": [
          -81.4346012,
          30.7016693
        ]
      },
      "properties": {
        "tourism": "caravan_site",
        "osm_id": 2413976719,
        "sources": [
          "unknown"
        ]
      }
    },
    {
      "type": "Feature",
      "geometry": {
        "type": "Point",
        "coordinates": [
          -82.2183581,
          28.575862
        ]
      },
      "properties": {
        "name": "Silver Lake Camping",
        "tourism": "camp_site",
        "osm_id": 2691417315,
        "sources": [
          "unknown"
        ]
      }
    },
    {
      "type": "Feature",
      "geometry": {
        "type": "Point",
        "coordinates": [
          -80.1342108,
          25.9218461
        ]
      },
      "properties": {
        "tourism": "camp_site",
        "osm_id": 2728008567,
        "sources": [
          "unknown"
        ]
      }
    },
    {
      "type": "Feature",
      "geometry": {
        "type": "Point",
        "coordinates": [
          -85.7278628,
          30.1288441
        ]
      },
      "properties": {
        "tourism": "camp_site",
        "osm_id": 2737296264,
        "sources": [
          "unknown"
        ]
      }
    },
    {
      "type": "Feature",
      "geometry": {
        "type": "Point",
        "coordinates": [
          -81.1137585,
          25.8670449
        ]
      },
      "properties": {
        "name": "Monument Lake",
        "phone": "+1 877 444 6777",
        "tourism": "camp_site",
        "website": "https://recreation.gov/",
        "osm_id": 2769360137,
        "sources": [
          "unknown"
        ]
      }
    },
    {
      "type": "Feature",
      "geometry": {
        "type": "Point",
        "coordinates": [
          -80.7766113,
          27.7258029
        ]
      },
      "properties": {
        "name": "Middleton Fish Camp",
        "tourism": "camp_site",
        "osm_id": 2769398494,
        "sources": [
          "unknown"
        ]
      }
    },
    {
      "type": "Feature",
      "geometry": {
        "type": "Point",
        "coordinates": [
          -82.7885621,
          27.8901846
        ]
      },
      "properties": {
        "addr:housenumber": "12928",
        "addr:street": "Seminole Boulevard",
        "name": "Camper's Cove",
        "tourism": "caravan_site",
        "osm_id": 2846173061,
        "sources": [
          "unknown"
        ]
      }
    },
    {
      "type": "Feature",
      "geometry": {
        "type": "Point",
        "coordinates": [
          -84.4971593,
          30.4615663
        ]
      },
      "properties": {
        "addr:city": "Midway",
        "addr:housenumber": "2725",
        "addr:state": "FL",
        "addr:street": "High Bluff Road",
        "name": "High Bluff Campground",
        "operator": "Lake Talquin State Forest",
        "tourism": "camp_site",
        "osm_id": 2869432848,
        "sources": [
          "unknown"
        ]
      }
    },
    {
      "type": "Feature",
      "geometry": {
        "type": "Point",
        "coordinates": [
          -84.6286429,
          30.4244103
        ]
      },
      "properties": {
        "tourism": "camp_site",
        "osm_id": 2876336811,
        "sources": [
          "unknown"
        ]
      }
    },
    {
      "type": "Feature",
      "geometry": {
        "type": "Point",
        "coordinates": [
          -84.6349763,
          30.4163801
        ]
      },
      "properties": {
        "tourism": "camp_site",
        "osm_id": 2879229106,
        "sources": [
          "unknown"
        ]
      }
    },
    {
      "type": "Feature",
      "geometry": {
        "type": "Point",
        "coordinates": [
          -84.4084709,
          30.3903974
        ]
      },
      "properties": {
        "tourism": "camp_site",
        "osm_id": 2896562203,
        "sources": [
          "unknown"
        ]
      }
    },
    {
      "type": "Feature",
      "geometry": {
        "type": "Point",
        "coordinates": [
          -84.6146321,
          30.4747464
        ]
      },
      "properties": {
        "tourism": "camp_site",
        "osm_id": 2896636770,
        "sources": [
          "unknown"
        ]
      }
    },
    {
      "type": "Feature",
      "geometry": {
        "type": "Point",
        "coordinates": [
          -83.166675,
          30.3861617
        ]
      },
      "properties": {
        "tourism": "camp_site",
        "osm_id": 2900300225,
        "sources": [
          "unknown"
        ]
      }
    },
    {
      "type": "Feature",
      "geometry": {
        "type": "Point",
        "coordinates": [
          -84.534915,
          30.3342294
        ]
      },
      "properties": {
        "name": "Buckhorn",
        "tourism": "camp_site",
        "osm_id": 2901098206,
        "sources": [
          "unknown"
        ]
      }
    },
    {
      "type": "Feature",
      "geometry": {
        "type": "Point",
        "coordinates": [
          -84.5134254,
          30.2981759
        ]
      },
      "properties": {
        "name": "Brown House",
        "tourism": "camp_site",
        "osm_id": 2901118760,
        "sources": [
          "unknown"
        ]
      }
    },
    {
      "type": "Feature",
      "geometry": {
        "type": "Point",
        "coordinates": [
          -84.4768244,
          30.2236457
        ]
      },
      "properties": {
        "name": "Pope Still",
        "tourism": "camp_site",
        "osm_id": 2901136138,
        "sources": [
          "unknown"
        ]
      }
    },
    {
      "type": "Feature",
      "geometry": {
        "type": "Point",
        "coordinates": [
          -84.6160422,
          30.3088281
        ]
      },
      "properties": {
        "tourism": "camp_site",
        "osm_id": 2901138649,
        "sources": [
          "unknown"
        ]
      }
    },
    {
      "type": "Feature",
      "geometry": {
        "type": "Point",
        "coordinates": [
          -84.6973345,
          30.245859
        ]
      },
      "properties": {
        "name": "Pine Creek",
        "tourism": "camp_site",
        "osm_id": 2901160634,
        "sources": [
          "unknown"
        ]
      }
    },
    {
      "type": "Feature",
      "geometry": {
        "type": "Point",
        "coordinates": [
          -84.6746713,
          30.1645898
        ]
      },
      "properties": {
        "name": "Porter Lake",
        "tourism": "camp_site",
        "osm_id": 2901172301,
        "sources": [
          "unknown"
        ]
      }
    },
    {
      "type": "Feature",
      "geometry": {
        "type": "Point",
        "coordinates": [
          -84.6644575,
          30.160063
        ]
      },
      "properties": {
        "name": "Whitehead Landing",
        "tourism": "camp_site",
        "osm_id": 2901193887,
        "sources": [
          "unknown"
        ]
      }
    },
    {
      "type": "Feature",
      "geometry": {
        "type": "Point",
        "coordinates": [
          -84.6720212,
          30.1265709
        ]
      },
      "properties": {
        "name": "Revell Landing",
        "tourism": "camp_site",
        "osm_id": 2901240191,
        "sources": [
          "unknown"
        ]
      }
    },
    {
      "type": "Feature",
      "geometry": {
        "type": "Point",
        "coordinates": [
          -84.6422462,
          30.1022359
        ]
      },
      "properties": {
        "name": "Mack Slough",
        "tourism": "camp_site",
        "osm_id": 2901246287,
        "sources": [
          "unknown"
        ]
      }
    },
    {
      "type": "Feature",
      "geometry": {
        "type": "Point",
        "coordinates": [
          -84.6446065,
          30.0933063
        ]
      },
      "properties": {
        "name": "Mack Landing",
        "tourism": "camp_site",
        "osm_id": 2901262296,
        "sources": [
          "unknown"
        ]
      }
    },
    {
      "type": "Feature",
      "geometry": {
        "type": "Point",
        "coordinates": [
          -84.6507345,
          30.0803297
        ]
      },
      "properties": {
        "name": "Hitchcock Lake",
        "rating": null,
        "reviews_count": 0,
        "cost": 0,
        "amenities": [],
        "rig_friendly": [],
        "type": "established",
        "sources": [
          "unknown"
        ],
        "tourism": "caravan_site",
        "osm_id": 1119318384
      }
    },
    {
      "type": "Feature",
      "geometry": {
        "type": "Point",
        "coordinates": [
          -84.8981118,
          30.0728492
        ]
      },
      "properties": {
        "name": "Magnolia Landing",
        "tourism": "camp_site",
        "osm_id": 2901391441,
        "sources": [
          "unknown"
        ]
      }
    },
    {
      "type": "Feature",
      "geometry": {
        "type": "Point",
        "coordinates": [
          -85.0136884,
          29.9202666
        ]
      },
      "properties": {
        "name": "Smith Creek Landing",
        "rating": null,
        "reviews_count": 0,
        "cost": 0,
        "amenities": [],
        "rig_friendly": [],
        "type": "established",
        "sources": [
          "unknown"
        ],
        "tourism": "camp_site",
        "osm_id": 7526021847
      }
    },
    {
      "type": "Feature",
      "geometry": {
        "type": "Point",
        "coordinates": [
          -85.0783122,
          30.0442706
        ]
      },
      "properties": {
        "name": "Cotton Landing",
        "rating": null,
        "reviews_count": 0,
        "cost": 0,
        "amenities": [],
        "rig_friendly": [],
        "type": "established",
        "sources": [
          "unknown"
        ],
        "tourism": "caravan_site",
        "osm_id": 1119318385
      }
    },
    {
      "type": "Feature",
      "geometry": {
        "type": "Point",
        "coordinates": [
          -85.1129053,
          30.0982244
        ]
      },
      "properties": {
        "name": "White Oak Landing",
        "tourism": "camp_site",
        "osm_id": 2901779484,
        "sources": [
          "unknown"
        ]
      }
    },
    {
      "type": "Feature",
      "geometry": {
        "type": "Point",
        "coordinates": [
          -85.0287652,
          30.2409843
        ]
      },
      "properties": {
        "name": "Big Gully Landing",
        "tourism": "camp_site",
        "osm_id": 2901837511,
        "sources": [
          "unknown"
        ]
      }
    },
    {
      "type": "Feature",
      "geometry": {
        "type": "Point",
        "coordinates": [
          -84.9290604,
          30.1404546
        ]
      },
      "properties": {
        "name": "Cliff Lake",
        "tourism": "camp_site",
        "osm_id": 2901849587,
        "sources": [
          "unknown"
        ]
      }
    },
    {
      "type": "Feature",
      "geometry": {
        "type": "Point",
        "coordinates": [
          -84.8688507,
          30.1401538
        ]
      },
      "properties": {
        "name": "Twin Poles",
        "tourism": "camp_site",
        "osm_id": 2901857667,
        "sources": [
          "unknown"
        ]
      }
    },
    {
      "type": "Feature",
      "geometry": {
        "type": "Point",
        "coordinates": [
          -81.1426923,
          25.3823753
        ]
      },
      "properties": {
        "name": "Graveyard Creek Camp",
        "source": "MSR Topo, personal",
        "tourism": "camp_site",
        "osm_id": 2904511402,
        "sources": [
          "MSR Topo, personal"
        ]
      }
    },
    {
      "type": "Feature",
      "geometry": {
        "type": "Point",
        "coordinates": [
          -81.0657108,
          25.2797983
        ]
      },
      "properties": {
        "name": "Joe River Chickee #1",
        "rating": null,
        "reviews_count": 0,
        "cost": 0,
        "amenities": [],
        "rig_friendly": [],
        "type": "established",
        "sources": [
          "unknown"
        ],
        "tourism": "camp_site",
        "osm_id": 2904566680
      }
    },
    {
      "type": "Feature",
      "geometry": {
        "type": "Point",
        "coordinates": [
          -80.8937433,
          25.2843468
        ]
      },
      "properties": {
        "name": "Lane Bay Chickee",
        "source": "Bing, MSR Topo",
        "tourism": "camp_site",
        "osm_id": 2904592114,
        "sources": [
          "Bing, MSR Topo"
        ]
      }
    },
    {
      "type": "Feature",
      "geometry": {
        "type": "Point",
        "coordinates": [
          -80.9372419,
          25.3317194
        ]
      },
      "properties": {
        "name": "North River Chickee",
        "source": "Bing, MSR Topo",
        "tourism": "camp_site",
        "osm_id": 2904592115,
        "sources": [
          "Bing, MSR Topo"
        ]
      }
    },
    {
      "type": "Feature",
      "geometry": {
        "type": "Point",
        "coordinates": [
          -80.9805585,
          25.3325343
        ]
      },
      "properties": {
        "name": "Watson River Chickee",
        "source": "Bing, MSR Topo",
        "tourism": "camp_site",
        "osm_id": 2904592116,
        "sources": [
          "Bing, MSR Topo"
        ]
      }
    },
    {
      "type": "Feature",
      "geometry": {
        "type": "Point",
        "coordinates": [
          -80.8785921,
          25.2534082
        ]
      },
      "properties": {
        "name": "Hells Bay Chickee #1",
        "rating": null,
        "reviews_count": 0,
        "cost": 0,
        "amenities": [],
        "rig_friendly": [],
        "type": "established",
        "sources": [
          "Bing, MSR Topo"
        ],
        "tourism": "camp_site",
        "osm_id": 2904596068
      }
    },
    {
      "type": "Feature",
      "geometry": {
        "type": "Point",
        "coordinates": [
          -84.1437707,
          30.7016722
        ]
      },
      "properties": {
        "name": "Plantation Parkway RV and Mobile Home Park",
        "tourism": "caravan_site",
        "osm_id": 2926298452,
        "sources": [
          "unknown"
        ]
      }
    },
    {
      "type": "Feature",
      "geometry": {
        "type": "Point",
        "coordinates": [
          -81.4870841,
          28.7109472
        ]
      },
      "properties": {
        "name": "Wekiva Youth Camp",
        "tourism": "camp_site",
        "osm_id": 2964947232,
        "sources": [
          "unknown"
        ]
      }
    },
    {
      "type": "Feature",
      "geometry": {
        "type": "Point",
        "coordinates": [
          -81.4755159,
          28.7088215
        ]
      },
      "properties": {
        "name": "campsites 1-30",
        "rating": null,
        "reviews_count": 0,
        "cost": 0,
        "amenities": [],
        "rig_friendly": [],
        "type": "established",
        "sources": [
          "unknown"
        ],
        "tourism": "camp_site",
        "osm_id": 2964955634
      }
    },
    {
      "type": "Feature",
      "geometry": {
        "type": "Point",
        "coordinates": [
          -81.5617394,
          28.4049605
        ]
      },
      "properties": {
        "alt_name": "Boy Scouts Campground",
        "name": "Creek Side Meadow",
        "tourism": "camp_site",
        "osm_id": 2968261566,
        "sources": [
          "unknown"
        ]
      }
    },
    {
      "type": "Feature",
      "geometry": {
        "type": "Point",
        "coordinates": [
          -80.9487729,
          24.765255
        ]
      },
      "properties": {
        "addr:city": "Grass Key",
        "addr:housenumber": "58671",
        "addr:postcode": "33050",
        "addr:street": "Overseas Highway",
        "name": "Grassy Key RV Park & Resort",
        "phone": "+1 305-289-1606",
        "tourism": "caravan_site",
        "website": "https://www.grassykeyrvpark.com/",
        "osm_id": 3060410061,
        "sources": [
          "unknown"
        ]
      }
    },
    {
      "type": "Feature",
      "geometry": {
        "type": "Point",
        "coordinates": [
          -81.6002307,
          24.6230276
        ]
      },
      "properties": {
        "addr:city": "Key West",
        "addr:housenumber": "2950",
        "addr:postcode": "33040",
        "addr:street": "Overseas Highway",
        "caravans": "yes",
        "fee": "yes",
        "internet_access": "wlan",
        "internet_access:fee": "no",
        "name": "Bluewater Key - A Luxury RV Resort",
        "phone": "+1 305-744-0999",
        "tents": "no",
        "tourism": "caravan_site",
        "website": "http://www.bluewaterkey.net/",
        "osm_id": 3067883027,
        "sources": [
          "unknown"
        ]
      }
    },
    {
      "type": "Feature",
      "geometry": {
        "type": "Point",
        "coordinates": [
          -82.1397676,
          27.8588012
        ]
      },
      "properties": {
        "name": "Campsite 1",
        "rating": null,
        "reviews_count": 0,
        "cost": 0,
        "amenities": [],
        "rig_friendly": [],
        "type": "established",
        "sources": [
          "unknown"
        ],
        "tourism": "camp_site",
        "osm_id": 4694576424
      }
    },
    {
      "type": "Feature",
      "geometry": {
        "type": "Point",
        "coordinates": [
          -82.6819311,
          27.4697024
        ]
      },
      "properties": {
        "name": "Holiday Cove RV Resort",
        "tourism": "caravan_site",
        "osm_id": 3132662626,
        "sources": [
          "unknown"
        ]
      }
    },
    {
      "type": "Feature",
      "geometry": {
        "type": "Point",
        "coordinates": [
          -81.6558738,
          28.2267577
        ]
      },
      "properties": {
        "addr:city": "Davenport",
        "addr:housenumber": "2727",
        "addr:postcode": "33837",
        "addr:street": "Frontage Road",
        "name": "Themeworld RV Resort",
        "tourism": "caravan_site",
        "osm_id": 3143352361,
        "sources": [
          "unknown"
        ]
      }
    },
    {
      "type": "Feature",
      "geometry": {
        "type": "Point",
        "coordinates": [
          -81.652841,
          28.229086
        ]
      },
      "properties": {
        "addr:city": "Davenport",
        "addr:housenumber": "2525",
        "addr:postcode": "33837",
        "addr:street": "Fort Summit Road",
        "name": "Orlando S.W. / Fort Summit KOA",
        "tourism": "caravan_site",
        "osm_id": 3143352362,
        "sources": [
          "unknown"
        ]
      }
    },
    {
      "type": "Feature",
      "geometry": {
        "type": "Point",
        "coordinates": [
          -81.5861399,
          28.2583607
        ]
      },
      "properties": {
        "addr:city": "Davenport",
        "addr:housenumber": "7500",
        "addr:postcode": "33896",
        "addr:street": "Osceola Polk Line Road",
        "name": "Mouse Mountain RV & Camping Resort",
        "phone": "+1 863-424-2791",
        "tourism": "caravan_site",
        "osm_id": 3145054823,
        "sources": [
          "unknown"
        ]
      }
    },
    {
      "type": "Feature",
      "geometry": {
        "type": "Point",
        "coordinates": [
          -81.4653731,
          28.3175032
        ]
      },
      "properties": {
        "addr:city": "Kissimmee",
        "addr:housenumber": "2425",
        "addr:postcode": "34746",
        "addr:state": "FL",
        "addr:street": "Old Vineland Road",
        "name": "Orange Grove Campround and RV Park",
        "phone": "+1 407-396-6655",
        "tourism": "caravan_site",
        "osm_id": 3153738696,
        "sources": [
          "unknown"
        ]
      }
    },
    {
      "type": "Feature",
      "geometry": {
        "type": "Point",
        "coordinates": [
          -82.2270142,
          27.8663227
        ]
      },
      "properties": {
        "name": "Group Campsite A",
        "rating": null,
        "reviews_count": 0,
        "cost": 0,
        "amenities": [],
        "rig_friendly": [],
        "type": "established",
        "sources": [
          "unknown"
        ],
        "tourism": "camp_site",
        "osm_id": 3182023752
      }
    },
    {
      "type": "Feature",
      "geometry": {
        "type": "Point",
        "coordinates": [
          -82.1402366,
          27.7790777
        ]
      },
      "properties": {
        "tourism": "camp_site",
        "osm_id": 3202636630,
        "sources": [
          "unknown"
        ]
      }
    },
    {
      "type": "Feature",
      "geometry": {
        "type": "Point",
        "coordinates": [
          -82.1376941,
          27.7778627
        ]
      },
      "properties": {
        "tourism": "camp_site",
        "osm_id": 3202636631,
        "sources": [
          "unknown"
        ]
      }
    },
    {
      "type": "Feature",
      "geometry": {
        "type": "Point",
        "coordinates": [
          -81.4834423,
          27.9736944
        ]
      },
      "properties": {
        "name": "Backpack Campsite",
        "tourism": "camp_site",
        "osm_id": 3204032097,
        "sources": [
          "unknown"
        ]
      }
    },
    {
      "type": "Feature",
      "geometry": {
        "type": "Point",
        "coordinates": [
          -81.4842897,
          27.9621623
        ]
      },
      "properties": {
        "name": "Backpack Campsite",
        "tourism": "camp_site",
        "osm_id": 3204032098,
        "sources": [
          "unknown"
        ]
      }
    },
    {
      "type": "Feature",
      "geometry": {
        "type": "Point",
        "coordinates": [
          -81.4211797,
          30.4580445
        ]
      },
      "properties": {
        "tourism": "camp_site",
        "osm_id": 3204192429,
        "sources": [
          "unknown"
        ]
      }
    },
    {
      "type": "Feature",
      "geometry": {
        "type": "Point",
        "coordinates": [
          -81.2790373,
          29.8738329
        ]
      },
      "properties": {
        "tourism": "camp_site",
        "osm_id": 3204841249,
        "sources": [
          "unknown"
        ]
      }
    },
    {
      "type": "Feature",
      "geometry": {
        "type": "Point",
        "coordinates": [
          -81.2751964,
          29.8651991
        ]
      },
      "properties": {
        "tourism": "camp_site",
        "osm_id": 3204841250,
        "sources": [
          "unknown"
        ]
      }
    },
    {
      "type": "Feature",
      "geometry": {
        "type": "Point",
        "coordinates": [
          -82.849334,
          28.2124887
        ]
      },
      "properties": {
        "name": "Primitive Camping",
        "tourism": "camp_site",
        "osm_id": 3205684037,
        "sources": [
          "unknown"
        ]
      }
    },
    {
      "type": "Feature",
      "geometry": {
        "type": "Point",
        "coordinates": [
          -81.3345589,
          28.9457084
        ]
      },
      "properties": {
        "caravans": "yes",
        "drinking_water": "yes",
        "name": "Sand Pine Scrub Campground",
        "power_supply": "yes",
        "sanitary_dump_station": "yes",
        "shower": "yes",
        "tents": "yes",
        "toilets": "yes",
        "tourism": "camp_site",
        "osm_id": 3208639267,
        "sources": [
          "unknown"
        ]
      }
    },
    {
      "type": "Feature",
      "geometry": {
        "type": "Point",
        "coordinates": [
          -81.0818046,
          29.339019
        ]
      },
      "properties": {
        "tourism": "camp_site",
        "osm_id": 3209565442,
        "sources": [
          "unknown"
        ]
      }
    },
    {
      "type": "Feature",
      "geometry": {
        "type": "Point",
        "coordinates": [
          -81.0802299,
          29.3361546
        ]
      },
      "properties": {
        "tourism": "camp_site",
        "osm_id": 3209565443,
        "sources": [
          "unknown"
        ]
      }
    },
    {
      "type": "Feature",
      "geometry": {
        "type": "Point",
        "coordinates": [
          -81.5875006,
          25.9948371
        ]
      },
      "properties": {
        "name": "Primitive Camping",
        "tourism": "camp_site",
        "osm_id": 3218458716,
        "sources": [
          "unknown"
        ]
      }
    },
    {
      "type": "Feature",
      "geometry": {
        "type": "Point",
        "coordinates": [
          -82.0443968,
          28.3120356
        ]
      },
      "properties": {
        "name": "Boots and Saddles",
        "tourism": "camp_site",
        "osm_id": 3221302844,
        "sources": [
          "unknown"
        ]
      }
    },
    {
      "type": "Feature",
      "geometry": {
        "type": "Point",
        "coordinates": [
          -82.0371496,
          28.2759573
        ]
      },
      "properties": {
        "name": "Youth Camping",
        "tourism": "camp_site",
        "osm_id": 3221312528,
        "sources": [
          "unknown"
        ]
      }
    },
    {
      "type": "Feature",
      "geometry": {
        "type": "Point",
        "coordinates": [
          -82.4269235,
          29.9253324
        ]
      },
      "properties": {
        "tourism": "camp_site",
        "osm_id": 3241488485,
        "sources": [
          "unknown"
        ]
      }
    },
    {
      "type": "Feature",
      "geometry": {
        "type": "Point",
        "coordinates": [
          -84.5197479,
          30.4478513
        ]
      },
      "properties": {
        "addr:housenumber": "951",
        "addr:street": "Williams Landing Road",
        "caravans": "yes",
        "name": "William's Landing Campground",
        "operator": "Leon County",
        "static_caravans": "yes",
        "tents": "yes",
        "tourism": "camp_site",
        "osm_id": 3248324176,
        "sources": [
          "unknown"
        ]
      }
    },
    {
      "type": "Feature",
      "geometry": {
        "type": "Point",
        "coordinates": [
          -82.2531682,
          27.2525431
        ]
      },
      "properties": {
        "name": "Bee Island",
        "tourism": "camp_site",
        "osm_id": 3287497998,
        "sources": [
          "unknown"
        ]
      }
    },
    {
      "type": "Feature",
      "geometry": {
        "type": "Point",
        "coordinates": [
          -82.2431728,
          27.2760559
        ]
      },
      "properties": {
        "name": "Mossy Hammock",
        "tourism": "camp_site",
        "osm_id": 3287498038,
        "sources": [
          "unknown"
        ]
      }
    },
    {
      "type": "Feature",
      "geometry": {
        "type": "Point",
        "coordinates": [
          -82.2674472,
          27.2236206
        ]
      },
      "properties": {
        "name": "Honore Campsite",
        "tourism": "camp_site",
        "osm_id": 3290963874,
        "sources": [
          "unknown"
        ]
      }
    },
    {
      "type": "Feature",
      "geometry": {
        "type": "Point",
        "coordinates": [
          -82.1636944,
          27.2148889
        ]
      },
      "properties": {
        "name": "Prairie Point Camp",
        "tourism": "camp_site",
        "osm_id": 3292324091,
        "sources": [
          "unknown"
        ]
      }
    },
    {
      "type": "Feature",
      "geometry": {
        "type": "Point",
        "coordinates": [
          -82.1787219,
          27.2344108
        ]
      },
      "properties": {
        "name": "Oak Grove Camp",
        "tourism": "camp_site",
        "osm_id": 3292324159,
        "sources": [
          "unknown"
        ]
      }
    },
    {
      "type": "Feature",
      "geometry": {
        "type": "Point",
        "coordinates": [
          -80.919171,
          25.762361
        ]
      },
      "properties": {
        "access": "permit",
        "fee": "yes",
        "name": "Pinecrest Group Campground",
        "operator": "Big Cypress National Preserve",
        "tourism": "camp_site",
        "website": "https://www.nps.gov/bicy/planyourvisit/pinecrest-campground.htm",
        "osm_id": 3312749187,
        "sources": [
          "unknown"
        ]
      }
    },
    {
      "type": "Feature",
      "geometry": {
        "type": "Point",
        "coordinates": [
          -81.597362,
          25.9919739
        ]
      },
      "properties": {
        "name": "Primitive Group Camp",
        "tourism": "camp_site",
        "osm_id": 3362072877,
        "sources": [
          "unknown"
        ]
      }
    },
    {
      "type": "Feature",
      "geometry": {
        "type": "Point",
        "coordinates": [
          -80.5442661,
          27.0047015
        ]
      },
      "properties": {
        "tourism": "camp_site",
        "osm_id": 3389169418,
        "sources": [
          "unknown"
        ]
      }
    },
    {
      "type": "Feature",
      "geometry": {
        "type": "Point",
        "coordinates": [
          -85.4090023,
          29.7995281
        ]
      },
      "properties": {
        "backcountry": "yes",
        "name": "Primitive 1",
        "tourism": "camp_site",
        "osm_id": 3404394953,
        "sources": [
          "unknown"
        ]
      }
    },
    {
      "type": "Feature",
      "geometry": {
        "type": "Point",
        "coordinates": [
          -85.410653,
          29.8061767
        ]
      },
      "properties": {
        "name": "Primitive 2",
        "rating": null,
        "reviews_count": 0,
        "cost": 0,
        "amenities": [],
        "rig_friendly": [],
        "type": "established",
        "sources": [
          "unknown"
        ],
        "tourism": "camp_site",
        "osm_id": 3404394955
      }
    },
    {
      "type": "Feature",
      "geometry": {
        "type": "Point",
        "coordinates": [
          -87.2633765,
          30.319993
        ]
      },
      "properties": {
        "name": "Volunteer Camping Area",
        "rating": null,
        "reviews_count": 0,
        "cost": 0,
        "amenities": [],
        "rig_friendly": [],
        "type": "established",
        "sources": [
          "unknown"
        ],
        "tourism": "camp_site",
        "osm_id": 334541305
      }
    },
    {
      "type": "Feature",
      "geometry": {
        "type": "Point",
        "coordinates": [
          -81.4518283,
          30.8060101
        ]
      },
      "properties": {
        "capacity": "50",
        "internet_access": "no",
        "name": "Stafford",
        "reservation": "required",
        "tourism": "camp_site",
        "osm_id": 3445259219,
        "sources": [
          "unknown"
        ]
      }
    },
    {
      "type": "Feature",
      "geometry": {
        "type": "Point",
        "coordinates": [
          -82.2230638,
          27.2156975
        ]
      },
      "properties": {
        "name": "Panther Point",
        "tourism": "camp_site",
        "osm_id": 3468117724,
        "sources": [
          "unknown"
        ]
      }
    },
    {
      "type": "Feature",
      "geometry": {
        "type": "Point",
        "coordinates": [
          -81.5851859,
          29.6208872
        ]
      },
      "properties": {
        "addr:housenumber": "436",
        "name": "Saint John's Campground",
        "tourism": "caravan_site",
        "osm_id": 3494201549,
        "sources": [
          "unknown"
        ]
      }
    },
    {
      "type": "Feature",
      "geometry": {
        "type": "Point",
        "coordinates": [
          -82.4324719,
          30.2418385
        ]
      },
      "properties": {
        "caravans": "yes",
        "dog": "yes",
        "drinking_water": "yes",
        "fee": "yes",
        "group_only": "no",
        "name": "Ocean Pond Campground",
        "power_supply": "yes",
        "reservation": "no",
        "sanitary_dump_station": "yes",
        "shower": "yes",
        "tents": "yes",
        "toilets": "yes",
        "tourism": "camp_site",
        "osm_id": 3542084590,
        "sources": [
          "unknown"
        ]
      }
    },
    {
      "type": "Feature",
      "geometry": {
        "type": "Point",
        "coordinates": [
          -82.4636002,
          27.7406087
        ]
      },
      "properties": {
        "tourism": "caravan_site",
        "osm_id": 3643225795,
        "sources": [
          "unknown"
        ]
      }
    },
    {
      "type": "Feature",
      "geometry": {
        "type": "Point",
        "coordinates": [
          -82.4706161,
          27.740289
        ]
      },
      "properties": {
        "tourism": "caravan_site",
        "osm_id": 3643553649,
        "sources": [
          "unknown"
        ]
      }
    },
    {
      "type": "Feature",
      "geometry": {
        "type": "Point",
        "coordinates": [
          -82.4695913,
          27.7407845
        ]
      },
      "properties": {
        "tourism": "caravan_site",
        "osm_id": 3643553652,
        "sources": [
          "unknown"
        ]
      }
    },
    {
      "type": "Feature",
      "geometry": {
        "type": "Point",
        "coordinates": [
          -82.3547114,
          28.7585514
        ]
      },
      "properties": {
        "FIXME": "simple node to indicate general location;need detailed survey",
        "amenity": "toilets",
        "capacity": "13",
        "contact:website": "http://www.freshfromflorida.com/Divisions-Offices/Florida-Forest-Service/Our-Forests/State-Forests/Withlacoochee-State-Forest/Recreation-at-Withlacoochee-State-Forest#mutual",
        "leisure": "firepit",
        "name": "Withlacoochee State Forest Mutual Mine Recreation Area",
        "operator": "Florida Forest Service",
        "phone": "+1-352-797-4140",
        "tourism": "camp_site",
        "website": "http://www.freshfromflorida.com/Divisions-Offices/Florida-Forest-Service/Our-Forests/State-Forests/Withlacoochee-State-Forest/Recreation-at-Withlacoochee-State-Forest#mutual",
        "osm_id": 3645180145,
        "sources": [
          "unknown"
        ]
      }
    },
    {
      "type": "Feature",
      "geometry": {
        "type": "Point",
        "coordinates": [
          -81.6931459,
          26.719389
        ]
      },
      "properties": {
        "rating": null,
        "reviews_count": 0,
        "cost": 0,
        "amenities": [],
        "rig_friendly": [],
        "type": "established",
        "sources": [
          "unknown"
        ],
        "tourism": "caravan_site",
        "osm_id": 3646821703
      }
    },
    {
      "type": "Feature",
      "geometry": {
        "type": "Point",
        "coordinates": [
          -82.9834803,
          29.6617226
        ]
      },
      "properties": {
        "addr:city": "old town",
        "addr:housenumber": "4114",
        "addr:postcode": "32680",
        "addr:state": "FL",
        "addr:street": "NE Hwy 349",
        "name": "Lucky Charm RV Park",
        "phone": "+1-352-542-0033",
        "tourism": "camp_site",
        "osm_id": 3663496768,
        "sources": [
          "unknown"
        ]
      }
    },
    {
      "type": "Feature",
      "geometry": {
        "type": "Point",
        "coordinates": [
          -82.9672116,
          29.5537754
        ]
      },
      "properties": {
        "name": "Suwannee RIver Hideaway Campground",
        "phone": "+1-352-542-7800",
        "tourism": "camp_site",
        "osm_id": 3663496769,
        "sources": [
          "unknown"
        ]
      }
    },
    {
      "type": "Feature",
      "geometry": {
        "type": "Point",
        "coordinates": [
          -82.8659077,
          29.898089
        ]
      },
      "properties": {
        "addr:city": "Branford",
        "addr:housenumber": "3349",
        "addr:postcode": "32008",
        "addr:state": "FL",
        "addr:street": "NW 110th Street",
        "amenity": "pub",
        "name": "Ellie Ray's RV Resort & Lounge",
        "phone": "+1-386-935-9518",
        "tourism": "caravan_site",
        "osm_id": 3670735861,
        "sources": [
          "unknown"
        ]
      }
    },
    {
      "type": "Feature",
      "geometry": {
        "type": "Point",
        "coordinates": [
          -84.3771614,
          30.4557099
        ]
      },
      "properties": {
        "name": "Lakeside RV Travel Park",
        "rating": null,
        "reviews_count": 0,
        "cost": 0,
        "amenities": [],
        "rig_friendly": [],
        "type": "established",
        "sources": [
          "unknown"
        ],
        "tourism": "caravan_site",
        "osm_id": 1119435450
      }
    },
    {
      "type": "Feature",
      "geometry": {
        "type": "Point",
        "coordinates": [
          -82.0925809,
          29.1025167
        ]
      },
      "properties": {
        "tourism": "camp_site",
        "osm_id": 3901953557,
        "sources": [
          "unknown"
        ]
      }
    },
    {
      "type": "Feature",
      "geometry": {
        "type": "Point",
        "coordinates": [
          -82.5730856,
          29.9670026
        ]
      },
      "properties": {
        "addr:state": "FL",
        "addr:street": "Southeast October Road",
        "name": "October Bend RV Park",
        "tourism": "caravan_site",
        "osm_id": 3919171033,
        "sources": [
          "unknown"
        ]
      }
    },
    {
      "type": "Feature",
      "geometry": {
        "type": "Point",
        "coordinates": [
          -81.4913762,
          28.7176932
        ]
      },
      "properties": {
        "tourism": "camp_site",
        "osm_id": 3939729600,
        "sources": [
          "unknown"
        ]
      }
    },
    {
      "type": "Feature",
      "geometry": {
        "type": "Point",
        "coordinates": [
          -83.0633251,
          29.2089761
        ]
      },
      "properties": {
        "name": "Shell Mound Campground",
        "rating": null,
        "reviews_count": 0,
        "cost": 0,
        "amenities": [],
        "rig_friendly": [],
        "type": "established",
        "sources": [
          "unknown"
        ],
        "tourism": "caravan_site",
        "osm_id": 1167283050
      }
    },
    {
      "type": "Feature",
      "geometry": {
        "type": "Point",
        "coordinates": [
          -82.3138223,
          27.2445312
        ]
      },
      "properties": {
        "name": "OP27",
        "rating": null,
        "reviews_count": 0,
        "cost": 0,
        "amenities": [],
        "rig_friendly": [],
        "type": "established",
        "sources": [
          "unknown"
        ],
        "tourism": "camp_site",
        "osm_id": 321033621
      }
    },
    {
      "type": "Feature",
      "geometry": {
        "type": "Point",
        "coordinates": [
          -82.3133771,
          27.245404
        ]
      },
      "properties": {
        "name": "OP35",
        "rating": null,
        "reviews_count": 0,
        "cost": 0,
        "amenities": [],
        "rig_friendly": [],
        "type": "established",
        "sources": [
          "unknown"
        ],
        "tourism": "camp_site",
        "osm_id": 4016941756
      }
    },
    {
      "type": "Feature",
      "geometry": {
        "type": "Point",
        "coordinates": [
          -82.3148269,
          27.2448701
        ]
      },
      "properties": {
        "name": "PR49",
        "rating": null,
        "reviews_count": 0,
        "cost": 0,
        "amenities": [],
        "rig_friendly": [],
        "type": "established",
        "sources": [
          "unknown"
        ],
        "tourism": "camp_site",
        "osm_id": 4016948505
      }
    },
    {
      "type": "Feature",
      "geometry": {
        "type": "Point",
        "coordinates": [
          -82.314365,
          27.2457738
        ]
      },
      "properties": {
        "name": "PR58",
        "rating": null,
        "reviews_count": 0,
        "cost": 0,
        "amenities": [],
        "rig_friendly": [],
        "type": "established",
        "sources": [
          "unknown"
        ],
        "tourism": "camp_site",
        "osm_id": 4016948552
      }
    },
    {
      "type": "Feature",
      "geometry": {
        "type": "Point",
        "coordinates": [
          -82.3155092,
          27.245624
        ]
      },
      "properties": {
        "name": "PR64",
        "rating": null,
        "reviews_count": 0,
        "cost": 0,
        "amenities": [],
        "rig_friendly": [],
        "type": "established",
        "sources": [
          "unknown"
        ],
        "tourism": "camp_site",
        "osm_id": 321033622
      }
    },
    {
      "type": "Feature",
      "geometry": {
        "type": "Point",
        "coordinates": [
          -82.3160089,
          27.2464262
        ]
      },
      "properties": {
        "name": "PR73",
        "rating": null,
        "reviews_count": 0,
        "cost": 0,
        "amenities": [],
        "rig_friendly": [],
        "type": "established",
        "sources": [
          "unknown"
        ],
        "tourism": "camp_site",
        "osm_id": 4016948575
      }
    },
    {
      "type": "Feature",
      "geometry": {
        "type": "Point",
        "coordinates": [
          -82.3167274,
          27.2457005
        ]
      },
      "properties": {
        "name": "PR81",
        "tourism": "camp_site",
        "osm_id": 4016948496,
        "sources": [
          "unknown"
        ]
      }
    },
    {
      "type": "Feature",
      "geometry": {
        "type": "Point",
        "coordinates": [
          -82.9747415,
          29.4883368
        ]
      },
      "properties": {
        "name": "9",
        "rating": null,
        "reviews_count": 0,
        "cost": 0,
        "amenities": [],
        "rig_friendly": [],
        "type": "established",
        "sources": [
          "unknown"
        ],
        "tourism": "camp_site",
        "osm_id": 401663416
      }
    },
    {
      "type": "Feature",
      "geometry": {
        "type": "Point",
        "coordinates": [
          -82.9760783,
          29.4860422
        ]
      },
      "properties": {
        "name": "1",
        "rating": null,
        "reviews_count": 0,
        "cost": 0,
        "amenities": [],
        "rig_friendly": [],
        "type": "established",
        "sources": [
          "unknown"
        ],
        "tourism": "camp_site",
        "osm_id": 401663418
      }
    },
    {
      "type": "Feature",
      "geometry": {
        "type": "Point",
        "coordinates": [
          -81.3509926,
          27.9485397
        ]
      },
      "properties": {
        "backcountry": "no",
        "drinking_water": "yes",
        "sanitary_dump_station": "no",
        "tourism": "camp_site",
        "osm_id": 4049644409,
        "sources": [
          "unknown"
        ]
      }
    },
    {
      "type": "Feature",
      "geometry": {
        "type": "Point",
        "coordinates": [
          -81.3793099,
          27.9550705
        ]
      },
      "properties": {
        "backcountry": "yes",
        "capacity": "12",
        "drinking_water": "no",
        "internet_access": "no",
        "name": "Fallen Oak Campsite",
        "sanitary_dump_station": "no",
        "tents": "yes",
        "tourism": "camp_site",
        "osm_id": 4053977577,
        "sources": [
          "unknown"
        ]
      }
    },
    {
      "type": "Feature",
      "geometry": {
        "type": "Point",
        "coordinates": [
          -81.3501586,
          27.9466377
        ]
      },
      "properties": {
        "backcountry": "no",
        "drinking_water": "yes",
        "sanitary_dump_station": "no",
        "tourism": "camp_site",
        "osm_id": 4055684711,
        "sources": [
          "unknown"
        ]
      }
    },
    {
      "type": "Feature",
      "geometry": {
        "type": "Point",
        "coordinates": [
          -81.3472927,
          27.9449874
        ]
      },
      "properties": {
        "rating": null,
        "reviews_count": 0,
        "cost": 0,
        "amenities": [],
        "rig_friendly": [],
        "type": "established",
        "sources": [
          "unknown"
        ],
        "tourism": "camp_site",
        "osm_id": 4055754686
      }
    },
    {
      "type": "Feature",
      "geometry": {
        "type": "Point",
        "coordinates": [
          -85.2243304,
          30.8056004
        ]
      },
      "properties": {
        "rating": null,
        "reviews_count": 0,
        "cost": 0,
        "amenities": [],
        "rig_friendly": [],
        "type": "established",
        "sources": [
          "unknown"
        ],
        "tourism": "caravan_site",
        "osm_id": 4068280850
      }
    },
    {
      "type": "Feature",
      "geometry": {
        "type": "Point",
        "coordinates": [
          -85.2223135,
          30.8131015
        ]
      },
      "properties": {
        "name": "Youth Camp",
        "tourism": "camp_site",
        "osm_id": 4067138386,
        "sources": [
          "unknown"
        ]
      }
    },
    {
      "type": "Feature",
      "geometry": {
        "type": "Point",
        "coordinates": [
          -81.0437268,
          29.0982427
        ]
      },
      "properties": {
        "name": "Girls SummerCamp",
        "tourism": "camp_site",
        "osm_id": 4267517889,
        "sources": [
          "unknown"
        ]
      }
    },
    {
      "type": "Feature",
      "geometry": {
        "type": "Point",
        "coordinates": [
          -82.4383659,
          29.3974295
        ]
      },
      "properties": {
        "addr:city": "Williston",
        "addr:country": "US",
        "addr:housenumber": "410",
        "addr:postcode": "32696",
        "addr:state": "FL",
        "addr:street": "Northeast 5th Street",
        "email": "info@willistoncrossingrv.com",
        "fee": "yes",
        "internet_access": "wlan",
        "name": "Williston Crossings",
        "phone": "+1-352-528-7100",
        "power_supply": "yes",
        "sanitary_dump_station": "customers",
        "stars": "5",
        "tourism": "caravan_site",
        "website": "http://willistioncrossingrv.com",
        "osm_id": 4340532110,
        "sources": [
          "unknown"
        ]
      }
    },
    {
      "type": "Feature",
      "geometry": {
        "type": "Point",
        "coordinates": [
          -81.1387439,
          28.7902306
        ]
      },
      "properties": {
        "name": "Mullet Lake Boat Ramp",
        "tourism": "camp_site",
        "osm_id": 4377349893,
        "sources": [
          "unknown"
        ]
      }
    },
    {
      "type": "Feature",
      "geometry": {
        "type": "Point",
        "coordinates": [
          -81.4353277,
          29.4231174
        ]
      },
      "properties": {
        "name": "Fish camp",
        "tourism": "camp_site",
        "osm_id": 4382402801,
        "sources": [
          "unknown"
        ]
      }
    },
    {
      "type": "Feature",
      "geometry": {
        "type": "Point",
        "coordinates": [
          -83.594622,
          29.8252025
        ]
      },
      "properties": {
        "rating": null,
        "reviews_count": 0,
        "cost": 0,
        "amenities": [],
        "rig_friendly": [],
        "type": "established",
        "sources": [
          "unknown"
        ],
        "tourism": "caravan_site",
        "osm_id": 1097495920
      }
    },
    {
      "type": "Feature",
      "geometry": {
        "type": "Point",
        "coordinates": [
          -80.9273658,
          28.1067563
        ]
      },
      "properties": {
        "backcountry": "yes",
        "camp_site": "basic",
        "name": "Jane Green",
        "tourism": "camp_site",
        "osm_id": 4473716866,
        "sources": [
          "unknown"
        ]
      }
    },
    {
      "type": "Feature",
      "geometry": {
        "type": "Point",
        "coordinates": [
          -80.9485187,
          28.0060662
        ]
      },
      "properties": {
        "backcountry": "yes",
        "camp_site": "basic",
        "name": "Little Scrub",
        "tourism": "camp_site",
        "osm_id": 4473716867,
        "sources": [
          "unknown"
        ]
      }
    },
    {
      "type": "Feature",
      "geometry": {
        "type": "Point",
        "coordinates": [
          -82.0428333,
          29.8314658
        ]
      },