{
  "type": "FeatureCollection",
  "features": [
    {
      "type": "Feature",
      "geometry": {
        "type": "Point",
        "coordinates": [
          -70.626142,
          43.1571953
        ]
      },
      "properties": {
        "name": "Flagg's Trailer Park",
        "rating": null,
        "reviews_count": 0,
        "cost": 0,
        "amenities": [],
        "rig_friendly": [],
        "type": "established",
        "sources": [
          "Live near the park"
        ],
        "tourism": "camp_site",
        "osm_id": 7549048664
      }
    },
    {
      "type": "Feature",
      "geometry": {
        "type": "Point",
        "coordinates": [
          -70.6119345,
          43.1698377
        ]
      },
      "properties": {
        "ele": "6",
        "gnis:feature_id": "1911242",
        "name": "Wayside Trailer Park",
        "tourism": "caravan_site",
        "osm_id": 158843541,
        "sources": [
          "unknown"
        ]
      }
    },
    {
      "type": "Feature",
      "geometry": {
        "type": "Point",
        "coordinates": [
          -72.2679119,
          44.286707
        ]
      },
      "properties": {
        "ele": "343",
        "gnis:feature_id": "1919441",
        "name": "Big Deer Recreation Area",
        "tourism": "camp_site",
        "osm_id": 356556614,
        "sources": [
          "unknown"
        ]
      }
    },
    {
      "type": "Feature",
      "geometry": {
        "type": "Point",
        "coordinates": [
          -72.2626587,
          43.72554
        ]
      },
      "properties": {
        "name": "Campsite 15",
        "rating": null,
        "reviews_count": 0,
        "cost": 0,
        "amenities": [],
        "rig_friendly": [],
        "type": "established",
        "sources": [
          "unknown"
        ],
        "tourism": "camp_site",
        "osm_id": 4582218479
      }
    },
    {
      "type": "Feature",
      "geometry": {
        "type": "Point",
        "coordinates": [
          -71.2667457,
          44.3055022
        ]
      },
      "properties": {
        "tents": "yes",
        "tourism": "camp_site",
        "osm_id": 655433532,
        "sources": [
          "unknown"
        ]
      }
    },
    {
      "type": "Feature",
      "geometry": {
        "type": "Point",
        "coordinates": [
          -71.1070973,
          44.3800776
        ]
      },
      "properties": {
        "tourism": "camp_site",
        "osm_id": 789149912,
        "sources": [
          "unknown"
        ]
      }
    },
    {
      "type": "Feature",
      "geometry": {
        "type": "Point",
        "coordinates": [
          -71.3899278,
          44.5282698
        ]
      },
      "properties": {
        "name": "Unknown Pond Campsite",
        "tourism": "camp_site",
        "osm_id": 790660901,
        "sources": [
          "unknown"
        ]
      }
    },
    {
      "type": "Feature",
      "geometry": {
        "type": "Point",
        "coordinates": [
          -71.3637615,
          44.544868
        ]
      },
      "properties": {
        "name": "Rogers Ledge Campsite",
        "tourism": "camp_site",
        "osm_id": 790661039,
        "sources": [
          "unknown"
        ]
      }
    },
    {
      "type": "Feature",
      "geometry": {
        "type": "Point",
        "coordinates": [
          -72.392955,
          45.227134
        ]
      },
      "properties": {
        "backcountry": "yes",
        "description:fr": "Réservations auprès des Sentiers de l'Estrie (tél. 819-864-6314). Il est interdit de camper ailleurs dans la zone.",
        "name": "Camping rustique ~ Mont Foster",
        "name:alt": "Bolton ~ Camping rustique ~ C ~ Mont Foster",
        "operator": "Les Sentiers de l'Estrie inc.",
        "ref": "Camping Mont Foster",
        "source": "SE, Gilles Turgeon, Estimé",
        "tents": "yes",
        "tourism": "camp_site",
        "osm_id": 1013900388,
        "sources": [
          "SE, Gilles Turgeon, Estimé"
        ]
      }
    },
    {
      "type": "Feature",
      "geometry": {
        "type": "Point",
        "coordinates": [
          -72.5651506,
          45.0417199
        ]
      },
      "properties": {
        "addr:city": "Glen Sutton",
        "addr:housenumber": "169",
        "addr:postcode": "J0E 2K0",
        "addr:province": "QC",
        "addr:street": "Chemin Staines",
        "hiking": "yes",
        "name": "Au Diable Vert",
        "network": "nwn",
        "tourism": "camp_site",
        "website": "http://audiablevert.ca/",
        "osm_id": 1013904379,
        "sources": [
          "unknown"
        ]
      }
    },
    {
      "type": "Feature",
      "geometry": {
        "type": "Point",
        "coordinates": [
          -72.474246,
          45.126262
        ]
      },
      "properties": {
        "description:fr": "Réservations auprès des Sentiers de l'Estrie (tél. 819-864-6314). Il est interdit de camper ailleurs dans la zone.",
        "name": "Camping rustique de l'Etang-aux-Castors",
        "name:alt": "Écho ~ Camping rustique ~ C ~ Camping de l'Etang-aux-Castors",
        "operator": "Les Sentiers de l'Estrie inc.",
        "ref": "Camping Etang-aux-Castors",
        "source": "SE, Yvan Guay, GPS",
        "tents": "yes",
        "tourism": "camp_site",
        "osm_id": 1013905595,
        "sources": [
          "SE, Yvan Guay, GPS"
        ]
      }
    },
    {
      "type": "Feature",
      "geometry": {
        "type": "Point",
        "coordinates": [
          -72.407083,
          45.155972
        ]
      },
      "properties": {
        "description:fr": "Réservations auprès des Sentiers de l'Estrie (tél. 819-864-6314). Il est interdit de camper ailleurs dans la zone.",
        "name": "Camping rustique Westfield",
        "name:alt": "Écho ~ Camping rustique ~ C ~ Camping Westfield",
        "operator": "Les Sentiers de l'Estrie inc.",
        "ref": "Camping rustique Westfield",
        "source": "SE, Marcel Grenier, GPS",
        "tents": "yes",
        "tourism": "camp_site",
        "osm_id": 1013905663,
        "sources": [
          "SE, Marcel Grenier, GPS"
        ]
      }
    },
    {
      "type": "Feature",
      "geometry": {
        "type": "Point",
        "coordinates": [
          -72.0629846,
          42.8634969
        ]
      },
      "properties": {
        "name": "Mt Monadnock State Park Campground",
        "tourism": "camp_site",
        "osm_id": 1305717713,
        "sources": [
          "unknown"
        ]
      }
    },
    {
      "type": "Feature",
      "geometry": {
        "type": "Point",
        "coordinates": [
          -71.5948594,
          44.1652241
        ]
      },
      "properties": {
        "fee": "yes",
        "maxtents": "10",
        "name": "Thirteen Falls",
        "operator": "AMC",
        "tents": "yes",
        "tourism": "camp_site",
        "osm_id": 1348551789,
        "sources": [
          "unknown"
        ]
      }
    },
    {
      "type": "Feature",
      "geometry": {
        "type": "Point",
        "coordinates": [
          -71.3700502,
          44.2191069
        ]
      },
      "properties": {
        "fee": "yes",
        "name": "Naumann Tentsite",
        "tourism": "camp_site",
        "osm_id": 1351418027,
        "sources": [
          "unknown"
        ]
      }
    },
    {
      "type": "Feature",
      "geometry": {
        "type": "Point",
        "coordinates": [
          -71.2932941,
          44.2998419
        ]
      },
      "properties": {
        "tents": "yes",
        "tourism": "camp_site",
        "osm_id": 1438002631,
        "sources": [
          "unknown"
        ]
      }
    },
    {
      "type": "Feature",
      "geometry": {
        "type": "Point",
        "coordinates": [
          -72.5241373,
          44.6276645
        ]
      },
      "properties": {
        "name": "Campsite 29",
        "rating": null,
        "reviews_count": 0,
        "cost": 0,
        "amenities": [],
        "rig_friendly": [],
        "type": "established",
        "sources": [
          "unknown"
        ],
        "tourism": "camp_site",
        "osm_id": 10243632774
      }
    },
    {
      "type": "Feature",
      "geometry": {
        "type": "Point",
        "coordinates": [
          -72.5190549,
          44.631005
        ]
      },
      "properties": {
        "name": "Campsite 32",
        "rating": null,
        "reviews_count": 0,
        "cost": 0,
        "amenities": [],
        "rig_friendly": [],
        "type": "established",
        "sources": [
          "unknown"
        ],
        "tourism": "camp_site",
        "osm_id": 12954752493
      }
    },
    {
      "type": "Feature",
      "geometry": {
        "type": "Point",
        "coordinates": [
          -72.5255766,
          44.6356892
        ]
      },
      "properties": {
        "backcountry": "yes",
        "capacity:persons": "4",
        "caravans": "no",
        "name": "Campsite 23",
        "static_caravans": "no",
        "tents": "yes",
        "tourism": "camp_site",
        "osm_id": 1596693623,
        "sources": [
          "unknown"
        ]
      }
    },
    {
      "type": "Feature",
      "geometry": {
        "type": "Point",
        "coordinates": [
          -71.2538663,
          44.3088285
        ]
      },
      "properties": {
        "name": "Osgood Tentsite",
        "tents": "yes",
        "tourism": "camp_site",
        "osm_id": 1785428344,
        "sources": [
          "unknown"
        ]
      }
    },
    {
      "type": "Feature",
      "geometry": {
        "type": "Point",
        "coordinates": [
          -71.0102256,
          43.4581461
        ]
      },
      "properties": {
        "tourism": "camp_site",
        "osm_id": 1866720908,
        "sources": [
          "unknown"
        ]
      }
    },
    {
      "type": "Feature",
      "geometry": {
        "type": "Point",
        "coordinates": [
          -71.6467217,
          44.1175449
        ]
      },
      "properties": {
        "camp_site": "basic",
        "fee": "yes",
        "name": "Liberty Spring Tentsite",
        "operator": "AMC",
        "tents": "yes",
        "tourism": "camp_site",
        "osm_id": 1880265250,
        "sources": [
          "unknown"
        ]
      }
    },
    {
      "type": "Feature",
      "geometry": {
        "type": "Point",
        "coordinates": [
          -71.2872377,
          44.3345505
        ]
      },
      "properties": {
        "name": "Valley Way Campsite",
        "operator": "White Mountain National Forest",
        "tourism": "camp_site",
        "osm_id": 2078194701,
        "sources": [
          "unknown"
        ]
      }
    },
    {
      "type": "Feature",
      "geometry": {
        "type": "Point",
        "coordinates": [
          -71.1805669,
          43.1816843
        ]
      },
      "properties": {
        "name": "Saddleback Campground",
        "tourism": "caravan_site",
        "osm_id": 2288160631,
        "sources": [
          "unknown"
        ]
      }
    },
    {
      "type": "Feature",
      "geometry": {
        "type": "Point",
        "coordinates": [
          -72.5237478,
          44.637937
        ]
      },
      "properties": {
        "backcountry": "yes",
        "capacity:persons": "12",
        "caravans": "no",
        "name": "Group Campsite 16",
        "static_caravans": "no",
        "tents": "yes",
        "tourism": "camp_site",
        "osm_id": 2454564665,
        "sources": [
          "unknown"
        ]
      }
    },
    {
      "type": "Feature",
      "geometry": {
        "type": "Point",
        "coordinates": [
          -72.5141698,
          44.6400517
        ]
      },
      "properties": {
        "backcountry": "yes",
        "capacity:persons": "12",
        "caravans": "no",
        "name": "Group Campsite 10/11",
        "static_caravans": "no",
        "tents": "yes",
        "tourism": "camp_site",
        "osm_id": 2454564701,
        "sources": [
          "unknown"
        ]
      }
    },
    {
      "type": "Feature",
      "geometry": {
        "type": "Point",
        "coordinates": [
          -71.6271405,
          44.22649
        ]
      },
      "properties": {
        "fee": "no",
        "tourism": "camp_site",
        "osm_id": 2491481282,
        "sources": [
          "unknown"
        ]
      }
    },
    {
      "type": "Feature",
      "geometry": {
        "type": "Point",
        "coordinates": [
          -71.6157267,
          44.2266385
        ]
      },
      "properties": {
        "fee": "no",
        "tourism": "camp_site",
        "osm_id": 2491481285,
        "sources": [
          "unknown"
        ]
      }
    },
    {
      "type": "Feature",
      "geometry": {
        "type": "Point",
        "coordinates": [
          -71.6224546,
          44.226982
        ]
      },
      "properties": {
        "fee": "no",
        "tourism": "camp_site",
        "osm_id": 2491481288,
        "sources": [
          "unknown"
        ]
      }
    },
    {
      "type": "Feature",
      "geometry": {
        "type": "Point",
        "coordinates": [
          -71.6290363,
          44.2286403
        ]
      },
      "properties": {
        "fee": "no",
        "tourism": "camp_site",
        "osm_id": 2491481290,
        "sources": [
          "unknown"
        ]
      }
    },
    {
      "type": "Feature",
      "geometry": {
        "type": "Point",
        "coordinates": [
          -71.6128693,
          44.2306279
        ]
      },
      "properties": {
        "fee": "no",
        "tourism": "camp_site",
        "osm_id": 2491481292,
        "sources": [
          "unknown"
        ]
      }
    },
    {
      "type": "Feature",
      "geometry": {
        "type": "Point",
        "coordinates": [
          -71.610752,
          44.2331446
        ]
      },
      "properties": {
        "fee": "no",
        "tourism": "camp_site",
        "osm_id": 2491481295,
        "sources": [
          "unknown"
        ]
      }
    },
    {
      "type": "Feature",
      "geometry": {
        "type": "Point",
        "coordinates": [
          -71.6058281,
          44.2341677
        ]
      },
      "properties": {
        "fee": "no",
        "tourism": "camp_site",
        "osm_id": 2491481297,
        "sources": [
          "unknown"
        ]
      }
    },
    {
      "type": "Feature",
      "geometry": {
        "type": "Point",
        "coordinates": [
          -71.6075843,
          44.2353672
        ]
      },
      "properties": {
        "fee": "no",
        "tourism": "camp_site",
        "osm_id": 2491481300,
        "sources": [
          "unknown"
        ]
      }
    },
    {
      "type": "Feature",
      "geometry": {
        "type": "Point",
        "coordinates": [
          -71.6184334,
          44.2397769
        ]
      },
      "properties": {
        "fee": "no",
        "tourism": "camp_site",
        "osm_id": 2491481304,
        "sources": [
          "unknown"
        ]
      }
    },
    {
      "type": "Feature",
      "geometry": {
        "type": "Point",
        "coordinates": [
          -71.6201075,
          44.2400592
        ]
      },
      "properties": {
        "fee": "no",
        "tourism": "camp_site",
        "osm_id": 2491481306,
        "sources": [
          "unknown"
        ]
      }
    },
    {
      "type": "Feature",
      "geometry": {
        "type": "Point",
        "coordinates": [
          -71.2487542,
          42.841764
        ]
      },
      "properties": {
        "capacity": "5",
        "name": "Windham Town Forest Tent Platforms",
        "operator": "Windham Conservation Commission",
        "source": "local knowledge",
        "tourism": "camp_site",
        "osm_id": 2784167910,
        "sources": [
          "local knowledge"
        ]
      }
    },
    {
      "type": "Feature",
      "geometry": {
        "type": "Point",
        "coordinates": [
          -70.7209884,
          44.9389139
        ]
      },
      "properties": {
        "name": "Rangeley Lake Campground",
        "tourism": "camp_site",
        "osm_id": 2847824908,
        "sources": [
          "unknown"
        ]
      }
    },
    {
      "type": "Feature",
      "geometry": {
        "type": "Point",
        "coordinates": [
          -71.7319815,
          44.216626
        ]
      },
      "properties": {
        "addr:city": "Franconia",
        "addr:housenumber": "974",
        "addr:postcode": "03580",
        "addr:street": "Profile Road",
        "name": "Fransted campground",
        "tourism": "camp_site",
        "website": "https://franstedcampground.com/",
        "osm_id": 2951824092,
        "sources": [
          "unknown"
        ]
      }
    },
    {
      "type": "Feature",
      "geometry": {
        "type": "Point",
        "coordinates": [
          -70.7969095,
          44.4183366
        ]
      },
      "properties": {
        "addr:city": "Bethel",
        "addr:housenumber": "121",
        "addr:postcode": "04217",
        "addr:state": "ME",
        "addr:street": "Mayville Road",
        "name": "Bethel Outdoor Adventures and Campground",
        "tourism": "camp_site",
        "website": "http://www.betheloutdooradventure.com",
        "osm_id": 2956661091,
        "sources": [
          "unknown"
        ]
      }
    },
    {
      "type": "Feature",
      "geometry": {
        "type": "Point",
        "coordinates": [
          -72.172132,
          43.3143213
        ]
      },
      "properties": {
        "name": "NorthStar Campground",
        "tourism": "camp_site",
        "osm_id": 2972447349,
        "sources": [
          "unknown"
        ]
      }
    },
    {
      "type": "Feature",
      "geometry": {
        "type": "Point",
        "coordinates": [
          -71.5451233,
          44.4689387
        ]
      },
      "properties": {
        "tourism": "camp_site",
        "osm_id": 3624161951,
        "sources": [
          "unknown"
        ]
      }
    },
    {
      "type": "Feature",
      "geometry": {
        "type": "Point",
        "coordinates": [
          -71.4852152,
          43.8285438
        ]
      },
      "properties": {
        "name": "Site #1",
        "rating": null,
        "reviews_count": 0,
        "cost": 0,
        "amenities": [],
        "rig_friendly": [],
        "type": "established",
        "sources": [
          "unknown"
        ],
        "tourism": "camp_site",
        "osm_id": 3744288298
      }
    },
    {
      "type": "Feature",
      "geometry": {
        "type": "Point",
        "coordinates": [
          -71.8824321,
          43.6382058
        ]
      },
      "properties": {
        "capacity": "24",
        "name": "Clark Brook Campsite",
        "operator": "Appalachian Mountain Club",
        "tourism": "camp_site",
        "osm_id": 3760837678,
        "sources": [
          "unknown"
        ]
      }
    },
    {
      "type": "Feature",
      "geometry": {
        "type": "Point",
        "coordinates": [
          -72.24843,
          42.719393
        ]
      },
      "properties": {
        "internet_access": "no",
        "internet_access:fee": "no",
        "name": "Falls Brook Shelter",
        "sanitary_dump_station": "no",
        "tourism": "camp_site",
        "wheelchair": "no",
        "osm_id": 3800670935,
        "sources": [
          "unknown"
        ]
      }
    },
    {
      "type": "Feature",
      "geometry": {
        "type": "Point",
        "coordinates": [
          -70.9000513,
          43.5562383
        ]
      },
      "properties": {
        "tourism": "camp_site",
        "osm_id": 3897517228,
        "sources": [
          "unknown"
        ]
      }
    },
    {
      "type": "Feature",
      "geometry": {
        "type": "Point",
        "coordinates": [
          -71.756669,
          44.3456977
        ]
      },
      "properties": {
        "addr:city": "Littleton",
        "addr:housenumber": "911",
        "addr:postcode": "03561",
        "addr:state": "NH",
        "addr:street": "Broomstick Hill Road",
        "name": "Boy Scout's of America",
        "tourism": "camp_site",
        "osm_id": 3987139338,
        "sources": [
          "unknown"
        ]
      }
    },
    {
      "type": "Feature",
      "geometry": {
        "type": "Point",
        "coordinates": [
          -71.5494833,
          43.7265806
        ]
      },
      "properties": {
        "name": "Camp Deerwood",
        "tourism": "camp_site",
        "osm_id": 4307751402,
        "sources": [
          "unknown"
        ]
      }
    },
    {
      "type": "Feature",
      "geometry": {
        "type": "Point",
        "coordinates": [
          -71.5329535,
          43.7386191
        ]
      },
      "properties": {
        "name": "Bowman #1",
        "rating": null,
        "reviews_count": 0,
        "cost": 0,
        "amenities": [],
        "rig_friendly": [],
        "type": "established",
        "sources": [
          "unknown"
        ],
        "tourism": "camp_site",
        "osm_id": 4310066050
      }
    },
    {
      "type": "Feature",
      "geometry": {
        "type": "Point",
        "coordinates": [
          -71.5304693,
          43.7382446
        ]
      },
      "properties": {
        "capacity": "12",
        "name": "Bowman cabin",
        "operator": "Squam Lakes Association",
        "tourism": "camp_site",
        "osm_id": 4310072607,
        "sources": [
          "unknown"
        ]
      }
    },
    {
      "type": "Feature",
      "geometry": {
        "type": "Point",
        "coordinates": [
          -71.5349548,
          43.7415185
        ]
      },
      "properties": {
        "name": "Moon #1",
        "rating": null,
        "reviews_count": 0,
        "cost": 0,
        "amenities": [],
        "rig_friendly": [],
        "type": "established",
        "sources": [
          "unknown"
        ],
        "tourism": "camp_site",
        "osm_id": 4310085934
      }
    },
    {
      "type": "Feature",
      "geometry": {
        "type": "Point",
        "coordinates": [
          -71.5150009,
          43.7159473
        ]
      },
      "properties": {
        "name": "Wister #1",
        "rating": null,
        "reviews_count": 0,
        "cost": 0,
        "amenities": [],
        "rig_friendly": [],
        "type": "established",
        "sources": [
          "unknown"
        ],
        "tourism": "camp_site",
        "osm_id": 4310106946
      }
    },
    {
      "type": "Feature",
      "geometry": {
        "type": "Point",
        "coordinates": [
          -71.5108323,
          43.7148739
        ]
      },
      "properties": {
        "capacity": "6",
        "name": "Heron Cove",
        "operator": "Squam Lakes Association",
        "tourism": "camp_site",
        "osm_id": 4310106952,
        "sources": [
          "unknown"
        ]
      }
    },
    {
      "type": "Feature",
      "geometry": {
        "type": "Point",
        "coordinates": [
          -71.5387622,
          43.7183458
        ]
      },
      "properties": {
        "name": "Owl's Landing Campground",
        "tourism": "camp_site",
        "osm_id": 4310133067,
        "sources": [
          "unknown"
        ]
      }
    },
    {
      "type": "Feature",
      "geometry": {
        "type": "Point",
        "coordinates": [
          -71.8799245,
          43.6498955
        ]
      },
      "properties": {
        "rating": null,
        "reviews_count": 0,
        "cost": 0,
        "amenities": [],
        "rig_friendly": [],
        "type": "established",
        "sources": [
          "unknown"
        ],
        "tourism": "camp_site",
        "osm_id": 4331196352
      }
    },
    {
      "type": "Feature",
      "geometry": {
        "type": "Point",
        "coordinates": [
          -71.8813864,
          43.6489406
        ]
      },
      "properties": {
        "rating": null,
        "reviews_count": 0,
        "cost": 0,
        "amenities": [],
        "rig_friendly": [],
        "type": "established",
        "sources": [
          "unknown"
        ],
        "tourism": "camp_site",
        "osm_id": 4331196355
      }
    },
    {
      "type": "Feature",
      "geometry": {
        "type": "Point",
        "coordinates": [
          -71.881794,
          43.6498936
        ]
      },
      "properties": {
        "rating": null,
        "reviews_count": 0,
        "cost": 0,
        "amenities": [],
        "rig_friendly": [],
        "type": "established",
        "sources": [
          "unknown"
        ],
        "tourism": "camp_site",
        "osm_id": 4331196360
      }
    },
    {
      "type": "Feature",
      "geometry": {
        "type": "Point",
        "coordinates": [
          -71.8844441,
          43.6494744
        ]
      },
      "properties": {
        "tourism": "camp_site",
        "osm_id": 4331196361,
        "sources": [
          "unknown"
        ]
      }
    },
    {
      "type": "Feature",
      "geometry": {
        "type": "Point",
        "coordinates": [
          -71.2615316,
          42.7346035
        ]
      },
      "properties": {
        "backcountry": "yes",
        "tourism": "camp_site",
        "osm_id": 4333165632,
        "sources": [
          "unknown"
        ]
      }
    },
    {
      "type": "Feature",
      "geometry": {
        "type": "Point",
        "coordinates": [
          -72.1722219,
          45.1920943
        ]
      },
      "properties": {
        "rating": null,
        "reviews_count": 0,
        "cost": 0,
        "amenities": [],
        "rig_friendly": [],
        "type": "established",
        "sources": [
          "unknown"
        ],
        "tourism": "camp_site",
        "osm_id": 4357504546
      }
    },
    {
      "type": "Feature",
      "geometry": {
        "type": "Point",
        "coordinates": [
          -72.1733279,
          45.1904484
        ]
      },
      "properties": {
        "rating": null,
        "reviews_count": 0,
        "cost": 0,
        "amenities": [],
        "rig_friendly": [],
        "type": "established",
        "sources": [
          "unknown"
        ],
        "tourism": "camp_site",
        "osm_id": 4357504553
      }
    },
    {
      "type": "Feature",
      "geometry": {
        "type": "Point",
        "coordinates": [
          -72.1718399,
          45.1930065
        ]
      },
      "properties": {
        "tourism": "camp_site",
        "osm_id": 4357504549,
        "sources": [
          "unknown"
        ]
      }
    },
    {
      "type": "Feature",
      "geometry": {
        "type": "Point",
        "coordinates": [
          -72.1716118,
          45.1940123
        ]
      },
      "properties": {
        "rating": null,
        "reviews_count": 0,
        "cost": 0,
        "amenities": [],
        "rig_friendly": [],
        "type": "established",
        "sources": [
          "unknown"
        ],
        "tourism": "camp_site",
        "osm_id": 4357504551
      }
    },
    {
      "type": "Feature",
      "geometry": {
        "type": "Point",
        "coordinates": [
          -70.9167032,
          42.9473287
        ]
      },
      "properties": {
        "internet_access": "wlan",
        "name": "Wakeda campground",
        "tourism": "camp_site",
        "osm_id": 4358911035,
        "sources": [
          "unknown"
        ]
      }
    },
    {
      "type": "Feature",
      "geometry": {
        "type": "Point",
        "coordinates": [
          -71.0221221,
          44.2679399
        ]
      },
      "properties": {
        "name": "Basin Pond Campground",
        "operator": "White Mountains NF",
        "tourism": "camp_site",
        "osm_id": 4361842563,
        "sources": [
          "unknown"
        ]
      }
    },
    {
      "type": "Feature",
      "geometry": {
        "type": "Point",
        "coordinates": [
          -71.9746581,
          42.7493753
        ]
      },
      "properties": {
        "tourism": "camp_site",
        "osm_id": 4364593424,
        "sources": [
          "unknown"
        ]
      }
    },
    {
      "type": "Feature",
      "geometry": {
        "type": "Point",
        "coordinates": [
          -72.2083314,
          44.9480318
        ]
      },
      "properties": {
        "tourism": "camp_site",
        "osm_id": 4405258851,
        "sources": [
          "unknown"
        ]
      }
    },
    {
      "type": "Feature",
      "geometry": {
        "type": "Point",
        "coordinates": [
          -71.0680856,
          43.2856965
        ]
      },
      "properties": {
        "addr:housenumber": "79",
        "addr:postcode": "03884",
        "addr:street": "First Crown Point Road",
        "name": "KOA - Stratford / Lake Winnipesaukee South",
        "tourism": "camp_site",
        "osm_id": 4582611320,
        "sources": [
          "unknown"
        ]
      }
    },
    {
      "type": "Feature",
      "geometry": {
        "type": "Point",
        "coordinates": [
          -72.5185124,
          44.6387624
        ]
      },
      "properties": {
        "name": "Campsite 17",
        "rating": null,
        "reviews_count": 0,
        "cost": 0,
        "amenities": [],
        "rig_friendly": [],
        "type": "established",
        "sources": [
          "unknown"
        ],
        "tourism": "camp_site",
        "osm_id": 12954752494
      }
    },
    {
      "type": "Feature",
      "geometry": {
        "type": "Point",
        "coordinates": [
          -72.2157234,
          45.0243086
        ]
      },
      "properties": {
        "capacity": "25",
        "name": "Camping du parc Weir",
        "tourism": "camp_site",
        "osm_id": 4686870503,
        "sources": [
          "unknown"
        ]
      }
    },
    {
      "type": "Feature",
      "geometry": {
        "type": "Point",
        "coordinates": [
          -71.6869203,
          43.0493534
        ]
      },
      "properties": {
        "addr:city": "Weare",
        "addr:housenumber": "530",
        "addr:postcode": "03281",
        "addr:state": "NH",
        "addr:street": "South Stark Highway",
        "name": "Cold Spring RV",
        "phone": "+1-888-277-8948",
        "tourism": "caravan_site",
        "website": "https://coldspringsrv.com/",
        "osm_id": 4744312061,
        "sources": [
          "unknown"
        ]
      }
    },
    {
      "type": "Feature",
      "geometry": {
        "type": "Point",
        "coordinates": [
          -71.732516,
          44.1371141
        ]
      },
      "properties": {
        "backcountry": "yes",
        "name": "Kinsman Pond Tentsite",
        "tourism": "camp_site",
        "osm_id": 4800910364,
        "sources": [
          "unknown"
        ]
      }
    },
    {
      "type": "Feature",
      "geometry": {
        "type": "Point",
        "coordinates": [
          -72.1504513,
          43.1197049
        ]
      },
      "properties": {
        "name": "Fox Brook Tent Site",
        "tourism": "camp_site",
        "osm_id": 4986809511,
        "sources": [
          "unknown"
        ]
      }
    },
    {
      "type": "Feature",
      "geometry": {
        "type": "Point",
        "coordinates": [
          -72.5849968,
          45.0987462
        ]
      },
      "properties": {
        "addr:city": "Sutton",
        "addr:housenumber": "297",
        "addr:street": "Rue Maple",
        "name": "Huttopia Sutton",
        "tourism": "camp_site",
        "osm_id": 5093500695,
        "sources": [
          "unknown"
        ]
      }
    },
    {
      "type": "Feature",
      "geometry": {
        "type": "Point",
        "coordinates": [
          -71.0568884,
          44.2809393
        ]
      },
      "properties": {
        "name": "Blue Brook Tentsite",
        "tourism": "camp_site",
        "osm_id": 5281847913,
        "sources": [
          "unknown"
        ]
      }
    },
    {
      "type": "Feature",
      "geometry": {
        "type": "Point",
        "coordinates": [
          -72.0332023,
          44.0777815
        ]
      },
      "properties": {
        "name": "Harkdale Farm Campsite",
        "tourism": "camp_site",
        "osm_id": 5665128023,
        "sources": [
          "unknown"
        ]
      }
    },
    {
      "type": "Feature",
      "geometry": {
        "type": "Point",
        "coordinates": [
          -72.1226924,
          43.9969589
        ]
      },
      "properties": {
        "name": "Bugbee Landing Campsite",
        "tourism": "camp_site",
        "osm_id": 5665155023,
        "sources": [
          "unknown"
        ]
      }
    },
    {
      "type": "Feature",
      "geometry": {
        "type": "Point",
        "coordinates": [
          -72.0891207,
          43.9664566
        ]
      },
      "properties": {
        "name": "Underhill Campsite",
        "tourism": "camp_site",
        "osm_id": 5665244621,
        "sources": [
          "unknown"
        ]
      }
    },
    {
      "type": "Feature",
      "geometry": {
        "type": "Point",
        "coordinates": [
          -71.9328165,
          43.4904103
        ]
      },
      "properties": {
        "addr:city": "Wilmot",
        "addr:housenumber": "5",
        "addr:postcode": "03287",
        "addr:state": "NH",
        "addr:street": "Whites Pond Road",
        "email": "campwilmotdirector@gmail.com",
        "fee": "yes",
        "group_only": "yes",
        "impromptu": "no",
        "leisure": "summer_camp",
        "name": "Camp Wilmot",
        "phone": "+1-603-768-3350",
        "tourism": "camp_site",
        "website": "https://www.campwilmot.org/",
        "osm_id": 5667820442,
        "sources": [
          "unknown"
        ]
      }
    },
    {
      "type": "Feature",
      "geometry": {
        "type": "Point",
        "coordinates": [
          -70.8207312,
          42.8242637
        ]
      },
      "properties": {
        "name": "Salisbury State Park Reservation",
        "rating": null,
        "reviews_count": 0,
        "cost": 0,
        "amenities": [],
        "rig_friendly": [],
        "type": "established",
        "sources": [
          "unknown"
        ],
        "tourism": "camp_site",
        "osm_id": 224812622
      }
    },
    {
      "type": "Feature",
      "geometry": {
        "type": "Point",
        "coordinates": [
          -70.844843,
          42.930863
        ]
      },
      "properties": {
        "name": "Tidewater Campground",
        "rating": null,
        "reviews_count": 0,
        "cost": 0,
        "amenities": [],
        "rig_friendly": [],
        "type": "established",
        "sources": [
          "unknown"
        ],
        "tourism": "caravan_site",
        "osm_id": 5881587099
      }
    },
    {
      "type": "Feature",
      "geometry": {
        "type": "Point",
        "coordinates": [
          -71.1487256,
          43.0833242
        ]
      },
      "properties": {
        "backcountry": "yes",
        "name": "Remote Campsite",
        "ref": "R1",
        "tents": "yes",
        "tourism": "camp_site",
        "osm_id": 5789663053,
        "sources": [
          "unknown"
        ]
      }
    },
    {
      "type": "Feature",
      "geometry": {
        "type": "Point",
        "coordinates": [
          -71.215274,
          43.5353846
        ]
      },
      "properties": {
        "name": "Green Tops Campground",
        "tourism": "camp_site",
        "osm_id": 5809630014,
        "sources": [
          "unknown"
        ]
      }
    },
    {
      "type": "Feature",
      "geometry": {
        "type": "Point",
        "coordinates": [
          -72.2998897,
          42.8407154
        ]
      },
      "properties": {
        "name": "Swanzey Lake Camping Area",
        "tourism": "camp_site",
        "osm_id": 5844098685,
        "sources": [
          "unknown"
        ]
      }
    },
    {
      "type": "Feature",
      "geometry": {
        "type": "Point",
        "coordinates": [
          -72.3041385,
          42.8521693
        ]
      },
      "properties": {
        "name": "Pilgrim Pines Camping Area",
        "tourism": "camp_site",
        "osm_id": 5844098785,
        "sources": [
          "unknown"
        ]
      }
    },
    {
      "type": "Feature",
      "geometry": {
        "type": "Point",
        "coordinates": [
          -71.7721014,
          43.1894933
        ]
      },
      "properties": {
        "name": "Spacious Skies French Pond",
        "rating": null,
        "reviews_count": 0,
        "cost": 0,
        "amenities": [],
        "rig_friendly": [],
        "type": "established",
        "sources": [
          "unknown"
        ],
        "tourism": "camp_site",
        "osm_id": 631441460
      }
    },
    {
      "type": "Feature",
      "geometry": {
        "type": "Point",
        "coordinates": [
          -71.5714912,
          44.1001182
        ]
      },
      "properties": {
        "name": "Franconia Brook Tentsite",
        "tourism": "camp_site",
        "osm_id": 6185263278,
        "sources": [
          "unknown"
        ]
      }
    },
    {
      "type": "Feature",
      "geometry": {
        "type": "Point",
        "coordinates": [
          -71.2436402,
          44.0070434
        ]
      },
      "properties": {
        "charge": "22 USD/night",
        "fee": "yes",
        "name": "Blackberry Crossing Campground",
        "note": "Reservations not accepted. All sites first-come, first-served.",
        "reservation": "no",
        "toilets": "vault",
        "tourism": "camp_site",
        "water": "Handpump",
        "osm_id": 6222079421,
        "sources": [
          "unknown"
        ]
      }
    },
    {
      "type": "Feature",
      "geometry": {
        "type": "Point",
        "coordinates": [
          -70.8658934,
          45.2741918
        ]
      },
      "properties": {
        "capacity": "2",
        "name": "Camping du Clearwater",
        "operator": "ZEC Louise-Gosford",
        "reservation": "required",
        "tourism": "camp_site",
        "website": "https://www.montgosford.com/infos",
        "osm_id": 6268798600,
        "sources": [
          "unknown"
        ]
      }
    },
    {
      "type": "Feature",
      "geometry": {
        "type": "Point",
        "coordinates": [
          -70.8511568,
          45.2998719
        ]
      },
      "properties": {
        "backcountry": "yes",
        "capacity": "2",
        "name": "Camping du Petit Gosford",
        "operator": "ZEC Louise-Gosford",
        "reservation": "required",
        "tourism": "camp_site",
        "website": "https://www.montgosford.com/infos",
        "osm_id": 6268798649,
        "sources": [
          "unknown"
        ]
      }
    },
    {
      "type": "Feature",
      "geometry": {
        "type": "Point",
        "coordinates": [
          -70.9060922,
          45.2916387
        ]
      },
      "properties": {
        "backcountry": "yes",
        "capacity": "3",
        "name": "Camping de la Rivière Arnold",
        "operator": "ZEC Louise-Gosford",
        "reservation": "required",
        "tourism": "camp_site",
        "website": "https://www.montgosford.com/infos",
        "osm_id": 6268798650,
        "sources": [
          "unknown"
        ]
      }
    },
    {
      "type": "Feature",
      "geometry": {
        "type": "Point",
        "coordinates": [
          -71.538364,
          44.2705297
        ]
      },
      "properties": {
        "addr:city": "Twin Mountain",
        "addr:housenumber": "100",
        "addr:postcode": "03595",
        "addr:state": "NH",
        "addr:street": "U.S. 302 East",
        "name": "Living Water Campground",
        "phone": "+1 603-846-5513",
        "tourism": "camp_site",
        "website": "http://livingwatercampground.com/",
        "osm_id": 6395307911,
        "sources": [
          "unknown"
        ]
      }
    },
    {
      "type": "Feature",
      "geometry": {
        "type": "Point",
        "coordinates": [
          -72.1623551,
          44.7485028
        ]
      },
      "properties": {
        "name": "Page",
        "name:en": "Pageant Park",
        "tourism": "camp_site",
        "osm_id": 6485703186,
        "sources": [
          "unknown"
        ]
      }
    },
    {
      "type": "Feature",
      "geometry": {
        "type": "Point",
        "coordinates": [
          -71.9579796,
          43.9219461
        ]
      },
      "properties": {
        "name": "Ore Hill Tentsite",
        "tourism": "camp_site",
        "osm_id": 6679960366,
        "sources": [
          "unknown"
        ]
      }
    },
    {
      "type": "Feature",
      "geometry": {
        "type": "Point",
        "coordinates": [
          -71.1366002,
          44.4423591
        ]
      },
      "properties": {
        "name": "Trident Col Tentsite",
        "tourism": "camp_site",
        "osm_id": 6866261318,
        "sources": [
          "unknown"
        ]
      }
    },
    {
      "type": "Feature",
      "geometry": {
        "type": "Point",
        "coordinates": [
          -71.7998566,
          45.1530279
        ]
      },
      "properties": {
        "name": "Secteur E",
        "rating": null,
        "reviews_count": 0,
        "cost": 0,
        "amenities": [],
        "rig_friendly": [],
        "type": "established",
        "sources": [
          "unknown"
        ],
        "tourism": "camp_site",
        "osm_id": 7067177688
      }
    },
    {
      "type": "Feature",
      "geometry": {
        "type": "Point",
        "coordinates": [
          -71.7952774,
          45.1457113
        ]
      },
      "properties": {
        "name": "Secteur P",
        "rating": null,
        "reviews_count": 0,
        "cost": 0,
        "amenities": [],
        "rig_friendly": [],
        "type": "established",
        "sources": [
          "unknown"
        ],
        "tourism": "camp_site",
        "osm_id": 9118767838
      }
    },
    {
      "type": "Feature",
      "geometry": {
        "type": "Point",
        "coordinates": [
          -71.8015758,
          45.1447754
        ]
      },
      "properties": {
        "name": "Secteur A",
        "operator": "Camping du parc des Gorges de Coaticook",
        "tourism": "camp_site",
        "osm_id": 7067177693,
        "sources": [
          "unknown"
        ]
      }
    },
    {
      "type": "Feature",
      "geometry": {
        "type": "Point",
        "coordinates": [
          -70.6450096,
          43.9951812
        ]
      },
      "properties": {
        "name": "Office/Recreation Hall",
        "rating": null,
        "reviews_count": 0,
        "cost": 0,
        "amenities": [],
        "rig_friendly": [],
        "type": "established",
        "sources": [
          "unknown"
        ],
        "tourism": "camp_site",
        "osm_id": 7173188814
      }
    },
    {
      "type": "Feature",
      "geometry": {
        "type": "Point",
        "coordinates": [
          -70.6326759,
          43.8810364
        ]
      },
      "properties": {
        "addr:city": "Sebago",
        "addr:housenumber": "686",
        "addr:postcode": "04029",
        "addr:state": "ME",
        "addr:street": "Sebago Road",
        "name": "Goodwins Lodge",
        "tourism": "camp_site",
        "osm_id": 7185054248,
        "sources": [
          "unknown"
        ]
      }
    },
    {
      "type": "Feature",
      "geometry": {
        "type": "Point",
        "coordinates": [
          -70.912021,
          43.541156
        ]
      },
      "properties": {
        "addr:city": "Acton",
        "addr:housenumber": "345",
        "addr:postcode": "04001",
        "addr:state": "ME",
        "addr:street": "H Road",
        "tourism": "camp_site",
        "osm_id": 7185104143,
        "sources": [
          "unknown"
        ]
      }
    },
    {
      "type": "Feature",
      "geometry": {
        "type": "Point",
        "coordinates": [
          -70.8683053,
          44.400108
        ]
      },
      "properties": {
        "addr:city": "Bethel",
        "addr:housenumber": "800",
        "addr:postcode": "04217",
        "addr:state": "ME",
        "addr:street": "West Bethel Road",
        "tourism": "camp_site",
        "osm_id": 7185222329,
        "sources": [
          "unknown"
        ]
      }
    },
    {
      "type": "Feature",
      "geometry": {
        "type": "Point",
        "coordinates": [
          -70.6941455,
          44.0870485
        ]
      },
      "properties": {
        "addr:city": "Bridgton",
        "addr:housenumber": "54",
        "addr:postcode": "04009",
        "addr:state": "ME",
        "addr:street": "Lakeside Pines Road",
        "tourism": "camp_site",
        "osm_id": 7215330781,
        "sources": [
          "unknown"
        ]
      }
    },
    {
      "type": "Feature",
      "geometry": {
        "type": "Point",
        "coordinates": [
          -70.6605812,
          44.0249325
        ]
      },
      "properties": {
        "addr:city": "Bridgton",
        "addr:housenumber": "11",
        "addr:postcode": "04009",
        "addr:state": "ME",
        "addr:street": "Camp Woodlands Road",
        "tourism": "camp_site",
        "osm_id": 7215333735,
        "sources": [
          "unknown"
        ]
      }
    },
    {
      "type": "Feature",
      "geometry": {
        "type": "Point",
        "coordinates": [
          -70.928498,
          43.1811758
        ]
      },
      "properties": {
        "name": "Old Stage Campground",
        "tourism": "camp_site",
        "osm_id": 7220730349,
        "sources": [
          "unknown"
        ]
      }
    },
    {
      "type": "Feature",
      "geometry": {
        "type": "Point",
        "coordinates": [
          -70.9487136,
          44.0631772
        ]
      },
      "properties": {
        "addr:city": "Fryeburg",
        "addr:housenumber": "2144",
        "addr:postcode": "04037",
        "addr:state": "ME",
        "addr:street": "Main Street",
        "tourism": "camp_site",
        "osm_id": 7367557474,
        "sources": [
          "unknown"
        ]
      }
    },
    {
      "type": "Feature",
      "geometry": {
        "type": "Point",
        "coordinates": [
          -70.9093296,
          44.0679209
        ]
      },
      "properties": {
        "addr:city": "Fryeburg",
        "addr:housenumber": "13 B11",
        "addr:postcode": "04037",
        "addr:state": "ME",
        "addr:street": "Lovell Road",
        "operator": "Fiddlehead Campground B11",
        "tourism": "camp_site",
        "osm_id": 7367558542,
        "sources": [
          "unknown"
        ]
      }
    },
    {
      "type": "Feature",
      "geometry": {
        "type": "Point",
        "coordinates": [
          -70.9109512,
          44.067286
        ]
      },
      "properties": {
        "addr:city": "Fryeburg",
        "addr:housenumber": "13 B10",
        "addr:postcode": "04037",
        "addr:state": "ME",
        "addr:street": "Lovell Road",
        "operator": "Fiddlehead Campground B11",
        "tourism": "camp_site",
        "osm_id": 7367558543,
        "sources": [
          "unknown"
        ]
      }
    },
    {
      "type": "Feature",
      "geometry": {
        "type": "Point",
        "coordinates": [
          -70.9149765,
          44.0678173
        ]
      },
      "properties": {
        "addr:city": "Fryeburg",
        "addr:housenumber": "13 B9",
        "addr:postcode": "04037",
        "addr:state": "ME",
        "addr:street": "Lovell Road",
        "name": "Fiddlehead Campground B9",
        "tourism": "camp_site",
        "osm_id": 7367558544,
        "sources": [
          "unknown"
        ]
      }
    },
    {
      "type": "Feature",
      "geometry": {
        "type": "Point",
        "coordinates": [
          -70.9149541,
          44.0663457
        ]
      },
      "properties": {
        "addr:city": "Fryeburg",
        "addr:housenumber": "13 B8",
        "addr:postcode": "04037",
        "addr:state": "ME",
        "addr:street": "Lovell Road",
        "operator": "Fiddlehead Campground",
        "tourism": "camp_site",
        "osm_id": 7367558545,
        "sources": [
          "unknown"
        ]
      }
    },
    {
      "type": "Feature",
      "geometry": {
        "type": "Point",
        "coordinates": [
          -70.9160556,
          44.0656564
        ]
      },
      "properties": {
        "addr:city": "Fryeburg",
        "addr:housenumber": "13 B7",
        "addr:postcode": "04037",
        "addr:state": "ME",
        "addr:street": "Lovell Road",
        "operator": "Fiddlehead Campground",
        "tourism": "camp_site",
        "osm_id": 7367558546,
        "sources": [
          "unknown"
        ]
      }
    },
    {
      "type": "Feature",
      "geometry": {
        "type": "Point",
        "coordinates": [
          -70.9208647,
          44.0668721
        ]
      },
      "properties": {
        "addr:city": "Fryeburg",
        "addr:housenumber": "13 B6",
        "addr:postcode": "04037",
        "addr:state": "ME",
        "addr:street": "Lovell Road",
        "operator": "Fiddlehead Campground",
        "tourism": "camp_site",
        "osm_id": 7367558547,
        "sources": [
          "unknown"
        ]
      }
    },
    {
      "type": "Feature",
      "geometry": {
        "type": "Point",
        "coordinates": [
          -70.9223449,
          44.0659244
        ]
      },
      "properties": {
        "addr:city": "Fryeburg",
        "addr:housenumber": "13 B5",
        "addr:postcode": "04037",
        "addr:state": "ME",
        "addr:street": "Lovell Road",
        "operator": "Fiddlehead Campground",
        "tourism": "camp_site",
        "osm_id": 7367558548,
        "sources": [
          "unknown"
        ]
      }
    },
    {
      "type": "Feature",
      "geometry": {
        "type": "Point",
        "coordinates": [
          -70.9253611,
          44.0642125
        ]
      },
      "properties": {
        "addr:city": "Fryeburg",
        "addr:housenumber": "13 B4",
        "addr:postcode": "04037",
        "addr:state": "ME",
        "addr:street": "Lovell Road",
        "operator": "Fiddlehead Campground",
        "tourism": "camp_site",
        "osm_id": 7367558549,
        "sources": [
          "unknown"
        ]
      }
    },
    {
      "type": "Feature",
      "geometry": {
        "type": "Point",
        "coordinates": [
          -70.9323299,
          44.0640678
        ]
      },
      "properties": {
        "addr:city": "Fryeburg",
        "addr:housenumber": "13 B3",
        "addr:postcode": "04037",
        "addr:state": "ME",
        "addr:street": "Lovell Road",
        "operator": "Fiddlehead Campground",
        "tourism": "camp_site",
        "osm_id": 7367558550,
        "sources": [
          "unknown"
        ]
      }
    },
    {
      "type": "Feature",
      "geometry": {
        "type": "Point",
        "coordinates": [
          -70.934465,
          44.0604258
        ]
      },
      "properties": {
        "addr:city": "Fryeburg",
        "addr:housenumber": "13 B2",
        "addr:postcode": "04037",
        "addr:state": "ME",
        "addr:street": "Lovell Road",
        "operator": "Fiddlehead Campground",
        "tourism": "camp_site",
        "osm_id": 7367558551,
        "sources": [
          "unknown"
        ]
      }
    },
    {
      "type": "Feature",
      "geometry": {
        "type": "Point",
        "coordinates": [
          -70.9388161,
          44.0573675
        ]
      },
      "properties": {
        "addr:city": "Fryeburg",
        "addr:housenumber": "13 B1",
        "addr:postcode": "04037",
        "addr:state": "ME",
        "addr:street": "Lovell Road",
        "operator": "Fiddlehead Campground",
        "tourism": "camp_site",
        "osm_id": 7367558552,
        "sources": [
          "unknown"
        ]
      }
    },
    {
      "type": "Feature",
      "geometry": {
        "type": "Point",
        "coordinates": [
          -70.9420355,
          44.0601803
        ]
      },
      "properties": {
        "name": "Fiddlehead Campground SHOWERS",
        "rating": null,
        "reviews_count": 0,
        "cost": 0,
        "amenities": [],
        "rig_friendly": [],
        "type": "established",
        "sources": [
          "unknown"
        ],
        "tourism": "camp_site",
        "osm_id": 7367558554
      }
    },
    {
      "type": "Feature",
      "geometry": {
        "type": "Point",
        "coordinates": [
          -70.9650087,
          44.9327089
        ]
      },
      "properties": {
        "addr:city": "Lincoln Plantation",
        "addr:housenumber": "4",
        "addr:postcode": "03579",
        "addr:state": "ME",
        "addr:street": "Balsam Road",
        "tourism": "camp_site",
        "osm_id": 7509061297,
        "sources": [
          "unknown"
        ]
      }
    },
    {
      "type": "Feature",
      "geometry": {
        "type": "Point",
        "coordinates": [
          -72.2656683,
          43.7342205
        ]
      },
      "properties": {
        "backcountry": "yes",
        "capacity": "12",
        "name": "Patchen's Point",
        "operator": "Vermont Department of Forest, Parks and Recreation",
        "tourism": "camp_site",
        "url": "https://www.connecticutriverpaddlerstrail.org/crpt7/node/5645",
        "osm_id": 7542067789,
        "sources": [
          "unknown"
        ]
      }
    },
    {
      "type": "Feature",
      "geometry": {
        "type": "Point",
        "coordinates": [
          -70.627694,
          43.1456584
        ]
      },
      "properties": {
        "addr:city": "York",
        "addr:housenumber": "750",
        "addr:postcode": "03909",
        "addr:state": "ME",
        "addr:street": "York Street",
        "operator": "Camp Eaton",
        "tourism": "camp_site",
        "osm_id": 7549047791,
        "sources": [
          "unknown"
        ]
      }
    },
    {
      "type": "Feature",
      "geometry": {
        "type": "Point",
        "coordinates": [
          -70.6121981,
          43.1750797
        ]
      },
      "properties": {
        "addr:city": "York",
        "addr:housenumber": "21",
        "addr:postcode": "03909",
        "addr:state": "ME",
        "addr:street": "Railroad Avenue",
        "tourism": "camp_site",
        "osm_id": 7549048292,
        "sources": [
          "unknown"
        ]
      }
    },
    {
      "type": "Feature",
      "geometry": {
        "type": "Point",
        "coordinates": [
          -70.6261337,
          43.1468737
        ]
      },
      "properties": {
        "rating": null,
        "reviews_count": 0,
        "cost": 0,
        "amenities": [],
        "rig_friendly": [],
        "type": "established",
        "sources": [
          "unknown"
        ],
        "tourism": "caravan_site",
        "osm_id": 752107304
      }
    },
    {
      "type": "Feature",
      "geometry": {
        "type": "Point",
        "coordinates": [
          -70.6442913,
          43.6029242
        ]
      },
      "properties": {
        "addr:city": "Hollis",
        "addr:housenumber": "690",
        "addr:postcode": "04042",
        "addr:state": "ME",
        "addr:street": "Deerwander Road",
        "tourism": "camp_site",
        "osm_id": 7549403038,
        "sources": [
          "unknown"
        ]
      }
    },
    {
      "type": "Feature",
      "geometry": {
        "type": "Point",
        "coordinates": [
          -70.8234724,
          44.3103239
        ]
      },
      "properties": {
        "tourism": "camp_site",
        "osm_id": 7666724154,
        "sources": [
          "unknown"
        ]
      }
    },
    {
      "type": "Feature",
      "geometry": {
        "type": "Point",
        "coordinates": [
          -71.0128495,
          44.2651647
        ]
      },
      "properties": {
        "name": "Cold River Campground",
        "tourism": "camp_site",
        "osm_id": 7666724155,
        "sources": [
          "unknown"
        ]
      }
    },
    {
      "type": "Feature",
      "geometry": {
        "type": "Point",
        "coordinates": [
          -70.9068797,
          44.2806079
        ]
      },
      "properties": {
        "tourism": "camp_site",
        "osm_id": 7692185012,
        "sources": [
          "unknown"
        ]
      }
    },
    {
      "type": "Feature",
      "geometry": {
        "type": "Point",
        "coordinates": [
          -71.4258355,
          44.6663799
        ]
      },
      "properties": {
        "backcountry": "yes",
        "name": "Percy Loop Tentsite",
        "tourism": "camp_site",
        "osm_id": 7741472197,
        "sources": [
          "unknown"
        ]
      }
    },
    {
      "type": "Feature",
      "geometry": {
        "type": "Point",
        "coordinates": [
          -71.0352396,
          44.7482473
        ]
      },
      "properties": {
        "name": "R23",
        "rating": null,
        "reviews_count": 0,
        "cost": 0,
        "amenities": [],
        "rig_friendly": [],
        "type": "established",
        "sources": [
          "unknown"
        ],
        "description": "Remote Site 23, A group site with a firepit and no tent platforms.",
        "tourism": "camp_site",
        "osm_id": 7990057087
      }
    },
    {
      "type": "Feature",
      "geometry": {
        "type": "Point",
        "coordinates": [
          -71.0386591,
          44.7603091
        ]
      },
      "properties": {
        "description": "Remote Site R26, Group Site.  Has firepit, two tent platforms.",
        "name": "R26",
        "operator": "Umbagog Lake State Park",
        "tourism": "camp_site",
        "osm_id": 7990031608,
        "sources": [
          "unknown"
        ]
      }
    },
    {
      "type": "Feature",
      "geometry": {
        "type": "Point",
        "coordinates": [
          -71.0592288,
          44.7595021
        ]
      },
      "properties": {
        "name": "R30",
        "operator": "Umbagog Lake State Park",
        "tourism": "camp_site",
        "osm_id": 7990052293,
        "sources": [
          "unknown"
        ]
      }
    },
    {
      "type": "Feature",
      "geometry": {
        "type": "Point",
        "coordinates": [
          -71.0442487,
          44.7391385
        ]
      },
      "properties": {
        "name": "R34",
        "rating": null,
        "reviews_count": 0,
        "cost": 0,
        "amenities": [],
        "rig_friendly": [],
        "type": "established",
        "sources": [
          "unknown"
        ],
        "tourism": "camp_site",
        "osm_id": 7990119597
      }
    },
    {
      "type": "Feature",
      "geometry": {
        "type": "Point",
        "coordinates": [
          -71.052388,
          44.7358727
        ]
      },
      "properties": {
        "name": "R32",
        "operator": "Umbagog Lake State Park",
        "tourism": "camp_site",
        "osm_id": 7990118061,
        "sources": [
          "unknown"
        ]
      }
    },
    {
      "type": "Feature",
      "geometry": {
        "type": "Point",
        "coordinates": [
          -71.028421,
          44.7463993
        ]
      },
      "properties": {
        "name": "R21",
        "operator": "Umbagog Lake State Park",
        "tourism": "camp_site",
        "osm_id": 7990118877,
        "sources": [
          "unknown"
        ]
      }
    },
    {
      "type": "Feature",
      "geometry": {
        "type": "Point",
        "coordinates": [
          -71.614996,
          43.2523992
        ]
      },
      "properties": {
        "access": "private",
        "name": "Camp Spaulding",
        "operator": "The YMCA",
        "tourism": "camp_site",
        "osm_id": 7993180902,
        "sources": [
          "unknown"
        ]
      }
    },
    {
      "type": "Feature",
      "geometry": {
        "type": "Point",
        "coordinates": [
          -70.8296079,
          44.5975304
        ]
      },
      "properties": {
        "access": "yes",
        "backcountry": "yes",
        "fee": "no",
        "name": "Town Corner Campsite",
        "openfire": "no",
        "operator": "Maine Appalachian Trail Club",
        "tourism": "camp_site",
        "water_source": "stream",
        "osm_id": 8008076838,
        "sources": [
          "unknown"
        ]
      }
    },
    {
      "type": "Feature",
      "geometry": {
        "type": "Point",
        "coordinates": [
          -70.8619111,
          44.5992053
        ]
      },
      "properties": {
        "access": "yes",
        "backcountry": "yes",
        "fee": "no",
        "name": "Lane Camp Site",
        "openfire": "no",
        "operator": "Maine Appalachian Trail Club",
        "tourism": "camp_site",
        "water_source": "stream",
        "osm_id": 8008093071,
        "sources": [
          "unknown"
        ]
      }
    },
    {
      "type": "Feature",
      "geometry": {
        "type": "Point",
        "coordinates": [
          -71.1913963,
          45.1911449
        ]
      },
      "properties": {
        "addr:city": "Pittsburg",
        "addr:housenumber": "5309",
        "addr:postcode": "03592",
        "addr:state": "NH",
        "addr:street": "North Main Street",
        "name": "Deer Mountain Campground",
        "phone": "+1-603-538-6965",
        "shower": "no",
        "toilets": "yes",
        "tourism": "camp_site",
        "website": "https://www.nhstateparks.org/visit/state-parks/deer-mountain-campground",
        "osm_id": 8177048237,
        "sources": [
          "unknown"
        ]
      }
    },
    {
      "type": "Feature",
      "geometry": {
        "type": "Point",
        "coordinates": [
          -72.0397001,
          43.8253439
        ]
      },
      "properties": {
        "backcountry": "yes",
        "capacity:tents": "2",
        "tents": "yes",
        "tourism": "camp_site",
        "osm_id": 8307445289,
        "sources": [
          "unknown"
        ]
      }
    },
    {
      "type": "Feature",
      "geometry": {
        "type": "Point",
        "coordinates": [
          -71.2321812,
          44.4021074
        ]
      },
      "properties": {
        "access": "customers",
        "addr:city": "Gorham",
        "addr:housenumber": "34",
        "addr:postcode": "03581",
        "addr:state": "NH",
        "addr:street": "Jimtown Road",
        "name": "Hub North",
        "phone": "+1-603-915-9010",
        "tourism": "camp_site",
        "website": "http://hubnorthnh.com/",
        "osm_id": 8515545988,
        "sources": [
          "unknown"
        ]
      }
    },
    {
      "type": "Feature",
      "geometry": {
        "type": "Point",
        "coordinates": [
          -71.2259032,
          44.4026225
        ]
      },
      "properties": {
        "group_only": "yes",
        "name": "Group Camping Area No. 1",
        "tourism": "camp_site",
        "osm_id": 8519006352,
        "sources": [
          "unknown"
        ]
      }
    },
    {
      "type": "Feature",
      "geometry": {
        "type": "Point",
        "coordinates": [
          -70.87523,
          44.5983743
        ]
      },
      "properties": {
        "access": "yes",
        "backcountry": "yes",
        "fee": "no",
        "name": "East Baldpate Campsite",
        "operator": "Maine Appalachian Trail Club",
        "tourism": "camp_site",
        "water_source": "stream",
        "osm_id": 8649044289,
        "sources": [
          "unknown"
        ]
      }
    },
    {
      "type": "Feature",
      "geometry": {
        "type": "Point",
        "coordinates": [
          -70.9434105,
          44.5597784
        ]
      },
      "properties": {
        "access": "yes",
        "alt_name": "Bull Brook Campsite",
        "backcountry": "yes",
        "capacity": "2",
        "fee": "no",
        "name": "Bull Run Campsite",
        "operator": "Appalachian Mountain Club",
        "tourism": "camp_site",
        "water_source": "stream",
        "osm_id": 8649065174,
        "sources": [
          "unknown"
        ]
      }
    },
    {
      "type": "Feature",
      "geometry": {
        "type": "Point",
        "coordinates": [
          -70.9319263,
          44.5522824
        ]
      },
      "properties": {
        "access": "yes",
        "backcountry": "yes",
        "capacity": "3",
        "fee": "no",
        "name": "Slide Campsite",
        "operator": "Appalachian Mountain Club",
        "tourism": "camp_site",
        "water_source": "stream",
        "osm_id": 8649065175,
        "sources": [
          "unknown"
        ]
      }
    },
    {
      "type": "Feature",
      "geometry": {
        "type": "Point",
        "coordinates": [
          -70.8920967,
          44.5375041
        ]
      },
      "properties": {
        "access": "yes",
        "backcountry": "yes",
        "capacity": "3",
        "fee": "no",
        "name": "Sargent Brook Campsite",
        "operator": "Appalachian Mountain Club",
        "tourism": "camp_site",
        "water_source": "stream",
        "osm_id": 8649081520,
        "sources": [
          "unknown"
        ]
      }
    },
    {
      "type": "Feature",
      "geometry": {
        "type": "Point",
        "coordinates": [
          -70.8461487,
          44.5260659
        ]
      },
      "properties": {
        "access": "yes",
        "backcountry": "yes",
        "capacity": "2",
        "fee": "no",
        "name": "Bald Mountain Campsite",
        "operator": "Appalachian Mountain Club",
        "tourism": "camp_site",
        "water_source": "stream",
        "osm_id": 8649084751,
        "sources": [
          "unknown"
        ]
      }
    },
    {
      "type": "Feature",
      "geometry": {
        "type": "Point",
        "coordinates": [
          -70.7218639,
          44.8349083
        ]
      },
      "properties": {
        "backcountry": "yes",
        "name": "Bemis Stream Campsite",
        "tents": "yes",
        "tourism": "camp_site",
        "osm_id": 8975370692,
        "sources": [
          "unknown"
        ]
      }
    },
    {
      "type": "Feature",
      "geometry": {
        "type": "Point",
        "coordinates": [
          -70.7861419,
          44.7208937
        ]
      },
      "properties": {
        "alt_name": "South Arm Road campsite",
        "backcountry": "yes",
        "name": "Black Brook campsite",
        "tents": "yes",
        "tourism": "camp_site",
        "osm_id": 8978209839,
        "sources": [
          "unknown"
        ]
      }
    },
    {
      "type": "Feature",
      "geometry": {
        "type": "Point",
        "coordinates": [
          -72.2342249,
          43.8290848
        ]
      },
      "properties": {
        "addr:city": "Thetford",
        "addr:housenumber": "325",
        "addr:postcode": "05045",
        "addr:state": "VT",
        "addr:street": "Mud Pond Road",
        "group_only": "yes",
        "ref:vcgi:esiteid": "259128",
        "source": "esri/USA_NAD_Addresses",
        "tourism": "camp_site",
        "osm_id": 9076968566,
        "sources": [
          "esri/USA_NAD_Addresses"
        ]
      }
    },
    {
      "type": "Feature",
      "geometry": {
        "type": "Point",
        "coordinates": [
          -72.5213377,
          45.1619357
        ]
      },
      "properties": {
        "addr:city": "Lac-Brome",
        "addr:housenumber": "20",
        "addr:street": "Chemin Auclair",
        "name": "Camping Rustique Débranché",
        "shower": "no",
        "tourism": "camp_site",
        "website": "http://campingrustiquedebranche.com/",
        "osm_id": 9242016020,
        "sources": [
          "unknown"
        ]
      }
    },
    {
      "type": "Feature",
      "geometry": {
        "type": "Point",
        "coordinates": [
          -71.9485284,
          44.5890276
        ]
      },
      "properties": {
        "addr:city": "Burke",
        "addr:housenumber": "201",
        "addr:state": "VT",
        "addr:street": "East Darling Hill Road",
        "capacity": "2",
        "name": "Camp Kiki",
        "ref:vcgi:esiteid": "335834",
        "tourism": "camp_site",
        "osm_id": 9429701003,
        "sources": [
          "unknown"
        ]
      }
    },
    {
      "type": "Feature",
      "geometry": {
        "type": "Point",
        "coordinates": [
          -71.9492475,
          44.5471171
        ]
      },
      "properties": {
        "addr:city": "Lyndon",
        "addr:housenumber": "341",
        "addr:street": "Town Farm Drive",
        "name": "Maple Brook Campground",
        "tourism": "camp_site",
        "osm_id": 9429759506,
        "sources": [
          "unknown"
        ]
      }
    },
    {
      "type": "Feature",
      "geometry": {
        "type": "Point",
        "coordinates": [
          -71.9784953,
          42.9841352
        ]
      },
      "properties": {
        "addr:city": "Hancock",
        "addr:housenumber": "24",
        "addr:postcode": "03449",
        "addr:state": "NH",
        "addr:street": "Longview Road",
        "description": "Folded into the lowland hills of the watershed of the navigable Merrimack River sits tranquil Spacious Skies Seven Maples.",
        "name": "Spacious Skies Campgrounds - Seven Maples",
        "opening_hours": "Mo-Fr 09:00-18:00",
        "phone": "+1-603-525-3321",
        "tourism": "camp_site",
        "website": "https://campatsevenmaples.com",
        "osm_id": 9580659199,
        "sources": [
          "unknown"
        ]
      }
    },
    {
      "type": "Feature",
      "geometry": {
        "type": "Point",
        "coordinates": [
          -71.2391044,
          43.2082825
        ]
      },
      "properties": {
        "name": "Boy Scouts Camp Wah-Tut-Ca",
        "tourism": "camp_site",
        "osm_id": 9854433394,
        "sources": [
          "unknown"
        ]
      }
    },
    {
      "type": "Feature",
      "geometry": {
        "type": "Point",
        "coordinates": [
          -71.1452327,
          44.2426197
        ]
      },
      "properties": {
        "backcountry": "yes",
        "name": "Perkins Notch Tentsite",
        "note": "Perkins Notch Shelter has been removed.",
        "tourism": "camp_site",
        "osm_id": 9927435672,
        "sources": [
          "unknown"
        ]
      }
    },
    {
      "type": "Feature",
      "geometry": {
        "type": "Point",
        "coordinates": [
          -71.4298738,
          45.1203466
        ]
      },
      "properties": {
        "backcountry": "yes",
        "tourism": "camp_site",
        "osm_id": 10184490881,
        "sources": [
          "unknown"
        ]
      }
    },
    {
      "type": "Feature",
      "geometry": {
        "type": "Point",
        "coordinates": [
          -72.5313506,
          44.6285616
        ]
      },
      "properties": {
        "backcountry": "yes",
        "caravans": "no",
        "name": "Overflow Campsite 26",
        "static_caravans": "no",
        "tents": "yes",
        "tourism": "camp_site",
        "osm_id": 10243591625,
        "sources": [
          "unknown"
        ]
      }
    },
    {
      "type": "Feature",
      "geometry": {
        "type": "Point",
        "coordinates": [
          -72.5177742,
          44.6201133
        ]
      },
      "properties": {
        "name": "Campsite 2",
        "rating": null,
        "reviews_count": 0,
        "cost": 0,
        "amenities": [],
        "rig_friendly": [],
        "type": "established",
        "sources": [
          "unknown"
        ],
        "tourism": "camp_site",
        "osm_id": 12954752486
      }
    },
    {
      "type": "Feature",
      "geometry": {
        "type": "Point",
        "coordinates": [
          -71.3454114,
          44.0852976
        ]
      },
      "properties": {
        "backcountry": "yes",
        "name": "Fourth Iron Campground",
        "tourism": "camp_site",
        "osm_id": 10289313274,
        "sources": [
          "unknown"
        ]
      }
    },
    {
      "type": "Feature",
      "geometry": {
        "type": "Point",
        "coordinates": [
          -71.6357218,
          43.9953576
        ]
      },
      "properties": {
        "name": "Tripoli Road Camping Area",
        "tourism": "camp_site",
        "osm_id": 10289542354,
        "sources": [
          "unknown"
        ]
      }
    },
    {
      "type": "Feature",
      "geometry": {
        "type": "Point",
        "coordinates": [
          -71.6253579,
          43.8715632
        ]
      },
      "properties": {
        "name": "Campton Group Campground",
        "rating": null,
        "reviews_count": 0,
        "cost": 0,
        "amenities": [],
        "rig_friendly": [],
        "type": "established",
        "sources": [
          "unknown"
        ],
        "tourism": "camp_site",
        "osm_id": 1125195193
      }
    },
    {
      "type": "Feature",
      "geometry": {
        "type": "Point",
        "coordinates": [
          -70.8317837,
          42.9822045
        ]
      },
      "properties": {
        "name": "Sea Coast Camping And RV Resort",
        "tourism": "caravan_site",
        "osm_id": 10652106704,
        "sources": [
          "unknown"
        ]
      }
    },
    {
      "type": "Feature",
      "geometry": {
        "type": "Point",
        "coordinates": [
          -70.9265864,
          43.0451896
        ]
      },
      "properties": {
        "caravans": "yes",
        "name": "Great Bay Camping",
        "reservation": "required",
        "sanitary_dump_station": "yes",
        "tents": "yes",
        "tourism": "camp_site",
        "website": "https://www.greatbaycamping.com",
        "osm_id": 10920437980,
        "sources": [
          "unknown"
        ]
      }
    },
    {
      "type": "Feature",
      "geometry": {
        "type": "Point",
        "coordinates": [
          -72.0249508,
          44.8412496
        ]
      },
      "properties": {
        "addr:housenumber": "466",
        "addr:street": "Center School Road",
        "name": "Clyde River Camping",
        "tourism": "camp_site",
        "website": "http://www.clyderivercamping.com/",
        "osm_id": 10972095448,
        "sources": [
          "unknown"
        ]
      }
    },
    {
      "type": "Feature",
      "geometry": {
        "type": "Point",
        "coordinates": [
          -72.0516,
          44.8755655
        ]
      },
      "properties": {
        "rating": null,
        "reviews_count": 0,
        "cost": 0,
        "amenities": [],
        "rig_friendly": [],
        "type": "established",
        "sources": [
          "unknown"
        ],
        "tourism": "caravan_site",
        "osm_id": 10975555608
      }
    },
    {
      "type": "Feature",
      "geometry": {
        "type": "Point",
        "coordinates": [
          -72.4060413,
          43.4379451
        ]
      },
      "properties": {
        "access": "yes",
        "addr:city": "Windsor",
        "addr:housenumber": "1826",
        "addr:state": "VT",
        "addr:street": "Back Mountain Road",
        "charge": "$28 USD per night for tent sites",
        "fee": "yes",
        "name": "Mt Ascutney State Park Campground",
        "operator": "VT State Parks",
        "phone": "+1 802-674-2060",
        "tourism": "camp_site",
        "website": "https://vtstateparks.com/ascutney.html",
        "osm_id": 10995214226,
        "sources": [
          "unknown"
        ]
      }
    },
    {
      "type": "Feature",
      "geometry": {
        "type": "Point",
        "coordinates": [
          -71.1103164,
          43.8320289
        ]
      },
      "properties": {
        "access": "no",
        "addr:city": "Freedom",
        "addr:housenumber": "196",
        "addr:postcode": "03836",
        "addr:state": "NH",
        "addr:street": "Old Shawtown Road",
        "caravans": "yes",
        "name": "Danforth Bay Camping & RV Resort",
        "tents": "yes",
        "tourism": "camp_site",
        "website": "https://www.danforthbay.com/",
        "osm_id": 11068048290,
        "sources": [
          "unknown"
        ]
      }
    },
    {
      "type": "Feature",
      "geometry": {
        "type": "Point",
        "coordinates": [
          -72.0652747,
          43.3283596
        ]
      },
      "properties": {
        "name": "Mt. Sunapee Campground",
        "tourism": "camp_site",
        "osm_id": 11068142246,
        "sources": [
          "unknown"
        ]
      }
    },
    {
      "type": "Feature",
      "geometry": {
        "type": "Point",
        "coordinates": [
          -71.5792301,
          44.2522991
        ]
      },
      "properties": {
        "access": "yes",
        "backcountry": "yes",
        "capacity:persons": "15",
        "caravans": "no",
        "description": "Max 3 cars",
        "name": "camping1",
        "tents": "yes",
        "tourism": "camp_site",
        "osm_id": 11133026533,
        "sources": [
          "unknown"
        ]
      }
    },
    {
      "type": "Feature",
      "geometry": {
        "type": "Point",
        "coordinates": [
          -71.3373186,
          44.1979754
        ]
      },
      "properties": {
        "tourism": "camp_site",
        "osm_id": 11154303205,
        "sources": [
          "unknown"
        ]
      }
    },
    {
      "type": "Feature",
      "geometry": {
        "type": "Point",
        "coordinates": [
          -71.0654603,
          42.9303221
        ]
      },
      "properties": {
        "tourism": "camp_site",
        "osm_id": 11191775938,
        "sources": [
          "unknown"
        ]
      }
    },
    {
      "type": "Feature",
      "geometry": {
        "type": "Point",
        "coordinates": [
          -70.9850227,
          44.7841173
        ]
      },
      "properties": {
        "backcountry": "yes",
        "caravans": "no",
        "fee": "yes",
        "name": "Cedar Stump Campsites",
        "operator": "Northern Waters",
        "picnic_table": "yes",
        "power_supply": "no",
        "shower": "no",
        "static_caravans": "no",
        "tents": "yes",
        "toilets": "yes",
        "tourism": "camp_site",
        "website": "https://beoutside.com/camping",
        "osm_id": 11203055133,
        "sources": [
          "unknown"
        ]
      }
    },
    {
      "type": "Feature",
      "geometry": {
        "type": "Point",
        "coordinates": [
          -72.0085175,
          44.4858315
        ]
      },
      "properties": {
        "access": "permissive",
        "caravans": "no",
        "name": "Pierce Mills Dam Tent Sites",
        "static_caravans": "no",
        "tents": "yes",
        "tourism": "camp_site",
        "osm_id": 11611298089,
        "sources": [
          "unknown"
        ]
      }
    },
    {
      "type": "Feature",
      "geometry": {
        "type": "Point",
        "coordinates": [
          -71.3834685,
          42.950113
        ]
      },
      "properties": {
        "contact:facebook": "https://www.facebook.com/campcarpenternh/",
        "leisure": "summer_camp",
        "name": "Camp Carpenter",
        "operator": "Daniel Webster Council",
        "scout": "yes",
        "tourism": "camp_site",
        "website": "https://nhscouting.org/outdoor-programs/camp-carpenter/",
        "osm_id": 11922833154,
        "sources": [
          "unknown"
        ]
      }
    },
    {
      "type": "Feature",
      "geometry": {
        "type": "Point",
        "coordinates": [
          -71.0491373,
          43.2487423
        ]
      },
      "properties": {
        "addr:city": "Barrington",
        "addr:postcode": "03825",
        "addr:state": "NH",
        "addr:street": "497 Washington St",
        "country": "USA",
        "name": "Ayers Lake Farm Campground & Cottages",
        "opening_hours": "Mo-Su 10:00-20:00",
        "payment:american_express": "yes",
        "payment:cash": "yes",
        "payment:cheque": "yes",
        "payment:discover_card": "yes",
        "payment:mastercard": "yes",
        "payment:visa": "yes",
        "phone": "+1 603-335-1110",
        "tourism": "camp_site",
        "website": "https://ayerslakecampground.com",
        "year": "1961",
        "osm_id": 11944486957,
        "sources": [
          "unknown"
        ]
      }
    },
    {
      "type": "Feature",
      "geometry": {
        "type": "Point",
        "coordinates": [
          -72.1445933,
          43.9021794
        ]
      },
      "properties": {
        "name": "Pastures Campground",
        "tourism": "caravan_site",
        "osm_id": 12450604601,
        "sources": [
          "unknown"
        ]
      }
    },
    {
      "type": "Feature",
      "geometry": {
        "type": "Point",
        "coordinates": [
          -70.6600665,
          44.0306778
        ]
      },
      "properties": {
        "addr:city": "Bridgton",
        "addr:housenumber": "70",
        "addr:state": "ME",
        "addr:street": "Weymouth Road",
        "email": "vicki-lin@roadrunner.com",
        "name": "Vicki-Lin Camping Area",
        "tourism": "camp_site",
        "website": "https://campmaine.com/directory/vicki-lin-camping-area/",
        "osm_id": 12450960989,
        "sources": [
          "unknown"
        ]
      }
    },
    {
      "type": "Feature",
      "geometry": {
        "type": "Point",
        "coordinates": [
          -71.3845878,
          43.9511124
        ]
      },
      "properties": {
        "backcountry": "yes",
        "fee": "no",
        "name": "Camp Rich Tentsite",
        "note": "Campsite can be identified via collocation with privy mantained by WODC. User WODChkr claims membership. Please take this under consideration before relocating. https://www.osm.org/note/3887793",
        "operator": "Wonalancet Out Door Club",
        "reservation": "no",
        "tourism": "camp_site",
        "website": "https://www.wodc.org/shelters.htm",
        "osm_id": 12673498601,
        "sources": [
          "unknown"
        ]
      }
    },
    {
      "type": "Feature",
      "geometry": {
        "type": "Point",
        "coordinates": [
          -72.5519762,
          44.7736406
        ]
      },
      "properties": {
        "backcountry": "yes",
        "tents": "no",
        "tourism": "camp_site",
        "osm_id": 12734548352,
        "sources": [
          "unknown"
        ]
      }
    },
    {
      "type": "Feature",
      "geometry": {
        "type": "Point",
        "coordinates": [
          -71.2244772,
          44.5714571
        ]
      },
      "properties": {
        "name": "Milan State Park Campground",
        "tourism": "camp_site",
        "osm_id": 12771419191,
        "sources": [
          "unknown"
        ]
      }
    },
    {
      "type": "Feature",
      "geometry": {
        "type": "Point",
        "coordinates": [
          -71.2254473,
          44.570125
        ]
      },
      "properties": {
        "name": "#6",
        "tourism": "camp_site",
        "osm_id": 12771419196,
        "sources": [
          "unknown"
        ]
      }
    },
    {
      "type": "Feature",
      "geometry": {
        "type": "Point",
        "coordinates": [
          -72.5114257,
          44.6217041
        ]
      },
      "properties": {
        "name": "Campsite 4",
        "rating": null,
        "reviews_count": 0,
        "cost": 0,
        "amenities": [],
        "rig_friendly": [],
        "type": "established",
        "sources": [
          "unknown"
        ],
        "tourism": "camp_site",
        "osm_id": 12954752488
      }
    },
    {
      "type": "Feature",
      "geometry": {
        "type": "Point",
        "coordinates": [
          -72.5131692,
          44.6271068
        ]
      },
      "properties": {
        "name": "Campsite 6",
        "rating": null,
        "reviews_count": 0,
        "cost": 0,
        "amenities": [],
        "rig_friendly": [],
        "type": "established",
        "sources": [
          "unknown"
        ],
        "tourism": "camp_site",
        "osm_id": 12954752490
      }
    },
    {
      "type": "Feature",
      "geometry": {
        "type": "Point",
        "coordinates": [
          -72.5143571,
          44.6353196
        ]
      },
      "properties": {
        "backcountry": "yes",
        "capacity:persons": "6",
        "caravans": "no",
        "name": "Campsite #9",
        "static_caravans": "no",
        "tents": "yes",
        "tourism": "camp_site",
        "osm_id": 12954752492,
        "sources": [
          "unknown"
        ]
      }
    },
    {
      "type": "Feature",
      "geometry": {
        "type": "Point",
        "coordinates": [
          -72.5257586,
          44.6471949
        ]
      },
      "properties": {
        "name": "Campsite 15",
        "rating": null,
        "reviews_count": 0,
        "cost": 0,
        "amenities": [],
        "rig_friendly": [],
        "type": "established",
        "sources": [
          "unknown"
        ],
        "tourism": "camp_site",
        "osm_id": 12954752497
      }
    },
    {
      "type": "Feature",
      "geometry": {
        "type": "Point",
        "coordinates": [
          -71.5863615,
          43.61839
        ]
      },
      "properties": {
        "caravans": "yes",
        "name": "Clearwater Campground",
        "tents": "yes",
        "tourism": "camp_site",
        "osm_id": 12960229412,
        "sources": [
          "unknown"
        ]
      }
    },
    {
      "type": "Feature",
      "geometry": {
        "type": "Point",
        "coordinates": [
          -71.5859968,
          43.6203182
        ]
      },
      "properties": {
        "name": "Meredith Woods",
        "tourism": "camp_site",
        "osm_id": 12960229413,
        "sources": [
          "unknown"
        ]
      }
    },
    {
      "type": "Feature",
      "geometry": {
        "type": "Point",
        "coordinates": [
          -72.0805998,
          45.0320376
        ]
      },
      "properties": {
        "name": "Camping Lac Frontière",
        "rating": null,
        "reviews_count": 0,
        "cost": 0,
        "amenities": [],
        "rig_friendly": [],
        "type": "established",
        "sources": [
          "unknown"
        ],
        "tourism": "caravan_site",
        "osm_id": 35307391
      }
    },
    {
      "type": "Feature",
      "geometry": {
        "type": "Point",
        "coordinates": [
          -70.8753527,
          42.8551537
        ]
      },
      "properties": {
        "access": "restricted",
        "massgis:ARTICLE97": "0",
        "massgis:ASSESS_ACR": "29.00000000",
        "massgis:ASSESS_LOT": "128",
        "massgis:ASSESS_MAP": "18",
        "massgis:ATT_DATE": "1996/03/12",
        "massgis:BASE_MAP": "259-6",
        "massgis:DCAM_ID": "0",
        "massgis:DEED_ACRES": "0.00000000",
        "massgis:EOEAINVOLV": "0",
        "massgis:FEESYM": "P",
        "massgis:FEE_OWNER": "RUSNIK INCORPORATED",
        "massgis:FY_FUNDING": "0",
        "massgis:LEV_PROT": "N",
        "massgis:OS_DEED_BO": "0",
        "massgis:OS_DEED_PA": "0",
        "massgis:OS_ID": "259-1728",
        "massgis:OWNER_TYPE": "P",
        "massgis:POLY_ID": "1728",
        "massgis:PRIM_PURP": "R",
        "massgis:PUB_ACCESS": "L",
        "massgis:SITE_NAME": "RUSNIK CAMPING AREA",
        "massgis:SOURCE_MAP": "1",
        "massgis:TOWN_ID": "259",
        "name": "Rusnik Campground",
        "owner": "Rusnik Incorporated",
        "ownership": "private",
        "source": "MassGIS OpenSpace (http://www.mass.gov/mgis/osp.htm)",
        "tourism": "camp_site",
        "osm_id": 29688439,
        "sources": [
          "MassGIS OpenSpace (http://www.mass.gov/mgis/osp.htm)"
        ]
      }
    },
    {
      "type": "Feature",
      "geometry": {
        "type": "Point",
        "coordinates": [
          -70.8437144,
          42.832993
        ]
      },
      "properties": {
        "access": "restricted",
        "name": "Pines Camping Area",
        "owner": "Bartlett Robert",
        "tourism": "camp_site",
        "website": "http://www.pinescampingarea.com/",
        "osm_id": 29689786,
        "sources": [
          "unknown"
        ]
      }
    },
    {
      "type": "Feature",
      "geometry": {
        "type": "Point",
        "coordinates": [
          -70.8824501,
          42.8731612
        ]
      },
      "properties": {
        "access": "restricted",
        "massgis:ARTICLE97": "0",
        "massgis:ASSESS_ACR": "16.50000000",
        "massgis:ASSESS_LOT": "180",
        "massgis:ASSESS_MAP": "19",
        "massgis:ATT_DATE": "1996/03/12",
        "massgis:BASE_MAP": "259-6",
        "massgis:DCAM_ID": "0",
        "massgis:DEED_ACRES": "0.00000000",
        "massgis:EOEAINVOLV": "0",
        "massgis:FEESYM": "P",
        "massgis:FEE_OWNER": "CHOUINARD BRENDA",
        "massgis:FY_FUNDING": "0",
        "massgis:LEV_PROT": "N",
        "massgis:OS_DEED_BO": "0",
        "massgis:OS_DEED_PA": "0",
        "massgis:OS_ID": "259-1714",
        "massgis:OWNER_TYPE": "P",
        "massgis:POLY_ID": "1714",
        "massgis:PRIM_PURP": "R",
        "massgis:PUB_ACCESS": "L",
        "massgis:SITE_NAME": "BLACK BEAR CAMPGROUND",
        "massgis:SOURCE_MAP": "1",
        "massgis:TOWN_ID": "259",
        "name": "Black Bear Campground",
        "owner": "Chouinard Brenda",
        "ownership": "private",
        "source": "MassGIS OpenSpace (http://www.mass.gov/mgis/osp.htm)",
        "tourism": "camp_site",
        "osm_id": 29695421,
        "sources": [
          "MassGIS OpenSpace (http://www.mass.gov/mgis/osp.htm)"
        ]
      }
    },
    {
      "type": "Feature",
      "geometry": {
        "type": "Point",
        "coordinates": [
          -71.1523061,
          43.0805427
        ]
      },
      "properties": {
        "camp_site": "standard",
        "internet_access": "no",
        "landuse": "forest",
        "leaf_cycle": "mixed",
        "leaf_type": "mixed",
        "name": "Horse Island Campground",
        "operator": "Pawtuckaway State Park",
        "place": "islet",
        "reservation": "required",
        "tourism": "camp_site",
        "wikidata": "Q49641477",
        "osm_id": 40596944,
        "sources": [
          "unknown"
        ]
      }
    },
    {
      "type": "Feature",
      "geometry": {
        "type": "Point",
        "coordinates": [
          -71.2516294,
          43.5261483
        ]
      },
      "properties": {
        "name": "Camp Kabeyun",
        "source": "GRANIT",
        "tourism": "camp_site",
        "osm_id": 47798584,
        "sources": [
          "GRANIT"
        ]
      }
    },
    {
      "type": "Feature",
      "geometry": {
        "type": "Point",
        "coordinates": [
          -72.1041323,
          44.0006071
        ]
      },
      "properties": {
        "name": "Sara Moore Canoe Lot",
        "operator": "Town of Piermont",
        "source": "GRANIT",
        "tourism": "camp_site",
        "osm_id": 47798997,
        "sources": [
          "GRANIT"
        ]
      }
    },
    {
      "type": "Feature",
      "geometry": {
        "type": "Point",
        "coordinates": [
          -72.0680672,
          45.2493751
        ]
      },
      "properties": {
        "name": "Camping Hatley",
        "source": "NRCan-CanVec-7.0",
        "tourism": "camp_site",
        "osm_id": 67286586,
        "sources": [
          "NRCan-CanVec-7.0"
        ]
      }
    },
    {
      "type": "Feature",
      "geometry": {
        "type": "Point",
        "coordinates": [
          -72.1380001,
          44.3056531
        ]
      },
      "properties": {
        "addr:city": "West Barnet",
        "addr:housenumber": "190",
        "addr:state": "VT",
        "addr:street": "Campers Lane",
        "name": "Harvey's Lake Cabins and Campground",
        "tourism": "camp_site",
        "osm_id": 71547841,
        "sources": [
          "unknown"
        ]
      }
    },
    {
      "type": "Feature",
      "geometry": {
        "type": "Point",
        "coordinates": [
          -71.4497062,
          43.3653314
        ]
      },
      "properties": {
        "access": "private",
        "operator": "New Hampshire Motor Speedway",
        "source": "Yahoo",
        "tourism": "caravan_site",
        "osm_id": 78297361,
        "sources": [
          "Yahoo"
        ]
      }
    },
    {
      "type": "Feature",
      "geometry": {
        "type": "Point",
        "coordinates": [
          -71.200361,
          45.2988795
        ]
      },
      "properties": {
        "name": "Camping Sauvage",
        "source": "CanVec 6.0 - NRCan",
        "tourism": "camp_site",
        "osm_id": 83383685,
        "sources": [
          "CanVec 6.0 - NRCan"
        ]
      }
    },
    {
      "type": "Feature",
      "geometry": {
        "type": "Point",
        "coordinates": [
          -71.2400239,
          42.9214567
        ]
      },
      "properties": {
        "name": "Hidden Valley R.V. Park",
        "tourism": "caravan_site",
        "website": "http://www.hiddenvalleyrv.com/camping.html",
        "osm_id": 88981735,
        "sources": [
          "unknown"
        ]
      }
    },
    {
      "type": "Feature",
      "geometry": {
        "type": "Point",
        "coordinates": [
          -71.3167909,
          42.9756131
        ]
      },
      "properties": {
        "email": "info@caleflakecampingarea.com",
        "name": "Calef Lake Camping Area",
        "phone": "+1-603-483-8282",
        "tourism": "camp_site",
        "website": "http://www.caleflakecampingarea.com/",
        "osm_id": 97190100,
        "sources": [
          "unknown"
        ]
      }
    },
    {
      "type": "Feature",
      "geometry": {
        "type": "Point",
        "coordinates": [
          -71.8323279,
          45.2402613
        ]
      },
      "properties": {
        "name": "Camping de Compton",
        "source": "Bing",
        "tourism": "caravan_site",
        "osm_id": 100297428,
        "sources": [
          "Bing"
        ]
      }
    },
    {
      "type": "Feature",
      "geometry": {
        "type": "Point",
        "coordinates": [
          -72.4389082,
          45.0314844
        ]
      },
      "properties": {
        "addr:city": "Potton",
        "addr:housenumber": "2733",
        "addr:province": "Qc",
        "addr:street": "Chemin de la Vallée Missisquoi;Chemin de la Vallée-Missisquoi",
        "name": "Camping Nature Plein-Air",
        "phone": "+1 888-746-4140",
        "source": "NRCan-CanVec-7.0",
        "tourism": "camp_site",
        "osm_id": 104718245,
        "sources": [
          "NRCan-CanVec-7.0"
        ]
      }
    },
    {
      "type": "Feature",
      "geometry": {
        "type": "Point",
        "coordinates": [
          -72.2955242,
          45.0996358
        ]
      },
      "properties": {
        "addr:city": "Potton",
        "addr:housenumber": "54",
        "addr:street": "Chemin Carlton-Oliver",
        "name": "Camping Mount Owl Head",
        "source": "NRCan-CanVec-7.0",
        "tourism": "caravan_site",
        "osm_id": 104829410,
        "sources": [
          "NRCan-CanVec-7.0"
        ]
      }
    },
    {
      "type": "Feature",
      "geometry": {
        "type": "Point",
        "coordinates": [
          -72.3358967,
          45.2472462
        ]
      },
      "properties": {
        "addr:city": "Bolton-Est",
        "addr:housenumber": "500",
        "addr:street": "Route Missisquoi",
        "ele": "250",
        "name": "Camping Lac Trousers",
        "name:alt": "Bolton ~ Camping aménagé ~ AET ~ Camping Lac Trousers",
        "operator": "Camping du lac Trousers",
        "phone": "+1-819-864-6314",
        "source": "NRCan-CanVec-7.0;SE, Gilles Turgeon, Estimé",
        "tents": "yes",
        "tourism": "camp_site",
        "osm_id": 104919483,
        "sources": [
          "NRCan-CanVec-7.0;SE, Gilles Turgeon, Estimé"
        ]
      }
    },
    {
      "type": "Feature",
      "geometry": {
        "type": "Point",
        "coordinates": [
          -72.0684748,
          45.1791402
        ]
      },
      "properties": {
        "name": "Camping Lac Massawippi",
        "source": "NRCan-CanVec-7.0",
        "tourism": "camp_site",
        "osm_id": 105022663,
        "sources": [
          "NRCan-CanVec-7.0"
        ]
      }
    },
    {
      "type": "Feature",
      "geometry": {
        "type": "Point",
        "coordinates": [
          -72.2994909,
          42.9425496
        ]
      },
      "properties": {
        "name": "Wheelock Campground",
        "tourism": "camp_site",
        "osm_id": 132685907,
        "sources": [
          "unknown"
        ]
      }
    },
    {
      "type": "Feature",
      "geometry": {
        "type": "Point",
        "coordinates": [
          -70.5985254,
          43.9162433
        ]
      },
      "properties": {
        "tourism": "camp_site",
        "osm_id": 154966526,
        "sources": [
          "unknown"
        ]
      }
    },
    {
      "type": "Feature",
      "geometry": {
        "type": "Point",
        "coordinates": [
          -71.1157455,
          43.9929918
        ]
      },
      "properties": {
        "name": "Eastern Slope Camping Area",
        "source": "survey, bing",
        "tourism": "camp_site",
        "osm_id": 170994414,
        "sources": [
          "survey, bing"
        ]
      }
    },
    {
      "type": "Feature",
      "geometry": {
        "type": "Point",
        "coordinates": [
          -72.0816248,
          44.7862533
        ]
      },
      "properties": {
        "name": "Will-O-Wood Campground",
        "tourism": "camp_site",
        "osm_id": 230913825,
        "sources": [
          "unknown"
        ]
      }
    },
    {
      "type": "Feature",
      "geometry": {
        "type": "Point",
        "coordinates": [
          -71.486844,
          42.7083958
        ]
      },
      "properties": {
        "addr:city": "Nashua",
        "addr:housenumber": "124",
        "addr:postcode": "03062",
        "addr:street": "Ridge Road",
        "name": "Camp Doucet",
        "operator": "Boys and Girls Club of Nashua",
        "tourism": "camp_site",
        "osm_id": 234899047,
        "sources": [
          "unknown"
        ]
      }
    },
    {
      "type": "Feature",
      "geometry": {
        "type": "Point",
        "coordinates": [
          -71.4619145,
          43.3533726
        ]
      },
      "properties": {
        "access": "private",
        "operator": "New Hampshire Motor Speedway",
        "source": "Yahoo",
        "tourism": "caravan_site",
        "osm_id": 239263139,
        "sources": [
          "Yahoo"
        ]
      }
    },
    {
      "type": "Feature",
      "geometry": {
        "type": "Point",
        "coordinates": [
          -72.1112501,
          43.3138137
        ]
      },
      "properties": {
        "rating": null,
        "reviews_count": 0,
        "cost": 0,
        "amenities": [],
        "rig_friendly": [],
        "type": "established",
        "sources": [
          "unknown"
        ],
        "tourism": "caravan_site",
        "osm_id": 275389641
      }
    },