{
  "type": "FeatureCollection",
  "features": [
    {
      "type": "Feature",
      "geometry": {
        "type": "Point",
        "coordinates": [
          -84.7951627,
          41.9515593
        ]
      },
      "properties": {
        "ele": "318",
        "gnis:feature_id": "2419716",
        "name": "Historic Marble Springs",
        "tourism": "caravan_site",
        "osm_id": 354032639,
        "sources": [
          "unknown"
        ]
      }
    },
    {
      "type": "Feature",
      "geometry": {
        "type": "Point",
        "coordinates": [
          -80.6781509,
          38.6662114
        ]
      },
      "properties": {
        "ele": "408",
        "gnis:feature_id": "1727303",
        "name": "Bee Run Campground",
        "tourism": "camp_site",
        "wikidata": "Q31494817",
        "osm_id": 356535256,
        "sources": [
          "unknown"
        ]
      }
    },
    {
      "type": "Feature",
      "geometry": {
        "type": "Point",
        "coordinates": [
          -81.3536892,
          40.9300271
        ]
      },
      "properties": {
        "access": "customers",
        "caravans": "yes",
        "ele": "359",
        "gnis:feature_id": "1074933",
        "name": "Lake O'Pines Campground",
        "tourism": "camp_site",
        "osm_id": 357481745,
        "sources": [
          "unknown"
        ]
      }
    },
    {
      "type": "Feature",
      "geometry": {
        "type": "Point",
        "coordinates": [
          -81.0379854,
          41.6971468
        ]
      },
      "properties": {
        "name": "Heritage Hills Campgrounds",
        "source": "http://www.heritagehillscamp.com/",
        "tourism": "camp_site",
        "url": "http://www.heritagehillscamp.com/",
        "osm_id": 412329073,
        "sources": [
          "http://www.heritagehillscamp.com/"
        ]
      }
    },
    {
      "type": "Feature",
      "geometry": {
        "type": "Point",
        "coordinates": [
          -83.2410089,
          39.9731721
        ]
      },
      "properties": {
        "name": "Camp Ken-Jockety & Elam Environmental Center",
        "scout": "girl",
        "tourism": "camp_site",
        "osm_id": 442755584,
        "sources": [
          "unknown"
        ]
      }
    },
    {
      "type": "Feature",
      "geometry": {
        "type": "Point",
        "coordinates": [
          -82.3092969,
          40.1716673
        ]
      },
      "properties": {
        "name": "Camp Falling Rock Boy Scout Reservation",
        "scout": "boy",
        "tourism": "camp_site",
        "osm_id": 454513578,
        "sources": [
          "unknown"
        ]
      }
    },
    {
      "type": "Feature",
      "geometry": {
        "type": "Point",
        "coordinates": [
          -83.1757721,
          39.9507889
        ]
      },
      "properties": {
        "addr:city": "Galloway",
        "addr:housenumber": "6552",
        "addr:postcode": "43119",
        "addr:state": "Ohio",
        "addr:street": "West Broad Street",
        "caravans": "yes",
        "name": "Alton RV Park",
        "phone": "+16148789127",
        "power_supply": "yes",
        "tourism": "caravan_site",
        "website": "https://altonrvpark.com/",
        "osm_id": 574120055,
        "sources": [
          "unknown"
        ]
      }
    },
    {
      "type": "Feature",
      "geometry": {
        "type": "Point",
        "coordinates": [
          -84.2785123,
          39.2165714
        ]
      },
      "properties": {
        "name": "Camp Friedlander",
        "rating": null,
        "reviews_count": 0,
        "cost": 0,
        "amenities": [],
        "rig_friendly": [],
        "type": "established",
        "sources": [
          "unknown"
        ],
        "tourism": "camp_site",
        "osm_id": 12054347818
      }
    },
    {
      "type": "Feature",
      "geometry": {
        "type": "Point",
        "coordinates": [
          -84.2776993,
          39.2089486
        ]
      },
      "properties": {
        "alt_name": "Cub World",
        "name": "Cub Scout Adventure World",
        "operator": "Dan Beard Council, Boy Scouts of America",
        "scout": "yes",
        "tourism": "camp_site",
        "osm_id": 636829626,
        "sources": [
          "unknown"
        ]
      }
    },
    {
      "type": "Feature",
      "geometry": {
        "type": "Point",
        "coordinates": [
          -84.274604,
          39.2031042
        ]
      },
      "properties": {
        "name": "Camp Lower Craig",
        "operator": "Dan Beard Council, Boy Scouts of America",
        "scout": "yes",
        "tourism": "camp_site",
        "osm_id": 636830365,
        "sources": [
          "unknown"
        ]
      }
    },
    {
      "type": "Feature",
      "geometry": {
        "type": "Point",
        "coordinates": [
          -84.2733273,
          39.21042
        ]
      },
      "properties": {
        "name": "Camp Upper Craig",
        "operator": "Dan Beard Council, Boy Scouts of America",
        "scout": "yes",
        "tourism": "camp_site",
        "osm_id": 636830445,
        "sources": [
          "unknown"
        ]
      }
    },
    {
      "type": "Feature",
      "geometry": {
        "type": "Point",
        "coordinates": [
          -83.6372264,
          41.1349045
        ]
      },
      "properties": {
        "name": "Van Buren State Park Group Campground",
        "tourism": "camp_site",
        "osm_id": 803090450,
        "sources": [
          "unknown"
        ]
      }
    },
    {
      "type": "Feature",
      "geometry": {
        "type": "Point",
        "coordinates": [
          -81.0979381,
          41.5106053
        ]
      },
      "properties": {
        "addr:housenumber": "13365",
        "addr:state": "OH",
        "addr:street": "Old State Road",
        "fee": "yes",
        "name": "Headwaters Park Campground",
        "openfire": "yes",
        "operator": "Geauga Park District",
        "picnic_table": "yes",
        "reservation": "required",
        "tents": "yes",
        "toilets": "yes",
        "tourism": "camp_site",
        "osm_id": 1148031689,
        "sources": [
          "unknown"
        ]
      }
    },
    {
      "type": "Feature",
      "geometry": {
        "type": "Point",
        "coordinates": [
          -82.6304039,
          41.7676253
        ]
      },
      "properties": {
        "addr:housenumber": "1362",
        "addr:street": "East Shore Road",
        "name": "East Park Campground",
        "operator": "Township of Pelee",
        "tourism": "camp_site",
        "osm_id": 1411687955,
        "sources": [
          "unknown"
        ]
      }
    },
    {
      "type": "Feature",
      "geometry": {
        "type": "Point",
        "coordinates": [
          -82.839262,
          41.6449844
        ]
      },
      "properties": {
        "designation": "Public Reservation",
        "name": "South Bass Island State Park Campgrounds",
        "source": "Knowledge of John Corvo",
        "tourism": "camp_site",
        "osm_id": 1730921295,
        "sources": [
          "Knowledge of John Corvo"
        ]
      }
    },
    {
      "type": "Feature",
      "geometry": {
        "type": "Point",
        "coordinates": [
          -82.8356429,
          41.9975219
        ]
      },
      "properties": {
        "source": "NRCan-CanVec-10.0",
        "tourism": "camp_site",
        "osm_id": 1859481134,
        "sources": [
          "NRCan-CanVec-10.0"
        ]
      }
    },
    {
      "type": "Feature",
      "geometry": {
        "type": "Point",
        "coordinates": [
          -81.2699707,
          40.544736
        ]
      },
      "properties": {
        "name": "Atwood Lake Campground (main gate)",
        "tourism": "camp_site",
        "osm_id": 1895320727,
        "sources": [
          "unknown"
        ]
      }
    },
    {
      "type": "Feature",
      "geometry": {
        "type": "Point",
        "coordinates": [
          -82.4383932,
          42.094029
        ]
      },
      "properties": {
        "backcountry": "yes",
        "source": "NRCan-CanVec-10.0",
        "tourism": "camp_site",
        "osm_id": 2142085726,
        "sources": [
          "NRCan-CanVec-10.0"
        ]
      }
    },
    {
      "type": "Feature",
      "geometry": {
        "type": "Point",
        "coordinates": [
          -84.1090912,
          39.5336953
        ]
      },
      "properties": {
        "impromptu": "no",
        "name": "Camp Stonybrook",
        "operator": "Girl Scouts of Western Ohio",
        "scout": "yes",
        "tourism": "camp_site",
        "website": "http://www.girlscoutsofwesternohio.org/What-We-Do/Program-Opportunities-Events/Girl-Scout-Camping/Property-Descriptions/Pages/Camp-Stonybrook.aspx",
        "osm_id": 2146382727,
        "sources": [
          "unknown"
        ]
      }
    },
    {
      "type": "Feature",
      "geometry": {
        "type": "Point",
        "coordinates": [
          -82.2020666,
          40.4960209
        ]
      },
      "properties": {
        "name": "Camp Mohaven",
        "tourism": "camp_site",
        "osm_id": 2166272232,
        "sources": [
          "unknown"
        ]
      }
    },
    {
      "type": "Feature",
      "geometry": {
        "type": "Point",
        "coordinates": [
          -82.0971639,
          42.2588118
        ]
      },
      "properties": {
        "source": "NRCan-CanVec-10.0",
        "tourism": "camp_site",
        "osm_id": 2190414585,
        "sources": [
          "NRCan-CanVec-10.0"
        ]
      }
    },
    {
      "type": "Feature",
      "geometry": {
        "type": "Point",
        "coordinates": [
          -81.1045431,
          39.2247852
        ]
      },
      "properties": {
        "name": "North Bend State Park campground",
        "tourism": "camp_site",
        "osm_id": 2198821892,
        "sources": [
          "unknown"
        ]
      }
    },
    {
      "type": "Feature",
      "geometry": {
        "type": "Point",
        "coordinates": [
          -81.1311515,
          40.606506
        ]
      },
      "properties": {
        "name": "Harrison Hills Campground",
        "tourism": "camp_site",
        "osm_id": 2405763684,
        "sources": [
          "unknown"
        ]
      }
    },
    {
      "type": "Feature",
      "geometry": {
        "type": "Point",
        "coordinates": [
          -81.1753029,
          40.6016677
        ]
      },
      "properties": {
        "name": "ABC Country Camping and Cabins",
        "tourism": "camp_site",
        "osm_id": 2405784445,
        "sources": [
          "unknown"
        ]
      }
    },
    {
      "type": "Feature",
      "geometry": {
        "type": "Point",
        "coordinates": [
          -81.1723228,
          40.711935
        ]
      },
      "properties": {
        "name": "Pride Valley Campgrounds",
        "tourism": "camp_site",
        "osm_id": 2417350440,
        "sources": [
          "unknown"
        ]
      }
    },
    {
      "type": "Feature",
      "geometry": {
        "type": "Point",
        "coordinates": [
          -83.9022338,
          41.2062025
        ]
      },
      "properties": {
        "internet_access": "wlan",
        "internet_access:fee": "no",
        "tourism": "camp_site",
        "osm_id": 2748812627,
        "sources": [
          "unknown"
        ]
      }
    },
    {
      "type": "Feature",
      "geometry": {
        "type": "Point",
        "coordinates": [
          -83.6617686,
          41.84555
        ]
      },
      "properties": {
        "name": "Monroe County / Toledo North KOA",
        "rating": null,
        "reviews_count": 0,
        "cost": 0,
        "amenities": [],
        "rig_friendly": [],
        "type": "established",
        "sources": [
          "unknown"
        ],
        "tourism": "caravan_site",
        "osm_id": 698038861
      }
    },
    {
      "type": "Feature",
      "geometry": {
        "type": "Point",
        "coordinates": [
          -84.675367,
          41.6990978
        ]
      },
      "properties": {
        "name": "Butler",
        "tourism": "camp_site",
        "osm_id": 2925351679,
        "sources": [
          "unknown"
        ]
      }
    },
    {
      "type": "Feature",
      "geometry": {
        "type": "Point",
        "coordinates": [
          -84.7881505,
          41.8768414
        ]
      },
      "properties": {
        "addr:city": "Reading",
        "addr:housenumber": "3600",
        "addr:postcode": "49274",
        "addr:state": "MI",
        "addr:street": "Long Lake Road",
        "gnis:feature_id": "622628",
        "name": "Camp Selah",
        "phone": "+1-517-283-2527",
        "tourism": "camp_site",
        "website": "https://www.campselah.org/",
        "osm_id": 2939893042,
        "sources": [
          "unknown"
        ]
      }
    },
    {
      "type": "Feature",
      "geometry": {
        "type": "Point",
        "coordinates": [
          -84.6906629,
          41.9096006
        ]
      },
      "properties": {
        "addr:city": "Hillsdale",
        "addr:housenumber": "4111",
        "addr:postcode": "49242",
        "addr:state": "MI",
        "addr:street": "West Hallett Road",
        "gnis:feature_id": "2418423",
        "name": "Gateway Park Campground",
        "phone": "+1-517-437-7005",
        "tourism": "caravan_site",
        "website": "https://gatewayparkcampground.com/",
        "osm_id": 2939893045,
        "sources": [
          "unknown"
        ]
      }
    },
    {
      "type": "Feature",
      "geometry": {
        "type": "Point",
        "coordinates": [
          -84.3070811,
          42.0524015
        ]
      },
      "properties": {
        "addr:city": "Cement City",
        "addr:housenumber": "16230",
        "addr:postcode": "49233",
        "addr:state": "MI",
        "addr:street": "US-12",
        "gnis:feature_id": "2465626",
        "name": "Irish Hills Kampground",
        "phone": "+1-517-592-6751",
        "tents": "yes",
        "tourism": "caravan_site",
        "website": "https://irishhillskampground.com/",
        "osm_id": 2939893050,
        "sources": [
          "unknown"
        ]
      }
    },
    {
      "type": "Feature",
      "geometry": {
        "type": "Point",
        "coordinates": [
          -84.2559673,
          42.062693
        ]
      },
      "properties": {
        "addr:city": "Brooklyn",
        "addr:housenumber": "13500",
        "addr:postcode": "49230",
        "addr:state": "MI",
        "addr:street": "US 12",
        "gnis:feature_id": "2575835",
        "name": "Juniper Hills Campgrounds",
        "phone": "+1-888-396-8300",
        "tents": "yes",
        "tourism": "caravan_site",
        "website": "https://www.juniperhills.com/",
        "osm_id": 2939893052,
        "sources": [
          "unknown"
        ]
      }
    },
    {
      "type": "Feature",
      "geometry": {
        "type": "Point",
        "coordinates": [
          -84.7904043,
          41.8618999
        ]
      },
      "properties": {
        "addr:city": "Reading",
        "addr:housenumber": "4502",
        "addr:postcode": "49274",
        "addr:state": "MI",
        "addr:street": "Berlin Drive",
        "gnis:feature_id": "629672",
        "name": "Kimball Camp",
        "phone": "+1-517-283-2168",
        "tourism": "camp_site",
        "website": "https://www.kimballcamp.com/",
        "osm_id": 2939893053,
        "sources": [
          "unknown"
        ]
      }
    },
    {
      "type": "Feature",
      "geometry": {
        "type": "Point",
        "coordinates": [
          -84.2551014,
          42.0740399
        ]
      },
      "properties": {
        "addr:city": "Brooklyn",
        "addr:housenumber": "13400",
        "addr:postcode": "49230",
        "addr:state": "MI",
        "addr:street": "Taylor Road",
        "gnis:feature_id": "2633066",
        "name": "Kooters Creekside Campground",
        "phone": "+1-517-841-6719",
        "tents": "yes",
        "tourism": "caravan_site",
        "website": "http://kooterscreeksidecampground.com/",
        "osm_id": 2939893054,
        "sources": [
          "unknown"
        ]
      }
    },
    {
      "type": "Feature",
      "geometry": {
        "type": "Point",
        "coordinates": [
          -84.4923213,
          42.0548762
        ]
      },
      "properties": {
        "addr:city": "Moscow",
        "addr:housenumber": "8291",
        "addr:postcode": "49257",
        "addr:state": "MI",
        "addr:street": "East Chicago Road",
        "name": "Moscow Maples RV Park",
        "phone": "+1-517-688-9853",
        "tents": "yes",
        "tourism": "caravan_site",
        "website": "https://www.moscowmaples.com/",
        "osm_id": 2939893062,
        "sources": [
          "unknown"
        ]
      }
    },
    {
      "type": "Feature",
      "geometry": {
        "type": "Point",
        "coordinates": [
          -84.6835348,
          41.9940125
        ]
      },
      "properties": {
        "addr:city": "Jonesville",
        "addr:housenumber": "3590",
        "addr:postcode": "49250",
        "addr:state": "MI",
        "addr:street": "Jonesville Road",
        "gnis:feature_id": "2418491",
        "name": "Way Back In Campgrounds",
        "phone": "+1-517-849-0082",
        "tents": "yes",
        "tourism": "caravan_site",
        "website": "http://www.waybackin.com/",
        "osm_id": 2939893073,
        "sources": [
          "unknown"
        ]
      }
    },
    {
      "type": "Feature",
      "geometry": {
        "type": "Point",
        "coordinates": [
          -84.2056206,
          42.1915889
        ]
      },
      "properties": {
        "addr:city": "Grass Lake",
        "addr:housenumber": "11185",
        "addr:postcode": "49240",
        "addr:state": "MI",
        "addr:street": "Orban Road",
        "gnis:feature_id": "2633025",
        "name": "Apple Creek Campground & RV Park",
        "phone": "+1-517-522-3467",
        "tourism": "caravan_site",
        "website": "https://applecreekrv.com/",
        "osm_id": 2941382888,
        "sources": [
          "unknown"
        ]
      }
    },
    {
      "type": "Feature",
      "geometry": {
        "type": "Point",
        "coordinates": [
          -84.2590264,
          42.2756419
        ]
      },
      "properties": {
        "addr:city": "Jackson",
        "addr:housenumber": "2401",
        "addr:postcode": "49201",
        "addr:state": "MI",
        "addr:street": "Hilton Road",
        "gnis:feature_id": "2633026",
        "name": "Greenwood Acres Campground",
        "phone": "+1-517-522-8600",
        "tourism": "caravan_site",
        "website": "https://www.greenwoodacrescampground.com/",
        "osm_id": 2941382889,
        "sources": [
          "unknown"
        ]
      }
    },
    {
      "type": "Feature",
      "geometry": {
        "type": "Point",
        "coordinates": [
          -84.2782062,
          42.2901865
        ]
      },
      "properties": {
        "name": "Hideaway RV Park",
        "rating": null,
        "reviews_count": 0,
        "cost": 0,
        "amenities": [],
        "rig_friendly": [],
        "type": "established",
        "sources": [
          "unknown"
        ],
        "tourism": "camp_site",
        "osm_id": 775122937
      }
    },
    {
      "type": "Feature",
      "geometry": {
        "type": "Point",
        "coordinates": [
          -84.0975496,
          42.065821
        ]
      },
      "properties": {
        "name": "Ja Do Campground",
        "rating": null,
        "reviews_count": 0,
        "cost": 0,
        "amenities": [],
        "rig_friendly": [],
        "type": "established",
        "sources": [
          "unknown"
        ],
        "tourism": "camp_site",
        "osm_id": 491388824
      }
    },
    {
      "type": "Feature",
      "geometry": {
        "type": "Point",
        "coordinates": [
          -83.3939727,
          41.9823556
        ]
      },
      "properties": {
        "addr:city": "Monroe",
        "addr:housenumber": "1600",
        "addr:postcode": "48162",
        "addr:state": "MI",
        "addr:street": "Stumpmier Road",
        "gnis:feature_id": "2438701",
        "name": "Camp Lord Willing Management RV Park & Campground",
        "phone": "+1-877-210-8700",
        "short_name": "Camp Lord Willing",
        "tents": "yes",
        "tourism": "caravan_site",
        "website": "http://www.clwrvpark.com/",
        "osm_id": 2942682596,
        "sources": [
          "unknown"
        ]
      }
    },
    {
      "type": "Feature",
      "geometry": {
        "type": "Point",
        "coordinates": [
          -83.6822222,
          41.7972222
        ]
      },
      "properties": {
        "addr:city": "Ottawa Lake",
        "addr:housenumber": "5639",
        "addr:postcode": "39267",
        "addr:state": "MI",
        "addr:street": "Saint Anthony Road",
        "gnis:feature_id": "2438822",
        "name": "Covered Wagon Camp Resort",
        "phone": "+1-734-856-3058",
        "tents": "yes",
        "tourism": "caravan_site",
        "website": "http://coveredwagoncamp.com/",
        "osm_id": 2942682600,
        "sources": [
          "unknown"
        ]
      }
    },
    {
      "type": "Feature",
      "geometry": {
        "type": "Point",
        "coordinates": [
          -83.7116667,
          41.8611111
        ]
      },
      "properties": {
        "addr:city": "Petersburg",
        "addr:housenumber": "6030",
        "addr:postcode": "49270",
        "addr:state": "MI",
        "addr:street": "Sylvania-Petersburg Road",
        "gnis:feature_id": "2438797",
        "name": "Pirolli Park Campground",
        "phone": "+1-734-279-1487",
        "tents": "yes",
        "tourism": "caravan_site",
        "website": "http://www.pirollipark.com/",
        "osm_id": 2942685210,
        "sources": [
          "unknown"
        ]
      }
    },
    {
      "type": "Feature",
      "geometry": {
        "type": "Point",
        "coordinates": [
          -83.6795756,
          41.8773458
        ]
      },
      "properties": {
        "addr:city": "Petersburg",
        "addr:housenumber": "16333",
        "addr:postcode": "49270",
        "addr:state": "MI",
        "addr:street": "Lulu Road",
        "gnis:feature_id": "2438802",
        "name": "Hidden Lake Resort",
        "phone": "+1-734-770-4834",
        "tents": "yes",
        "tourism": "caravan_site",
        "website": "https://coastalpropertiesinc.com/",
        "osm_id": 2942685217,
        "sources": [
          "unknown"
        ]
      }
    },
    {
      "type": "Feature",
      "geometry": {
        "type": "Point",
        "coordinates": [
          -83.6151933,
          41.9359767
        ]
      },
      "properties": {
        "addr:city": "Dundee",
        "addr:housenumber": "1350",
        "addr:postcode": "48131",
        "addr:state": "MI",
        "addr:street": "Meanwell Road",
        "gnis:feature_id": "2438903",
        "name": "Wilderness Campground",
        "phone": "+1-734-529-5122",
        "tents": "yes",
        "tourism": "caravan_site",
        "website": "https://wildernesscampgroundmi.com/",
        "osm_id": 2942685220,
        "sources": [
          "unknown"
        ]
      }
    },
    {
      "type": "Feature",
      "geometry": {
        "type": "Point",
        "coordinates": [
          -84.2522476,
          39.3122916
        ]
      },
      "properties": {
        "group_only": "yes",
        "impromptu": "no",
        "is_in": "Camp Butterworth",
        "leisure": "summer_camp",
        "name": "Berry Patch",
        "scout": "yes",
        "tourism": "camp_site",
        "osm_id": 3150245882,
        "sources": [
          "unknown"
        ]
      }
    },
    {
      "type": "Feature",
      "geometry": {
        "type": "Point",
        "coordinates": [
          -84.2506302,
          39.3116296
        ]
      },
      "properties": {
        "group_only": "yes",
        "impromptu": "no",
        "is_in": "Camp Butterworth",
        "leisure": "summer_camp",
        "name": "Beeches",
        "scout": "yes",
        "tourism": "camp_site",
        "osm_id": 3150245913,
        "sources": [
          "unknown"
        ]
      }
    },
    {
      "type": "Feature",
      "geometry": {
        "type": "Point",
        "coordinates": [
          -84.251451,
          39.3105629
        ]
      },
      "properties": {
        "group_only": "yes",
        "impromptu": "no",
        "is_in": "Camp Butterworth",
        "leisure": "summer_camp",
        "name": "Quaker Ridge",
        "scout": "yes",
        "tourism": "camp_site",
        "osm_id": 3150245924,
        "sources": [
          "unknown"
        ]
      }
    },
    {
      "type": "Feature",
      "geometry": {
        "type": "Point",
        "coordinates": [
          -84.2483504,
          39.3186125
        ]
      },
      "properties": {
        "group_only": "yes",
        "impromptu": "no",
        "is_in": "Camp Butterworth",
        "leisure": "summer_camp",
        "name": "Windy Heights",
        "scout": "yes",
        "tourism": "camp_site",
        "osm_id": 3150245934,
        "sources": [
          "unknown"
        ]
      }
    },
    {
      "type": "Feature",
      "geometry": {
        "type": "Point",
        "coordinates": [
          -81.1846336,
          41.6540685
        ]
      },
      "properties": {
        "backcountry": "yes",
        "fee": "yes",
        "name": "Girdled Road Reservation Campsite",
        "openfire": "yes",
        "operator": "Lake Metroparks",
        "phone": "+1-440-358-7275",
        "power_supply": "no",
        "reservation": "required",
        "shower": "no",
        "toilets": "no",
        "tourism": "camp_site",
        "website": "http://www.lakemetroparks.com/register-reserve/reserve-a-shelter/tent-camping/girdled-road-reservation-campsite",
        "osm_id": 3177720734,
        "sources": [
          "unknown"
        ]
      }
    },
    {
      "type": "Feature",
      "geometry": {
        "type": "Point",
        "coordinates": [
          -84.4178665,
          39.0771453
        ]
      },
      "properties": {
        "group_only": "yes",
        "impromptu": "no",
        "operator": "Cincinnati Parks",
        "tourism": "camp_site",
        "osm_id": 3181889161,
        "sources": [
          "unknown"
        ]
      }
    },
    {
      "type": "Feature",
      "geometry": {
        "type": "Point",
        "coordinates": [
          -83.1687351,
          40.0290702
        ]
      },
      "properties": {
        "name": "Summer Camp Job",
        "tourism": "camp_site",
        "osm_id": 3331913863,
        "sources": [
          "unknown"
        ]
      }
    },
    {
      "type": "Feature",
      "geometry": {
        "type": "Point",
        "coordinates": [
          -81.1857983,
          41.7857319
        ]
      },
      "properties": {
        "description": "Needs to be reserved at least two days prior.",
        "phone": "+1-440-358-7275",
        "tourism": "camp_site",
        "website": "https://www.lakemetroparks.com/",
        "osm_id": 3404825736,
        "sources": [
          "unknown"
        ]
      }
    },
    {
      "type": "Feature",
      "geometry": {
        "type": "Point",
        "coordinates": [
          -84.7445103,
          38.8814482
        ]
      },
      "properties": {
        "addr:city": "Union",
        "addr:housenumber": "3380",
        "addr:postcode": "41091",
        "addr:state": "KY",
        "addr:street": "Beaver Road",
        "alt_name": "Big Bone Lick State Park",
        "name": "Big Bone Lick State Historic Site",
        "phone": "+1-859-384-3522",
        "tourism": "camp_site",
        "osm_id": 3468180187,
        "sources": [
          "unknown"
        ]
      }
    },
    {
      "type": "Feature",
      "geometry": {
        "type": "Point",
        "coordinates": [
          -82.4946282,
          40.1234254
        ]
      },
      "properties": {
        "name": "Lazy River at Granville",
        "rating": null,
        "reviews_count": 0,
        "cost": 0,
        "amenities": [],
        "rig_friendly": [],
        "type": "established",
        "sources": [
          "unknown"
        ],
        "tourism": "camp_site",
        "osm_id": 361682114
      }
    },
    {
      "type": "Feature",
      "geometry": {
        "type": "Point",
        "coordinates": [
          -84.6447373,
          39.6559801
        ]
      },
      "properties": {
        "access": "private",
        "name": "Woodland Trails Scout Reservation",
        "operator": "Miami Valley Council, BSA",
        "tourism": "camp_site",
        "osm_id": 3725526236,
        "sources": [
          "unknown"
        ]
      }
    },
    {
      "type": "Feature",
      "geometry": {
        "type": "Point",
        "coordinates": [
          -81.7792882,
          40.3213912
        ]
      },
      "properties": {
        "name": "Forest Hills Lake Camp",
        "tourism": "camp_site",
        "osm_id": 3753240695,
        "sources": [
          "unknown"
        ]
      }
    },
    {
      "type": "Feature",
      "geometry": {
        "type": "Point",
        "coordinates": [
          -82.3211153,
          39.325247
        ]
      },
      "properties": {
        "name": "Camp 1",
        "tourism": "camp_site",
        "osm_id": 3873289138,
        "sources": [
          "unknown"
        ]
      }
    },
    {
      "type": "Feature",
      "geometry": {
        "type": "Point",
        "coordinates": [
          -82.2939001,
          39.321633
        ]
      },
      "properties": {
        "name": "Camp 2",
        "tourism": "camp_site",
        "osm_id": 3873289139,
        "sources": [
          "unknown"
        ]
      }
    },
    {
      "type": "Feature",
      "geometry": {
        "type": "Point",
        "coordinates": [
          -82.2975215,
          39.3657176
        ]
      },
      "properties": {
        "name": "Camp 3",
        "tourism": "camp_site",
        "osm_id": 3873299351,
        "sources": [
          "unknown"
        ]
      }
    },
    {
      "type": "Feature",
      "geometry": {
        "type": "Point",
        "coordinates": [
          -81.0459811,
          41.7407924
        ]
      },
      "properties": {
        "tourism": "camp_site",
        "osm_id": 3998134962,
        "sources": [
          "unknown"
        ]
      }
    },
    {
      "type": "Feature",
      "geometry": {
        "type": "Point",
        "coordinates": [
          -81.0802833,
          41.7407843
        ]
      },
      "properties": {
        "tourism": "camp_site",
        "osm_id": 4082243251,
        "sources": [
          "unknown"
        ]
      }
    },
    {
      "type": "Feature",
      "geometry": {
        "type": "Point",
        "coordinates": [
          -81.1332227,
          41.6820917
        ]
      },
      "properties": {
        "tourism": "camp_site",
        "osm_id": 4100956090,
        "sources": [
          "unknown"
        ]
      }
    },
    {
      "type": "Feature",
      "geometry": {
        "type": "Point",
        "coordinates": [
          -80.60711,
          38.8396262
        ]
      },
      "properties": {
        "name": "Riffle Run Campground",
        "tourism": "camp_site",
        "osm_id": 4103920180,
        "sources": [
          "unknown"
        ]
      }
    },
    {
      "type": "Feature",
      "geometry": {
        "type": "Point",
        "coordinates": [
          -82.8668975,
          39.9593784
        ]
      },
      "properties": {
        "addr:housenumber": "851",
        "addr:postcode": "43213",
        "addr:street": "Country Club Road",
        "internet_access": "wlan",
        "tourism": "caravan_site",
        "osm_id": 4208090790,
        "sources": [
          "unknown"
        ]
      }
    },
    {
      "type": "Feature",
      "geometry": {
        "type": "Point",
        "coordinates": [
          -81.191679,
          41.7827913
        ]
      },
      "properties": {
        "description": "Needs to be reserved at least two days prior.",
        "phone": "+1-440-358-7275",
        "tourism": "camp_site",
        "website": "https://www.lakemetroparks.com/",
        "osm_id": 4401769907,
        "sources": [
          "unknown"
        ]
      }
    },
    {
      "type": "Feature",
      "geometry": {
        "type": "Point",
        "coordinates": [
          -80.8817276,
          41.6852042
        ]
      },
      "properties": {
        "name": "Sycamore",
        "rating": null,
        "reviews_count": 0,
        "cost": 0,
        "amenities": [],
        "rig_friendly": [],
        "type": "established",
        "sources": [
          "unknown"
        ],
        "tourism": "camp_site",
        "osm_id": 4401811813
      }
    },
    {
      "type": "Feature",
      "geometry": {
        "type": "Point",
        "coordinates": [
          -80.8813306,
          41.68379
        ]
      },
      "properties": {
        "name": "Wolf",
        "tourism": "camp_site",
        "osm_id": 4401811592,
        "sources": [
          "unknown"
        ]
      }
    },
    {
      "type": "Feature",
      "geometry": {
        "type": "Point",
        "coordinates": [
          -80.8794637,
          41.687612
        ]
      },
      "properties": {
        "name": "Ermer",
        "rating": null,
        "reviews_count": 0,
        "cost": 0,
        "amenities": [],
        "rig_friendly": [],
        "type": "established",
        "sources": [
          "unknown"
        ],
        "tourism": "camp_site",
        "osm_id": 4401813669
      }
    },
    {
      "type": "Feature",
      "geometry": {
        "type": "Point",
        "coordinates": [
          -80.8791259,
          41.6891141
        ]
      },
      "properties": {
        "name": "Aspen Glen",
        "tourism": "camp_site",
        "osm_id": 4401814712,
        "sources": [
          "unknown"
        ]
      }
    },
    {
      "type": "Feature",
      "geometry": {
        "type": "Point",
        "coordinates": [
          -81.1603848,
          41.2846475
        ]
      },
      "properties": {
        "name": "Camp Asbury",
        "tourism": "camp_site",
        "osm_id": 4666258151,
        "sources": [
          "unknown"
        ]
      }
    },
    {
      "type": "Feature",
      "geometry": {
        "type": "Point",
        "coordinates": [
          -81.0396156,
          41.3466006
        ]
      },
      "properties": {
        "name": "Kool Lakes Family Campground",
        "tourism": "camp_site",
        "osm_id": 4666258184,
        "sources": [
          "unknown"
        ]
      }
    },
    {
      "type": "Feature",
      "geometry": {
        "type": "Point",
        "coordinates": [
          -84.1162824,
          39.4447395
        ]
      },
      "properties": {
        "addr:city": "Oregonia",
        "addr:housenumber": "4464",
        "addr:postcode": "45054",
        "addr:state": "OH",
        "addr:street": "Emmons Road",
        "internet_access": "yes",
        "internet_access:fee": "no",
        "name": "Camp Lebanon Retreat Center",
        "tourism": "camp_site",
        "osm_id": 4677482818,
        "sources": [
          "unknown"
        ]
      }
    },
    {
      "type": "Feature",
      "geometry": {
        "type": "Point",
        "coordinates": [
          -81.6700741,
          39.7213409
        ]
      },
      "properties": {
        "addr:city": "McConnelsville",
        "addr:housenumber": "8605",
        "addr:postcode": "43756",
        "addr:state": "OH",
        "addr:street": "Wood Grove Road",
        "name": "Woodgrove Campground H",
        "tourism": "camp_site",
        "osm_id": 4988235010,
        "sources": [
          "unknown"
        ]
      }
    },
    {
      "type": "Feature",
      "geometry": {
        "type": "Point",
        "coordinates": [
          -82.8425802,
          41.43845
        ]
      },
      "properties": {
        "name": "Crystal Rock Campground",
        "tourism": "camp_site",
        "osm_id": 5042005289,
        "sources": [
          "unknown"
        ]
      }
    },
    {
      "type": "Feature",
      "geometry": {
        "type": "Point",
        "coordinates": [
          -83.4297681,
          42.1905159
        ]
      },
      "properties": {
        "name": "Walnut Grove Campground",
        "tourism": "caravan_site",
        "osm_id": 5109225183,
        "sources": [
          "unknown"
        ]
      }
    },
    {
      "type": "Feature",
      "geometry": {
        "type": "Point",
        "coordinates": [
          -81.0301853,
          40.0707306
        ]
      },
      "properties": {
        "addr:city": "Belmont",
        "addr:housenumber": "42561",
        "addr:postcode": "43718",
        "addr:state": "OH",
        "addr:street": "National Road",
        "name": "Ye Olde Barn RV Park",
        "phone": "+1-740-526-6275",
        "tourism": "caravan_site",
        "website": "https://www.yeoldebarn.com/",
        "osm_id": 5233363024,
        "sources": [
          "unknown"
        ]
      }
    },
    {
      "type": "Feature",
      "geometry": {
        "type": "Point",
        "coordinates": [
          -82.7903579,
          41.5080458
        ]
      },
      "properties": {
        "caravans": "yes",
        "name": "Zeller's Beach",
        "tourism": "camp_site",
        "osm_id": 5264900990,
        "sources": [
          "unknown"
        ]
      }
    },
    {
      "type": "Feature",
      "geometry": {
        "type": "Point",
        "coordinates": [
          -82.4773912,
          41.0873509
        ]
      },
      "properties": {
        "name": "Freedom Valley Campground",
        "tourism": "camp_site",
        "osm_id": 5734408252,
        "sources": [
          "unknown"
        ]
      }
    },
    {
      "type": "Feature",
      "geometry": {
        "type": "Point",
        "coordinates": [
          -82.184602,
          40.6313786
        ]
      },
      "properties": {
        "addr:city": "Loudonville",
        "addr:housenumber": "7700",
        "addr:postcode": "44842",
        "addr:state": "OH",
        "addr:street": "Township Road 462",
        "internet_access": "wlan",
        "name": "Camp Toodik Family Campground",
        "phone": "+1-419-994-3835",
        "tourism": "camp_site",
        "osm_id": 5763805779,
        "sources": [
          "unknown"
        ]
      }
    },
    {
      "type": "Feature",
      "geometry": {
        "type": "Point",
        "coordinates": [
          -82.9321087,
          40.378858
        ]
      },
      "properties": {
        "addr:city": "Ashley",
        "addr:housenumber": "7700",
        "addr:postcode": "43003",
        "addr:state": "OH",
        "addr:street": "Piper Road",
        "email": "info@recreationunlimited.org",
        "name": "Recreation Unlimited",
        "operator": "Recreation Unlimited",
        "phone": "+1-740-548-7006",
        "tourism": "camp_site",
        "website": "https://www.recreationunlimited.org/",
        "osm_id": 5843753245,
        "sources": [
          "unknown"
        ]
      }
    },
    {
      "type": "Feature",
      "geometry": {
        "type": "Point",
        "coordinates": [
          -83.7244039,
          39.9677842
        ]
      },
      "properties": {
        "tourism": "camp_site",
        "osm_id": 5982316558,
        "sources": [
          "unknown"
        ]
      }
    },
    {
      "type": "Feature",
      "geometry": {
        "type": "Point",
        "coordinates": [
          -82.8609423,
          40.3918324
        ]
      },
      "properties": {
        "name": "Camp Marengo",
        "tourism": "camp_site",
        "osm_id": 6347499786,
        "sources": [
          "unknown"
        ]
      }
    },
    {
      "type": "Feature",
      "geometry": {
        "type": "Point",
        "coordinates": [
          -81.3047356,
          41.4535518
        ]
      },
      "properties": {
        "name": "Camp site A",
        "operator": "Geauga Park District",
        "tourism": "camp_site",
        "osm_id": 6509857798,
        "sources": [
          "unknown"
        ]
      }
    },
    {
      "type": "Feature",
      "geometry": {
        "type": "Point",
        "coordinates": [
          -81.2984346,
          41.4561971
        ]
      },
      "properties": {
        "name": "Camp site B",
        "tourism": "camp_site",
        "osm_id": 6509857805,
        "sources": [
          "unknown"
        ]
      }
    },
    {
      "type": "Feature",
      "geometry": {
        "type": "Point",
        "coordinates": [
          -81.9773543,
          40.0440699
        ]
      },
      "properties": {
        "tourism": "camp_site",
        "osm_id": 6512991515,
        "sources": [
          "unknown"
        ]
      }
    },
    {
      "type": "Feature",
      "geometry": {
        "type": "Point",
        "coordinates": [
          -83.2293614,
          38.6750284
        ]
      },
      "properties": {
        "backcountry": "yes",
        "name": "Camp 6",
        "operator": "Shawnee State Park",
        "tents": "yes",
        "tourism": "camp_site",
        "osm_id": 6548696018,
        "sources": [
          "unknown"
        ]
      }
    },
    {
      "type": "Feature",
      "geometry": {
        "type": "Point",
        "coordinates": [
          -83.116379,
          38.737257
        ]
      },
      "properties": {
        "access": "yes",
        "backcountry": "yes",
        "caravans": "no",
        "fee": "no",
        "name": "Camp 2",
        "operator": "Shawnee State Park",
        "static_caravans": "no",
        "tents": "yes",
        "tourism": "camp_site",
        "osm_id": 6548706817,
        "sources": [
          "unknown"
        ]
      }
    },
    {
      "type": "Feature",
      "geometry": {
        "type": "Point",
        "coordinates": [
          -83.1812822,
          38.7003371
        ]
      },
      "properties": {
        "backcountry": "yes",
        "caravans": "no",
        "fee": "no",
        "name": "Camp 4",
        "operator": "Shawnee State Park",
        "static_caravans": "no",
        "tents": "yes",
        "tourism": "camp_site",
        "osm_id": 6548707683,
        "sources": [
          "unknown"
        ]
      }
    },
    {
      "type": "Feature",
      "geometry": {
        "type": "Point",
        "coordinates": [
          -83.25195,
          38.7241333
        ]
      },
      "properties": {
        "backcountry": "yes",
        "name": "Camp 7",
        "operator": "Shawnee State Park",
        "tents": "yes",
        "tourism": "camp_site",
        "osm_id": 6548709204,
        "sources": [
          "unknown"
        ]
      }
    },
    {
      "type": "Feature",
      "geometry": {
        "type": "Point",
        "coordinates": [
          -80.8237729,
          41.7283085
        ]
      },
      "properties": {
        "fee": "yes",
        "name": "Kenisee Lake",
        "tourism": "caravan_site",
        "osm_id": 6565823577,
        "sources": [
          "unknown"
        ]
      }
    },
    {
      "type": "Feature",
      "geometry": {
        "type": "Point",
        "coordinates": [
          -82.63587,
          38.6202596
        ]
      },
      "properties": {
        "name": "Two Point Group Campground",
        "operator": "USFS",
        "tourism": "camp_site",
        "osm_id": 6708212982,
        "sources": [
          "unknown"
        ]
      }
    },
    {
      "type": "Feature",
      "geometry": {
        "type": "Point",
        "coordinates": [
          -83.1216903,
          41.6080351
        ]
      },
      "properties": {
        "name": "Turtle Creek Campground",
        "tourism": "camp_site",
        "osm_id": 7276651681,
        "sources": [
          "unknown"
        ]
      }
    },
    {
      "type": "Feature",
      "geometry": {
        "type": "Point",
        "coordinates": [
          -84.584211,
          42.1740657
        ]
      },
      "properties": {
        "backcountry": "yes",
        "description": "Holton family campsite",
        "tourism": "camp_site",
        "osm_id": 7282348363,
        "sources": [
          "unknown"
        ]
      }
    },
    {
      "type": "Feature",
      "geometry": {
        "type": "Point",
        "coordinates": [
          -84.5683944,
          38.4829247
        ]
      },
      "properties": {
        "name": "Three Springs Campground",
        "tourism": "camp_site",
        "osm_id": 7396276398,
        "sources": [
          "unknown"
        ]
      }
    },
    {
      "type": "Feature",
      "geometry": {
        "type": "Point",
        "coordinates": [
          -81.5257324,
          40.8315188
        ]
      },
      "properties": {
        "name": "Towpath Campsite",
        "tourism": "camp_site",
        "osm_id": 7526837514,
        "sources": [
          "unknown"
        ]
      }
    },
    {
      "type": "Feature",
      "geometry": {
        "type": "Point",
        "coordinates": [
          -82.4693499,
          39.6235394
        ]
      },
      "properties": {
        "addr:city": "Logan",
        "addr:housenumber": "29746",
        "addr:postcode": "43138",
        "addr:state": "OH",
        "addr:street": "Logan-Hornsmill Road",
        "fee": "yes",
        "name": "Camp Akita",
        "operator": "First Community Church of Columbus",
        "tourism": "camp_site",
        "osm_id": 7638166396,
        "sources": [
          "unknown"
        ]
      }
    },
    {
      "type": "Feature",
      "geometry": {
        "type": "Point",
        "coordinates": [
          -82.1693763,
          39.426015
        ]
      },
      "properties": {
        "backcountry": "yes",
        "tourism": "camp_site",
        "osm_id": 7885479341,
        "sources": [
          "unknown"
        ]
      }
    },
    {
      "type": "Feature",
      "geometry": {
        "type": "Point",
        "coordinates": [
          -82.0408792,
          39.3583156
        ]
      },
      "properties": {
        "group_only": "yes",
        "tourism": "camp_site",
        "osm_id": 8423785237,
        "sources": [
          "unknown"
        ]
      }
    },
    {
      "type": "Feature",
      "geometry": {
        "type": "Point",
        "coordinates": [
          -84.4001843,
          39.6397594
        ]
      },
      "properties": {
        "access": "permissive",
        "addr:city": "Germantown",
        "addr:postcode": "45327",
        "addr:state": "OH",
        "addr:street": "Old Mill Rd",
        "name": "Old Mill Campground",
        "operator": "Five Rivers MetroParks",
        "tourism": "camp_site",
        "osm_id": 8568376181,
        "sources": [
          "unknown"
        ]
      }
    },
    {
      "type": "Feature",
      "geometry": {
        "type": "Point",
        "coordinates": [
          -83.7924356,
          41.6411217
        ]
      },
      "properties": {
        "rating": null,
        "reviews_count": 0,
        "cost": 0,
        "amenities": [],
        "rig_friendly": [],
        "type": "established",
        "sources": [
          "unknown"
        ],
        "tourism": "camp_site",
        "osm_id": 8627233824
      }
    },
    {
      "type": "Feature",
      "geometry": {
        "type": "Point",
        "coordinates": [
          -83.7935085,
          41.6399548
        ]
      },
      "properties": {
        "tourism": "camp_site",
        "osm_id": 8627233827,
        "sources": [
          "unknown"
        ]
      }
    },
    {
      "type": "Feature",
      "geometry": {
        "type": "Point",
        "coordinates": [
          -83.1060706,
          41.4811255
        ]
      },
      "properties": {
        "access": "private",
        "addr:city": "Oak Harbor",
        "addr:housenumber": "8966",
        "addr:postcode": "43449",
        "addr:state": "OH",
        "addr:street": "West Oak Harbor Soutn East",
        "capacity": "100",
        "group_only": "yes",
        "name": "Boy Scout Troop's 316 Inc. Scout Farm.",
        "operator": "Roger Carpenter",
        "tourism": "camp_site",
        "osm_id": 8648980027,
        "sources": [
          "unknown"
        ]
      }
    },
    {
      "type": "Feature",
      "geometry": {
        "type": "Point",
        "coordinates": [
          -81.2562724,
          40.4985143
        ]
      },
      "properties": {
        "name": "Eastern Ohio Basketball Camp",
        "tourism": "camp_site",
        "osm_id": 8815822109,
        "sources": [
          "unknown"
        ]
      }
    },
    {
      "type": "Feature",
      "geometry": {
        "type": "Point",
        "coordinates": [
          -82.1036301,
          41.0146694
        ]
      },
      "properties": {
        "name": "Homerville KOA",
        "tourism": "camp_site",
        "osm_id": 9181590617,
        "sources": [
          "unknown"
        ]
      }
    },
    {
      "type": "Feature",
      "geometry": {
        "type": "Point",
        "coordinates": [
          -84.2526478,
          42.2004655
        ]
      },
      "properties": {
        "group_only": "yes",
        "name": "Oaks",
        "scout": "yes",
        "tourism": "camp_site",
        "osm_id": 9837393117,
        "sources": [
          "unknown"
        ]
      }
    },
    {
      "type": "Feature",
      "geometry": {
        "type": "Point",
        "coordinates": [
          -84.2546098,
          42.2004523
        ]
      },
      "properties": {
        "group_only": "yes",
        "name": "Dogwoods",
        "scout": "yes",
        "tourism": "camp_site",
        "osm_id": 9837393118,
        "sources": [
          "unknown"
        ]
      }
    },
    {
      "type": "Feature",
      "geometry": {
        "type": "Point",
        "coordinates": [
          -84.2565357,
          42.201137
        ]
      },
      "properties": {
        "group_only": "yes",
        "name": "Tulip Poplars",
        "scout": "yes",
        "tourism": "camp_site",
        "osm_id": 9837393119,
        "sources": [
          "unknown"
        ]
      }
    },
    {
      "type": "Feature",
      "geometry": {
        "type": "Point",
        "coordinates": [
          -84.25742,
          42.2022586
        ]
      },
      "properties": {
        "group_only": "yes",
        "name": "Beeches",
        "scout": "yes",
        "tourism": "camp_site",
        "osm_id": 9837393120,
        "sources": [
          "unknown"
        ]
      }
    },
    {
      "type": "Feature",
      "geometry": {
        "type": "Point",
        "coordinates": [
          -84.2552951,
          42.2018769
        ]
      },
      "properties": {
        "group_only": "yes",
        "name": "Elms",
        "scout": "yes",
        "tourism": "camp_site",
        "osm_id": 9837393121,
        "sources": [
          "unknown"
        ]
      }
    },
    {
      "type": "Feature",
      "geometry": {
        "type": "Point",
        "coordinates": [
          -84.2533039,
          42.2019051
        ]
      },
      "properties": {
        "name": "Maples",
        "rating": null,
        "reviews_count": 0,
        "cost": 0,
        "amenities": [],
        "rig_friendly": [],
        "type": "established",
        "sources": [
          "unknown"
        ],
        "tourism": "camp_site",
        "osm_id": 1097533352
      }
    },
    {
      "type": "Feature",
      "geometry": {
        "type": "Point",
        "coordinates": [
          -84.2482351,
          42.2053798
        ]
      },
      "properties": {
        "group_only": "yes",
        "name": "Butternut",
        "scout": "yes",
        "tourism": "camp_site",
        "osm_id": 9837404695,
        "sources": [
          "unknown"
        ]
      }
    },
    {
      "type": "Feature",
      "geometry": {
        "type": "Point",
        "coordinates": [
          -84.2453684,
          42.2061574
        ]
      },
      "properties": {
        "group_only": "yes",
        "name": "Basswoods",
        "scout": "yes",
        "tourism": "camp_site",
        "osm_id": 9837404696,
        "sources": [
          "unknown"
        ]
      }
    },
    {
      "type": "Feature",
      "geometry": {
        "type": "Point",
        "coordinates": [
          -82.8127696,
          39.7893014
        ]
      },
      "properties": {
        "access": "yes",
        "addr:city": "Canal Winchester",
        "addr:housenumber": "3715",
        "addr:postcode": "43110",
        "addr:state": "OH",
        "addr:street": "Cedar Hill Road",
        "name": "Jackson Lake Campground and Park",
        "openfire": "yes",
        "shower": "yes",
        "toilets": "yes",
        "tourism": "camp_site",
        "osm_id": 9894220425,
        "sources": [
          "unknown"
        ]
      }
    },
    {
      "type": "Feature",
      "geometry": {
        "type": "Point",
        "coordinates": [
          -81.034084,
          41.0185004
        ]
      },
      "properties": {
        "name": "Philabaun's Hidden Cove",
        "tourism": "camp_site",
        "osm_id": 9920016510,
        "sources": [
          "unknown"
        ]
      }
    },
    {
      "type": "Feature",
      "geometry": {
        "type": "Point",
        "coordinates": [
          -80.9889629,
          41.0274817
        ]
      },
      "properties": {
        "name": "Lakeside Campground",
        "tourism": "camp_site",
        "osm_id": 9920079160,
        "sources": [
          "unknown"
        ]
      }
    },
    {
      "type": "Feature",
      "geometry": {
        "type": "Point",
        "coordinates": [
          -81.09468,
          38.866916
        ]
      },
      "properties": {
        "tourism": "camp_site",
        "osm_id": 9991916343,
        "sources": [
          "unknown"
        ]
      }
    },
    {
      "type": "Feature",
      "geometry": {
        "type": "Point",
        "coordinates": [
          -81.3645215,
          39.1471944
        ]
      },
      "properties": {
        "note": "This may be the Boy Scout Camp Kootaga",
        "tourism": "camp_site",
        "osm_id": 9995626561,
        "sources": [
          "unknown"
        ]
      }
    },
    {
      "type": "Feature",
      "geometry": {
        "type": "Point",
        "coordinates": [
          -81.472016,
          39.427074
        ]
      },
      "properties": {
        "name": "Washington County Fairgrounds Campground",
        "tourism": "camp_site",
        "website": "https://www.washcountyfair.com/camping/",
        "osm_id": 10048111612,
        "sources": [
          "unknown"
        ]
      }
    },
    {
      "type": "Feature",
      "geometry": {
        "type": "Point",
        "coordinates": [
          -81.2645548,
          40.5443394
        ]
      },
      "properties": {
        "name": "Atwood",
        "tourism": "camp_site",
        "osm_id": 10069675517,
        "sources": [
          "unknown"
        ]
      }
    },
    {
      "type": "Feature",
      "geometry": {
        "type": "Point",
        "coordinates": [
          -80.5718207,
          40.6981694
        ]
      },
      "properties": {
        "name": "Smoke's Tie Line",
        "tourism": "camp_site",
        "osm_id": 10168038972,
        "sources": [
          "unknown"
        ]
      }
    },
    {
      "type": "Feature",
      "geometry": {
        "type": "Point",
        "coordinates": [
          -83.2080433,
          38.6602448
        ]
      },
      "properties": {
        "access": "permit",
        "backcountry": "yes",
        "caravans": "no",
        "fee": "no",
        "name": "Camp 5",
        "operator": "Shawnee State Park",
        "static_caravans": "no",
        "tents": "yes",
        "tourism": "camp_site",
        "osm_id": 10177525008,
        "sources": [
          "unknown"
        ]
      }
    },
    {
      "type": "Feature",
      "geometry": {
        "type": "Point",
        "coordinates": [
          -84.4330601,
          42.0419572
        ]
      },
      "properties": {
        "name": "Somerset Beach Campground",
        "rating": null,
        "reviews_count": 0,
        "cost": 0,
        "amenities": [],
        "rig_friendly": [],
        "type": "established",
        "sources": [
          "unknown"
        ],
        "tourism": "caravan_site",
        "osm_id": 150788633
      }
    },
    {
      "type": "Feature",
      "geometry": {
        "type": "Point",
        "coordinates": [
          -81.4205218,
          39.3924425
        ]
      },
      "properties": {
        "access": "private",
        "description": "Private Campground for owners and guests only per sign at entrance.",
        "name": "Sandcastle Campground",
        "tourism": "camp_site",
        "osm_id": 10666009876,
        "sources": [
          "unknown"
        ]
      }
    },
    {
      "type": "Feature",
      "geometry": {
        "type": "Point",
        "coordinates": [
          -83.8668578,
          39.7881788
        ]
      },
      "properties": {
        "tourism": "camp_site",
        "osm_id": 10754740603,
        "sources": [
          "unknown"
        ]
      }
    },
    {
      "type": "Feature",
      "geometry": {
        "type": "Point",
        "coordinates": [
          -82.8110231,
          40.5440257
        ]
      },
      "properties": {
        "tourism": "caravan_site",
        "osm_id": 10754811600,
        "sources": [
          "unknown"
        ]
      }
    },
    {
      "type": "Feature",
      "geometry": {
        "type": "Point",
        "coordinates": [
          -83.0616346,
          40.3977252
        ]
      },
      "properties": {
        "tourism": "camp_site",
        "osm_id": 10754835585,
        "sources": [
          "unknown"
        ]
      }
    },
    {
      "type": "Feature",
      "geometry": {
        "type": "Point",
        "coordinates": [
          -82.7523532,
          39.3962074
        ]
      },
      "properties": {
        "tourism": "camp_site",
        "osm_id": 10754838719,
        "sources": [
          "unknown"
        ]
      }
    },
    {
      "type": "Feature",
      "geometry": {
        "type": "Point",
        "coordinates": [
          -82.5295416,
          39.4043813
        ]
      },
      "properties": {
        "tourism": "camp_site",
        "osm_id": 10754844148,
        "sources": [
          "unknown"
        ]
      }
    },
    {
      "type": "Feature",
      "geometry": {
        "type": "Point",
        "coordinates": [
          -82.3420066,
          39.3390908
        ]
      },
      "properties": {
        "tourism": "camp_site",
        "osm_id": 10754844158,
        "sources": [
          "unknown"
        ]
      }
    },
    {
      "type": "Feature",
      "geometry": {
        "type": "Point",
        "coordinates": [
          -81.8523437,
          39.8189109
        ]
      },
      "properties": {
        "name": "Blue Rock State Park Lower Campground",
        "rating": null,
        "reviews_count": 0,
        "cost": 0,
        "amenities": [],
        "rig_friendly": [],
        "type": "established",
        "sources": [
          "unknown"
        ],
        "tourism": "camp_site",
        "osm_id": 11026459520
      }
    },
    {
      "type": "Feature",
      "geometry": {
        "type": "Point",
        "coordinates": [
          -83.8779251,
          41.4103598
        ]
      },
      "properties": {
        "tourism": "camp_site",
        "osm_id": 10754892304,
        "sources": [
          "unknown"
        ]
      }
    },
    {
      "type": "Feature",
      "geometry": {
        "type": "Point",
        "coordinates": [
          -84.2467288,
          41.2909496
        ]
      },
      "properties": {
        "tourism": "camp_site",
        "osm_id": 10754895244,
        "sources": [
          "unknown"
        ]
      }
    },
    {
      "type": "Feature",
      "geometry": {
        "type": "Point",
        "coordinates": [
          -83.8897483,
          39.3890921
        ]
      },
      "properties": {
        "tourism": "camp_site",
        "osm_id": 10754902057,
        "sources": [
          "unknown"
        ]
      }
    },
    {
      "type": "Feature",
      "geometry": {
        "type": "Point",
        "coordinates": [
          -81.4980228,
          40.0953336
        ]
      },
      "properties": {
        "tourism": "camp_site",
        "osm_id": 10754920923,
        "sources": [
          "unknown"
        ]
      }
    },
    {
      "type": "Feature",
      "geometry": {
        "type": "Point",
        "coordinates": [
          -81.7745587,
          39.0892594
        ]
      },
      "properties": {
        "tourism": "camp_site",
        "osm_id": 10754937147,
        "sources": [
          "unknown"
        ]
      }
    },
    {
      "type": "Feature",
      "geometry": {
        "type": "Point",
        "coordinates": [
          -81.0255411,
          40.0425849
        ]
      },
      "properties": {
        "caravans": "yes",
        "fee": "yes",
        "name": "Barkcamp State Park Campground",
        "tents": "yes",
        "tourism": "camp_site",
        "website": "https://ohiodnr.gov/go-and-do/plan-a-visit/campgrounds",
        "osm_id": 10754942968,
        "sources": [
          "unknown"
        ]
      }
    },
    {
      "type": "Feature",
      "geometry": {
        "type": "Point",
        "coordinates": [
          -80.8775526,
          40.8061074
        ]
      },
      "properties": {
        "tourism": "camp_site",
        "osm_id": 10754946711,
        "sources": [
          "unknown"
        ]
      }
    },
    {
      "type": "Feature",
      "geometry": {
        "type": "Point",
        "coordinates": [
          -80.7659343,
          41.3128679
        ]
      },
      "properties": {
        "caravans": "yes",
        "name": "Mosquito Lake Campground",
        "tents": "yes",
        "tourism": "camp_site",
        "osm_id": 10754972524,
        "sources": [
          "unknown"
        ]
      }
    },
    {
      "type": "Feature",
      "geometry": {
        "type": "Point",
        "coordinates": [
          -82.0209877,
          41.2327363
        ]
      },
      "properties": {
        "addr:city": "Grafton",
        "addr:housenumber": "17273",
        "addr:postcode": "44044",
        "addr:state": "OH",
        "addr:street": "Avon Belden Road",
        "email": "mailto:staff@americanwildernesscampground.com",
        "fee": "yes",
        "name": "American Wilderness Campground",
        "phone": "+1 440 926 3700",
        "power_supply": "yes",
        "reservation": "yes",
        "sanitary_dump_station": "yes",
        "tourism": "caravan_site",
        "osm_id": 11104949276,
        "sources": [
          "unknown"
        ]
      }
    },
    {
      "type": "Feature",
      "geometry": {
        "type": "Point",
        "coordinates": [
          -82.2351876,
          39.5762741
        ]
      },
      "properties": {
        "caravans": "yes",
        "fee": "yes",
        "name": "Begley's ATV Campground",
        "phone": "+17403942539",
        "tents": "yes",
        "tourism": "camp_site",
        "website": "http://www.begleyscampground.com/",
        "osm_id": 11108178591,
        "sources": [
          "unknown"
        ]
      }
    },
    {
      "type": "Feature",
      "geometry": {
        "type": "Point",
        "coordinates": [
          -82.2482987,
          39.6085859
        ]
      },
      "properties": {
        "backcountry": "yes",
        "fee": "no",
        "name": "Old Stone Church Trailhead Camping",
        "note": "Usable as overflow camping for Stone Church Horse Campground.",
        "tourism": "camp_site",
        "website": "https://www.fs.usda.gov/recarea/wayne/recreation/recarea/?recid=82446",
        "osm_id": 11108220185,
        "sources": [
          "unknown"
        ]
      }
    },
    {
      "type": "Feature",
      "geometry": {
        "type": "Point",
        "coordinates": [
          -82.250006,
          39.6080574
        ]
      },
      "properties": {
        "name": "Creekside Campground",
        "phone": "+17408232211",
        "tourism": "camp_site",
        "osm_id": 11108269229,
        "sources": [
          "unknown"
        ]
      }
    },
    {
      "type": "Feature",
      "geometry": {
        "type": "Point",
        "coordinates": [
          -83.749396,
          41.4767047
        ]
      },
      "properties": {
        "name": "Farnsworth Group Campsite",
        "rating": null,
        "reviews_count": 0,
        "cost": 0,
        "amenities": [],
        "rig_friendly": [],
        "type": "established",
        "sources": [
          "unknown"
        ],
        "tourism": "camp_site",
        "osm_id": 1199237109
      }
    },
    {
      "type": "Feature",
      "geometry": {
        "type": "Point",
        "coordinates": [
          -84.4265441,
          39.6405891
        ]
      },
      "properties": {
        "name": "BackPacking Campsite A (of A,B, & C)",
        "tourism": "camp_site",
        "osm_id": 11238840237,
        "sources": [
          "unknown"
        ]
      }
    },
    {
      "type": "Feature",
      "geometry": {
        "type": "Point",
        "coordinates": [
          -81.5393343,
          41.1275596
        ]
      },
      "properties": {
        "backcountry": "yes",
        "caravans": "no",
        "name": "Big Bend Campsite",
        "operator": "Summit Metro Parks",
        "tents": "yes",
        "tourism": "camp_site",
        "website": "https://www.summitmetroparks.org/camping.aspx",
        "osm_id": 11352898462,
        "sources": [
          "unknown"
        ]
      }
    },
    {
      "type": "Feature",
      "geometry": {
        "type": "Point",
        "coordinates": [
          -80.654289,
          38.7024766
        ]
      },
      "properties": {
        "tourism": "caravan_site",
        "osm_id": 11488421920,
        "sources": [
          "unknown"
        ]
      }
    },
    {
      "type": "Feature",
      "geometry": {
        "type": "Point",
        "coordinates": [
          -80.7306623,
          39.2744247
        ]
      },
      "properties": {
        "tourism": "caravan_site",
        "osm_id": 11489010300,
        "sources": [
          "unknown"
        ]
      }
    },
    {
      "type": "Feature",
      "geometry": {
        "type": "Point",
        "coordinates": [
          -80.5463433,
          41.647524
        ]
      },
      "properties": {
        "name": "Lake Village Campground",
        "tourism": "camp_site",
        "osm_id": 11523026809,
        "sources": [
          "unknown"
        ]
      }
    },
    {
      "type": "Feature",
      "geometry": {
        "type": "Point",
        "coordinates": [
          -81.2472712,
          41.4863103
        ]
      },
      "properties": {
        "addr:housenumber": "14040",
        "addr:postcode": "44065",
        "addr:street": "Auburn Road",
        "internet_access": "wlan",
        "name": "Camp Ho Mita Koda",
        "opening_hours": "Mo-Fr 08:00-16:00",
        "phone": "+1 440-739-4095",
        "tourism": "camp_site",
        "website": "https://camphomitakoda.org/",
        "osm_id": 11670184669,
        "sources": [
          "unknown"
        ]
      }
    },
    {
      "type": "Feature",
      "geometry": {
        "type": "Point",
        "coordinates": [
          -82.9336879,
          39.0480181
        ]
      },
      "properties": {
        "tourism": "caravan_site",
        "osm_id": 11809848371,
        "sources": [
          "unknown"
        ]
      }
    },
    {
      "type": "Feature",
      "geometry": {
        "type": "Point",
        "coordinates": [
          -84.1156521,
          39.0510657
        ]
      },
      "properties": {
        "access": "permit",
        "backcountry": "yes",
        "caravans": "no",
        "fee": "no",
        "name": "Camp 4",
        "static_caravans": "no",
        "tents": "yes",
        "tourism": "camp_site",
        "osm_id": 11812997947,
        "sources": [
          "unknown"
        ]
      }
    },
    {
      "type": "Feature",
      "geometry": {
        "type": "Point",
        "coordinates": [
          -84.0949634,
          39.0373036
        ]
      },
      "properties": {
        "name": "East Fork State Park Campground",
        "rating": null,
        "reviews_count": 0,
        "cost": 0,
        "amenities": [],
        "rig_friendly": [],
        "type": "multipolygon",
        "sources": [
          "unknown"
        ],
        "tourism": "camp_site",
        "osm_id": 18995774
      }
    },
    {
      "type": "Feature",
      "geometry": {
        "type": "Point",
        "coordinates": [
          -83.9841119,
          39.5354069
        ]
      },
      "properties": {
        "name": "Caesar Creek State Park Campground",
        "rating": null,
        "reviews_count": 0,
        "cost": 0,
        "amenities": [],
        "rig_friendly": [],
        "type": "multipolygon",
        "sources": [
          "unknown"
        ],
        "tourism": "camp_site",
        "osm_id": 17519157
      }
    },
    {
      "type": "Feature",
      "geometry": {
        "type": "Point",
        "coordinates": [
          -81.4163323,
          39.9064316
        ]
      },
      "properties": {
        "name": "Seneca Lake Woodlands Campground",
        "rating": null,
        "reviews_count": 0,
        "cost": 0,
        "amenities": [],
        "rig_friendly": [],
        "type": "established",
        "sources": [
          "unknown"
        ],
        "tourism": "caravan_site",
        "osm_id": 11891762712
      }
    },
    {
      "type": "Feature",
      "geometry": {
        "type": "Point",
        "coordinates": [
          -81.4254029,
          39.9161022
        ]
      },
      "properties": {
        "name": "Seneca Lake Parkside Campground",
        "tourism": "caravan_site",
        "osm_id": 11891762711,
        "sources": [
          "unknown"
        ]
      }
    },
    {
      "type": "Feature",
      "geometry": {
        "type": "Point",
        "coordinates": [
          -81.9756375,
          38.4358622
        ]
      },
      "properties": {
        "Type": "K & A Camp",
        "group_only": "yes",
        "tourism": "camp_site",
        "osm_id": 11916311457,
        "sources": [
          "unknown"
        ]
      }
    },
    {
      "type": "Feature",
      "geometry": {
        "type": "Point",
        "coordinates": [
          -81.9746684,
          38.4368231
        ]
      },
      "properties": {
        "Type": "Mae Camp",
        "group_only": "yes",
        "tourism": "camp_site",
        "osm_id": 11916311458,
        "sources": [
          "unknown"
        ]
      }
    },
    {
      "type": "Feature",
      "geometry": {
        "type": "Point",
        "coordinates": [
          -83.153637,
          38.7671802
        ]
      },
      "properties": {
        "access": "yes",
        "backcountry": "yes",
        "caravans": "no",
        "fee": "no",
        "name": "Camp 1",
        "operator": "Shawnee State Park",
        "static_caravans": "no",
        "tents": "yes",
        "tourism": "camp_site",
        "osm_id": 11934930559,
        "sources": [
          "unknown"
        ]
      }
    },
    {
      "type": "Feature",
      "geometry": {
        "type": "Point",
        "coordinates": [
          -83.159568,
          38.72943
        ]
      },
      "properties": {
        "backcountry": "yes",
        "caravans": "no",
        "fee": "no",
        "name": "Camp 3",
        "operator": "Shawnee State Park",
        "static_caravans": "no",
        "tents": "yes",
        "tourism": "camp_site",
        "osm_id": 11937376152,
        "sources": [
          "unknown"
        ]
      }
    },
    {
      "type": "Feature",
      "geometry": {
        "type": "Point",
        "coordinates": [
          -81.0864284,
          39.2518183
        ]
      },
      "properties": {
        "access": "yes",
        "backcountry": "yes",
        "caravans": "no",
        "charge": "10 USD",
        "check_date": "2024-05-29",
        "fee": "yes",
        "openfire": "yes",
        "operator": "West Virginia State Parks",
        "phone": "+1 833 987 2757",
        "picnic_table": "yes",
        "static_caravans": "no",
        "tents": "yes",
        "tourism": "camp_site",
        "osm_id": 11943750438,
        "sources": [
          "unknown"
        ]
      }
    },
    {
      "type": "Feature",
      "geometry": {
        "type": "Point",
        "coordinates": [
          -81.0956987,
          39.2474311
        ]
      },
      "properties": {
        "access": "yes",
        "backcountry": "yes",
        "caravans": "no",
        "charge": "10 USD",
        "check_date": "2024-05-29",
        "fee": "yes",
        "openfire": "yes",
        "operator": "West Virginia State Parks",
        "phone": "+1 833 987 2757",
        "picnic_table": "yes",
        "static_caravans": "no",
        "tents": "yes",
        "tourism": "camp_site",
        "osm_id": 11943750443,
        "sources": [
          "unknown"
        ]
      }
    },
    {
      "type": "Feature",
      "geometry": {
        "type": "Point",
        "coordinates": [
          -81.1104359,
          39.2387586
        ]
      },
      "properties": {
        "access": "yes",
        "backcountry": "yes",
        "caravans": "no",
        "charge": "10 USD",
        "check_date": "2024-05-29",
        "fee": "yes",
        "openfire": "yes",
        "operator": "West Virginia State Parks",
        "phone": "+1 833 987 2757",
        "picnic_table": "yes",
        "static_caravans": "no",
        "tents": "yes",
        "tourism": "camp_site",
        "osm_id": 11943750444,
        "sources": [
          "unknown"
        ]
      }
    },
    {
      "type": "Feature",
      "geometry": {
        "type": "Point",
        "coordinates": [
          -81.1377448,
          39.216731
        ]
      },
      "properties": {
        "access": "yes",
        "backcountry": "yes",
        "caravans": "no",
        "charge": "10 USD",
        "check_date": "2024-05-29",
        "fee": "yes",
        "openfire": "yes",
        "operator": "West Virginia State Parks",
        "phone": "+1 833 987 2757",
        "picnic_table": "yes",
        "static_caravans": "no",
        "tents": "yes",
        "tourism": "camp_site",
        "osm_id": 11951983777,
        "sources": [
          "unknown"
        ]
      }
    },
    {
      "type": "Feature",
      "geometry": {
        "type": "Point",
        "coordinates": [
          -81.2687585,
          39.1906137
        ]
      },
      "properties": {
        "access": "yes",
        "backcountry": "yes",
        "caravans": "no",
        "charge": "10 USD",
        "check_date": "2024-05-29",
        "fee": "yes",
        "openfire": "yes",
        "operator": "West Virginia State Parks",
        "phone": "+1 833 987 2757",
        "picnic_table": "yes",
        "static_caravans": "no",
        "tents": "yes",
        "tourism": "camp_site",
        "osm_id": 11951983813,
        "sources": [
          "unknown"
        ]
      }
    },
    {
      "type": "Feature",
      "geometry": {
        "type": "Point",
        "coordinates": [
          -83.0848087,
          39.3829281
        ]
      },
      "properties": {
        "addr:housenumber": "10105",
        "addr:street": "County Road 550",
        "name": "Sun Valley Campground",
        "opening_hours": "Mo-Su 08:00-22:00",
        "phone": "+1-740-775-3490",
        "tourism": "camp_site",
        "website": "http://www.sunvalleycampground.freeservers.com/index.html",
        "osm_id": 12018247156,
        "sources": [
          "unknown"
        ]
      }
    },
    {
      "type": "Feature",
      "geometry": {
        "type": "Point",
        "coordinates": [
          -84.4376257,
          39.082587
        ]
      },
      "properties": {
        "tourism": "caravan_site",
        "osm_id": 12046186092,
        "sources": [
          "unknown"
        ]
      }
    },
    {
      "type": "Feature",
      "geometry": {
        "type": "Point",
        "coordinates": [
          -84.2769334,
          39.2133335
        ]
      },
      "properties": {
        "name": "Lakeview",
        "tourism": "camp_site",
        "osm_id": 12054347815,
        "sources": [
          "unknown"
        ]
      }
    },
    {
      "type": "Feature",
      "geometry": {
        "type": "Point",
        "coordinates": [
          -84.2777424,
          39.2126868
        ]
      },
      "properties": {
        "name": "Pike",
        "tourism": "camp_site",
        "osm_id": 12054347816,
        "sources": [
          "unknown"
        ]
      }
    },
    {
      "type": "Feature",
      "geometry": {
        "type": "Point",
        "coordinates": [
          -84.2788855,
          39.2150397
        ]
      },
      "properties": {
        "name": "Stuart Family",
        "tourism": "camp_site",
        "osm_id": 12054347817,
        "sources": [
          "unknown"
        ]
      }
    },
    {
      "type": "Feature",
      "geometry": {
        "type": "Point",
        "coordinates": [
          -84.2823886,
          39.2177618
        ]
      },
      "properties": {
        "name": "Reed",
        "tourism": "camp_site",
        "osm_id": 12054347819,
        "sources": [
          "unknown"
        ]
      }
    },
    {
      "type": "Feature",
      "geometry": {
        "type": "Point",
        "coordinates": [
          -84.2839054,
          39.217213
        ]
      },
      "properties": {
        "name": "Schuster's Glen",
        "rating": null,
        "reviews_count": 0,
        "cost": 0,
        "amenities": [],
        "rig_friendly": [],
        "type": "established",
        "sources": [
          "unknown"
        ],
        "tourism": "camp_site",
        "osm_id": 12054347829
      }
    },
    {
      "type": "Feature",
      "geometry": {
        "type": "Point",
        "coordinates": [
          -84.2854198,
          39.2159415
        ]
      },
      "properties": {
        "name": "Greiser",
        "tourism": "camp_site",
        "osm_id": 12054347821,
        "sources": [
          "unknown"
        ]
      }
    },
    {
      "type": "Feature",
      "geometry": {
        "type": "Point",
        "coordinates": [
          -84.2808326,
          39.21504
        ]
      },
      "properties": {
        "name": "Terhar",
        "rating": null,
        "reviews_count": 0,
        "cost": 0,
        "amenities": [],
        "rig_friendly": [],
        "type": "established",
        "sources": [
          "unknown"
        ],
        "tourism": "camp_site",
        "osm_id": 12054347823
      }
    },
    {
      "type": "Feature",
      "geometry": {
        "type": "Point",
        "coordinates": [
          -84.2822801,
          39.2140696
        ]
      },
      "properties": {
        "name": "Chippewa",
        "tourism": "camp_site",
        "osm_id": 12054347824,
        "sources": [
          "unknown"
        ]
      }
    },
    {
      "type": "Feature",
      "geometry": {
        "type": "Point",
        "coordinates": [
          -84.284274,
          39.2153728
        ]
      },
      "properties": {
        "name": "Wereley",
        "rating": null,
        "reviews_count": 0,
        "cost": 0,
        "amenities": [],
        "rig_friendly": [],
        "type": "established",
        "sources": [
          "unknown"
        ],
        "tourism": "camp_site",
        "osm_id": 12054347826
      }
    },
    {
      "type": "Feature",
      "geometry": {
        "type": "Point",
        "coordinates": [
          -84.2821072,
          39.2154128
        ]
      },
      "properties": {
        "name": "Hay",
        "rating": null,
        "reviews_count": 0,
        "cost": 0,
        "amenities": [],
        "rig_friendly": [],
        "type": "established",
        "sources": [
          "unknown"
        ],
        "tourism": "camp_site",
        "osm_id": 12054347830
      }
    },
    {
      "type": "Feature",
      "geometry": {
        "type": "Point",
        "coordinates": [
          -84.2766356,
          39.211224
        ]
      },
      "properties": {
        "name": "Friendship",
        "rating": null,
        "reviews_count": 0,
        "cost": 0,
        "amenities": [],
        "rig_friendly": [],
        "type": "established",
        "sources": [
          "unknown"
        ],
        "tourism": "camp_site",
        "osm_id": 12054347832
      }
    },
    {
      "type": "Feature",
      "geometry": {
        "type": "Point",
        "coordinates": [
          -84.2764873,
          39.2123755
        ]
      },
      "properties": {
        "name": "Martin",
        "tourism": "camp_site",
        "osm_id": 12054347833,
        "sources": [
          "unknown"
        ]
      }
    },
    {
      "type": "Feature",
      "geometry": {
        "type": "Point",
        "coordinates": [
          -84.2724119,
          39.2097479
        ]
      },
      "properties": {
        "name": "Ernst and Young",
        "rating": null,
        "reviews_count": 0,
        "cost": 0,
        "amenities": [],
        "rig_friendly": [],
        "type": "established",
        "sources": [
          "unknown"
        ],
        "tourism": "camp_site",
        "osm_id": 12054477852
      }
    },
    {
      "type": "Feature",
      "geometry": {
        "type": "Point",
        "coordinates": [
          -84.2703886,
          39.2096446
        ]
      },
      "properties": {
        "name": "Grand Canyon",
        "tourism": "camp_site",
        "osm_id": 12054477853,
        "sources": [
          "unknown"
        ]
      }
    },
    {
      "type": "Feature",
      "geometry": {
        "type": "Point",
        "coordinates": [
          -84.2711247,
          39.2085369
        ]
      },
      "properties": {
        "name": "Royal Gorge",
        "tourism": "camp_site",
        "osm_id": 12054477854,
        "sources": [
          "unknown"
        ]
      }
    },
    {
      "type": "Feature",
      "geometry": {
        "type": "Point",
        "coordinates": [
          -84.27096,
          39.2075872
        ]
      },
      "properties": {
        "name": "Myron Kahn",
        "tourism": "camp_site",
        "osm_id": 12054477855,
        "sources": [
          "unknown"
        ]
      }
    },
    {
      "type": "Feature",
      "geometry": {
        "type": "Point",
        "coordinates": [
          -84.7886964,
          38.8439613
        ]
      },
      "properties": {
        "name": "Campsite 7",
        "rating": null,
        "reviews_count": 0,
        "cost": 0,
        "amenities": [],
        "rig_friendly": [],
        "type": "established",
        "sources": [
          "unknown"
        ],
        "tourism": "camp_site",
        "osm_id": 12149942333
      }
    },
    {
      "type": "Feature",
      "geometry": {
        "type": "Point",
        "coordinates": [
          -83.6405416,
          40.3380553
        ]
      },
      "properties": {
        "addr:housenumber": "6946",
        "addr:postcode": "43360",
        "addr:street": "County Road 10",
        "denomination": "presbyterian",
        "description": "Kirmont Center offers outdoor activities, camping, and retreat facilities. The grounds are nestled in the wilderness of Logan County amidst the rolling hills of Ohio.",
        "name": "Kirkmont Center",
        "tourism": "camp_site",
        "website": "https://www.kirkmontcenter.org/",
        "osm_id": 12207148101,
        "sources": [
          "unknown"
        ]
      }
    },
    {
      "type": "Feature",
      "geometry": {
        "type": "Point",
        "coordinates": [
          -81.5251923,
          39.9886769
        ]
      },
      "properties": {
        "tourism": "caravan_site",
        "osm_id": 12400565532,
        "sources": [
          "unknown"
        ]
      }
    },
    {
      "type": "Feature",
      "geometry": {
        "type": "Point",
        "coordinates": [
          -82.3349397,
          40.6510667
        ]
      },
      "properties": {
        "name": "Youth Group Camp",
        "tourism": "camp_site",
        "osm_id": 12444357635,
        "sources": [
          "unknown"
        ]
      }
    },
    {
      "type": "Feature",
      "geometry": {
        "type": "Point",
        "coordinates": [
          -80.552609,
          41.6370634
        ]
      },
      "properties": {
        "name": "Holiday Camplands",
        "rating": null,
        "reviews_count": 0,
        "cost": 0,
        "amenities": [],
        "rig_friendly": [],
        "type": "multipolygon",
        "sources": [
          "unknown"
        ],
        "tourism": "camp_site",
        "osm_id": 17037039
      }
    },
    {
      "type": "Feature",
      "geometry": {
        "type": "Point",
        "coordinates": [
          -80.9534797,
          40.6818578
        ]
      },
      "properties": {
        "access": "permit",
        "addr:city": "Kensington",
        "addr:housenumber": "7070",
        "addr:postcode": "44427",
        "addr:state": "Ohio",
        "addr:street": "Meter Road Northeast",
        "camp_site": "standard",
        "group_only": "yes",
        "name": "Seven Ranges Scout Reservation",
        "operator": "Buckeye Council",
        "tents": "yes",
        "tourism": "camp_site",
        "website": "https://www.buckeyecouncil.org/camping-old/weekend-camping/seven-ranges-scout-reservation/",
        "osm_id": 12569143121,
        "sources": [
          "unknown"
        ]
      }
    },
    {
      "type": "Feature",
      "geometry": {
        "type": "Point",
        "coordinates": [
          -84.2178525,
          39.8444144
        ]
      },
      "properties": {
        "access": "private",
        "addr:city": "Dayton",
        "addr:housenumber": "6675",
        "addr:state": "OH",
        "addr:street": "Brantford Road",
        "group_only": "yes",
        "name": "Cricket Holler Scout Camp, main entrance",
        "operator": "Miami Valley Council, Scouting America",
        "tourism": "camp_site",
        "osm_id": 12593492973,
        "sources": [
          "unknown"
        ]
      }
    },
    {
      "type": "Feature",
      "geometry": {
        "type": "Point",
        "coordinates": [
          -84.2314609,
          39.8400645
        ]
      },
      "properties": {
        "access": "private",
        "addr:city": "Dayton",
        "addr:housenumber": "6444",
        "addr:state": "OH",
        "addr:street": "Frederick Pike",
        "group_only": "yes",
        "name": "Schiewetz Center, Cricket Holler Scout Camp",
        "operator": "Miami Valley Council, Scouting America",
        "tourism": "camp_site",
        "osm_id": 12593492988,
        "sources": [
          "unknown"
        ]
      }
    },
    {
      "type": "Feature",
      "geometry": {
        "type": "Point",
        "coordinates": [
          -83.1730586,
          41.1072707
        ]
      },
      "properties": {
        "addr:housenumber": "107",
        "addr:postcode": "44883",
        "addr:street": "Melmore Street",
        "tourism": "caravan_site",
        "osm_id": 12712162401,
        "sources": [
          "unknown"
        ]
      }
    },
    {
      "type": "Feature",
      "geometry": {
        "type": "Point",
        "coordinates": [
          -84.2936831,
          38.9717011
        ]
      },
      "properties": {
        "name": "River Days Campground",
        "rating": null,
        "reviews_count": 0,
        "cost": 0,
        "amenities": [],
        "rig_friendly": [],
        "type": "established",
        "sources": [
          "unknown"
        ],
        "tourism": "caravan_site",
        "osm_id": 1321424950
      }
    },
    {
      "type": "Feature",
      "geometry": {
        "type": "Point",
        "coordinates": [
          -83.2861894,
          39.2136478
        ]
      },
      "properties": {
        "tourism": "camp_site",
        "osm_id": 12798911964,
        "sources": [
          "unknown"
        ]
      }
    },
    {
      "type": "Feature",
      "geometry": {
        "type": "Point",
        "coordinates": [
          -83.0243875,
          39.0016295
        ]
      },
      "properties": {
        "access": "unknown",
        "addr:housenumber": "3290",
        "addr:postcode": "45661",
        "addr:state": "Ohio",
        "addr:street": "US-23",
        "camp_site": "serviced",
        "caravans": "yes",
        "name": "Rockwater Campground",
        "tourism": "camp_site",
        "website": "https://rockwatercampground.com",
        "osm_id": 12872474597,
        "sources": [
          "unknown"
        ]
      }
    },
    {
      "type": "Feature",
      "geometry": {
        "type": "Point",
        "coordinates": [
          -81.9800697,
          38.9977838
        ]
      },
      "properties": {
        "tourism": "caravan_site",
        "osm_id": 12961391511,
        "sources": [
          "unknown"
        ]
      }
    },
    {
      "type": "Feature",
      "geometry": {
        "type": "Point",
        "coordinates": [
          -81.5973579,
          41.3050165
        ]
      },
      "properties": {
        "name": "Ottawa Overlook Backcountry Site 3",
        "rating": null,
        "reviews_count": 0,
        "cost": 0,
        "amenities": [],
        "rig_friendly": [],
        "type": "established",
        "sources": [
          "unknown"
        ],
        "tourism": "camp_site",
        "osm_id": 13128685544
      }
    },
    {
      "type": "Feature",
      "geometry": {
        "type": "Point",
        "coordinates": [
          -82.1835284,
          39.4142815
        ]
      },
      "properties": {
        "access": "customers",
        "addr:city": "Nelsonville",
        "addr:housenumber": "5395",
        "addr:postcode": "45764",
        "addr:state": "Ohio",
        "addr:street": "NEW FLOODWOOD RD",
        "camp_site": "basic",
        "caravans": "yes",
        "fee": "yes",
        "name": "Blue Dog Bike Camp",
        "static_caravans": "no",
        "tents": "yes",
        "tourism": "camp_site",
        "osm_id": 13096914796,
        "sources": [
          "unknown"
        ]
      }
    },
    {
      "type": "Feature",
      "geometry": {
        "type": "Point",
        "coordinates": [
          -84.3566835,
          40.3591247
        ]
      },
      "properties": {
        "name": "Group Camp 1",
        "rating": null,
        "reviews_count": 0,
        "cost": 0,
        "amenities": [],
        "rig_friendly": [],
        "type": "established",
        "sources": [
          "unknown"
        ],
        "tourism": "camp_site",
        "osm_id": 13132038284
      }
    },
    {
      "type": "Feature",
      "geometry": {
        "type": "Point",
        "coordinates": [
          -81.4255007,
          41.5595884
        ]
      },
      "properties": {
        "name": "Williams Woods Backcountry Site 1",
        "rating": null,
        "reviews_count": 0,
        "cost": 0,
        "amenities": [],
        "rig_friendly": [],
        "type": "established",
        "sources": [
          "unknown"
        ],
        "tourism": "camp_site",
        "osm_id": 13244711423
      }
    },
    {
      "type": "Feature",
      "geometry": {
        "type": "Point",
        "coordinates": [
          -81.1942393,
          40.3846054
        ]
      },
      "properties": {
        "access": "customers",
        "addr:city": "Uhrichsville",
        "addr:housenumber": "88716 Gyson Road",
        "addr:postcode": "44683",
        "addr:state": "OH",
        "addr:street": "Gyson Road",
        "camp_site": "serviced",
        "capacity:persons": "12",
        "capacity:tents": "4",
        "fee": "yes",
        "name": "Top of Tappan",
        "payment:credit_cards": "yes",
        "tents": "yes",
        "tourism": "camp_site",
        "osm_id": 13323233805,
        "sources": [
          "unknown"
        ]
      }
    },
    {
      "type": "Feature",
      "geometry": {
        "type": "Point",
        "coordinates": [
          -82.6200911,
          41.329706
        ]
      },
      "properties": {
        "tourism": "caravan_site",
        "osm_id": 13336769552,
        "sources": [
          "unknown"
        ]
      }
    },
    {
      "type": "Feature",
      "geometry": {
        "type": "Point",
        "coordinates": [
          -84.3899599,
          39.6296928
        ]
      },
      "properties": {
        "tourism": "camp_site",
        "osm_id": 13399077966,
        "sources": [
          "unknown"
        ]
      }
    },
    {
      "type": "Feature",
      "geometry": {
        "type": "Point",
        "coordinates": [
          -84.3521311,
          39.577683
        ]
      },
      "properties": {
        "name": "Little Turtle",
        "tourism": "camp_site",
        "osm_id": 13419205695,
        "sources": [
          "unknown"
        ]
      }
    },
    {
      "type": "Feature",
      "geometry": {
        "type": "Point",
        "coordinates": [
          -84.3509147,
          39.5769255
        ]
      },
      "properties": {
        "name": "Tecumseh",
        "rating": null,
        "reviews_count": 0,
        "cost": 0,
        "amenities": [],
        "rig_friendly": [],
        "type": "established",
        "sources": [
          "unknown"
        ],
        "tourism": "camp_site",
        "osm_id": 13419205697
      }
    },
    {
      "type": "Feature",
      "geometry": {
        "type": "Point",
        "coordinates": [
          -84.3533527,
          39.5832603
        ]
      },
      "properties": {
        "name": "Pine Ridge Backcountry",
        "tourism": "camp_site",
        "osm_id": 13419205699,
        "sources": [
          "unknown"
        ]
      }
    },
    {
      "type": "Feature",
      "geometry": {
        "type": "Point",
        "coordinates": [
          -83.760841,
          39.8582593
        ]
      },
      "properties": {
        "tourism": "caravan_site",
        "osm_id": 13424300924,
        "sources": [
          "unknown"
        ]
      }
    },
    {
      "type": "Feature",
      "geometry": {
        "type": "Point",
        "coordinates": [
          -80.6414427,
          40.5580398
        ]
      },
      "properties": {
        "ele": "205",
        "gnis:feature_id": "1537434",
        "name": "Cluster Islands",
        "place": "islet",
        "tourism": "camp_site",
        "wikidata": "Q5136681",
        "osm_id": 28376089,
        "sources": [
          "unknown"
        ]
      }
    },
    {
      "type": "Feature",
      "geometry": {
        "type": "Point",
        "coordinates": [
          -81.6418121,
          39.5467364
        ]
      },
      "properties": {
        "note": "Not residential as objects were not permanent buildings, looking at OSIP III it appears there are hookup posts for RV's and given proximity to the park and boat launch is probably RV park.",
        "tourism": "caravan_site",
        "osm_id": 37054628,
        "sources": [
          "unknown"
        ]
      }
    },
    {
      "type": "Feature",
      "geometry": {
        "type": "Point",
        "coordinates": [
          -80.513379,
          40.7546121
        ]
      },
      "properties": {
        "addr:city": "Darlington",
        "addr:country": "US",
        "addr:housenumber": "383",
        "addr:postcode": "16115",
        "addr:state": "PA",
        "addr:street": "State Line Road",
        "description": "Nudist Camping",
        "email": "wtl@whitethornlodge.org",
        "name": "White Thorn Lodge",
        "nudism": "obligatory",
        "phone": "+1-724-846-5984",
        "tourism": "camp_site",
        "website": "https://whitethornlodge.org/",
        "osm_id": 43102418,
        "sources": [
          "unknown"
        ]
      }
    },
    {
      "type": "Feature",
      "geometry": {
        "type": "Point",
        "coordinates": [
          -84.278595,
          39.2081653
        ]
      },
      "properties": {
        "leisure": "summer_camp",
        "name": "Dan Beard Reservation",
        "name:etymology": "Daniel Carter Beard",
        "name:etymology:wikidata": "Q1877026",
        "official_name": "Dan Beard Scout Reservation",
        "operator": "Dan Beard Council, Boy Scouts of America",
        "scout": "yes",
        "tourism": "camp_site",
        "osm_id": 50056906,
        "sources": [
          "unknown"
        ]
      }
    },
    {
      "type": "Feature",
      "geometry": {
        "type": "Point",
        "coordinates": [
          -84.1065057,
          39.4029321
        ]
      },
      "properties": {
        "brand": "YMCA",
        "brand:wikidata": "Q157169",
        "caravans": "no",
        "group_only": "yes",
        "impromptu": "no",
        "name": "YMCA Camp Kern",
        "openfire": "yes",
        "operator": "YMCA of Greater Dayton",
        "reception": "yes",
        "scout": "no",
        "tents": "no",
        "tourism": "camp_site",
        "website": "https://www.campkern.org/",
        "osm_id": 69025608,
        "sources": [
          "unknown"
        ]
      }
    },
    {
      "type": "Feature",
      "geometry": {
        "type": "Point",
        "coordinates": [
          -83.6387335,
          41.1367861
        ]
      },
      "properties": {
        "name": "Pleasant View RV Resort",
        "tourism": "caravan_site",
        "osm_id": 107936485,
        "sources": [
          "unknown"
        ]
      }
    },
    {
      "type": "Feature",
      "geometry": {
        "type": "Point",
        "coordinates": [
          -83.8581018,
          39.7996876
        ]
      },
      "properties": {
        "name": "Camp Hugh Taylor Birch",
        "operator": "Tecumseh Council Boy Scouts of America",
        "scout": "yes",
        "tourism": "camp_site",
        "website": "http://www.tecumsehcouncilbsa.org/Camping/CampBirch/",
        "osm_id": 128155364,
        "sources": [
          "unknown"
        ]
      }
    },
    {
      "type": "Feature",
      "geometry": {
        "type": "Point",
        "coordinates": [
          -84.0960531,
          39.4781902
        ]
      },
      "properties": {
        "operator": "Caesar Creek Soaring Club",
        "tourism": "caravan_site",
        "osm_id": 142603367,
        "sources": [
          "unknown"
        ]
      }
    },
    {
      "type": "Feature",
      "geometry": {
        "type": "Point",
        "coordinates": [
          -82.4374845,
          40.6363579
        ]
      },
      "properties": {
        "impromptu": "no",
        "name": "Hidden Hollow Camp",
        "tourism": "camp_site",
        "osm_id": 161101748,
        "sources": [
          "unknown"
        ]
      }
    },
    {
      "type": "Feature",
      "geometry": {
        "type": "Point",
        "coordinates": [
          -82.1894659,
          40.5707733
        ]
      },